FMT, 128, 89, FMT, BBnNZ, Type,Length,Name,Format,Columns
FMT, 129, 31, PARM, QNf, TimeUS,Name,Value
FMT, 130, 46, GPS, QBIHBcLLefffB, TimeUS,Status,GMS,GWk,NSats,HDop,Lat,Lng,Alt,Spd,GCrs,VZ,U
FMT, 131, 46, GPS2, QBIHBcLLefffB, TimeUS,Status,GMS,GWk,NSats,HDop,Lat,Lng,Alt,Spd,GCrs,VZ,U
FMT, 132, 46, GPSB, QBIHBcLLefffB, TimeUS,Status,GMS,GWk,NSats,HDop,Lat,Lng,Alt,Spd,GCrs,VZ,U
FMT, 193, 24, GPA, QCCCCBI, TimeUS,VDop,HAcc,VAcc,SAcc,VV,SMS
FMT, 194, 24, GPA2, QCCCCBI, TimeUS,VDop,HAcc,VAcc,SAcc,VV,SMS
FMT, 195, 24, GPAB, QCCCCBI, TimeUS,VDop,HAcc,VAcc,SAcc,VV,SMS
FMT, 133, 53, IMU, QffffffIIfBBHH, TimeUS,GyrX,GyrY,GyrZ,AccX,AccY,AccZ,EG,EA,T,GH,AH,GHz,AHz
FMT, 134, 75, MSG, QZ, TimeUS,Message
FMT, 135, 39, RCIN, QHHHHHHHHHHHHHH, TimeUS,C1,C2,C3,C4,C5,C6,C7,C8,C9,C10,C11,C12,C13,C14
FMT, 136, 39, RCOU, QHHHHHHHHHHHHHH, TimeUS,C1,C2,C3,C4,C5,C6,C7,C8,C9,C10,C11,C12,C13,C14
FMT, 137, 15, RSSI, Qf, TimeUS,RXRSSI
FMT, 139, 37, BARO, QffcfIff, TimeUS,Alt,Press,Temp,CRt,SMS,Offset,GndTemp
FMT, 140, 22, POWR, QffHB, TimeUS,Vcc,VServo,Flags,Safety
FMT, 143, 45, CMD, QHHHfffffff, TimeUS,CTot,CNum,CId,Prm1,Prm2,Prm3,Prm4,Lat,Lng,Alt
FMT, 144, 20, RAD, QBBBBBHH, TimeUS,RSSI,RemRSSI,TxBuf,Noise,RemNoise,RxErrors,Fixed
FMT, 146, 43, CAM, QIHLLeeeccC, TimeUS,GPSTime,GPSWeek,Lat,Lng,Alt,RelAlt,GPSAlt,Roll,Pitch,Yaw
FMT, 232, 43, TRIG, QIHLLeeeccC, TimeUS,GPSTime,GPSWeek,Lat,Lng,Alt,RelAlt,GPSAlt,Roll,Pitch,Yaw
FMT, 162, 30, ARSP, QffcffB, TimeUS,Airspeed,DiffPress,Temp,RawPress,Offset,U
FMT, 164, 45, CURR, QfffcHHHHHHHHHH, TimeUS,Volt,Curr,CurrTot,Temp,V1,V2,V3,V4,V5,V6,V7,V8,V9,V10
FMT, 165, 45, CUR2, QfffcHHHHHHHHHH, TimeUS,Volt,Curr,CurrTot,Temp,V1,V2,V3,V4,V5,V6,V7,V8,V9,V10
FMT, 163, 27, ATT, QccccCCCC, TimeUS,DesRoll,Roll,DesPitch,Pitch,DesYaw,Yaw,ErrRP,ErrYaw
FMT, 166, 34, MAG, QhhhhhhhhhBI, TimeUS,MagX,MagY,MagZ,OfsX,OfsY,OfsZ,MOfsX,MOfsY,MOfsZ,Health,S
FMT, 169, 14, MODE, QMBB, TimeUS,Mode,ModeNum,Rsn
FMT, 196, 17, RFND, QCBCB, TimeUS,Dist1,Orient1,Dist2,Orient2
FMT, 223, 33, DMS, IIIIIBBBBBBBBBB, TimeMS,N,Dp,RT,RS,Er,Fa,Fmn,Fmx,Pa,Pmn,Pmx,Sa,Smn,Smx
FMT, 240, 41, BCN, QBBfffffff, TimeUS,Health,Cnt,D0,D1,D2,D3,PosX,PosY,PosZ
FMT, 138, 53, IMU2, QffffffIIfBBHH, TimeUS,GyrX,GyrY,GyrZ,AccX,AccY,AccZ,EG,EA,T,GH,AH,GHz,AHz
FMT, 147, 53, IMU3, QffffffIIfBBHH, TimeUS,GyrX,GyrY,GyrZ,AccX,AccY,AccZ,EG,EA,T,GH,AH,GHz,AHz
FMT, 141, 45, AHR2, QccCfLLffff, TimeUS,Roll,Pitch,Yaw,Alt,Lat,Lng,Q1,Q2,Q3,Q4
FMT, 180, 31, POS, QLLfff, TimeUS,Lat,Lng,Alt,RelHomeAlt,RelOriginAlt
FMT, 142, 45, SIM, QccCfLLffff, TimeUS,Roll,Pitch,Yaw,Alt,Lat,Lng,Q1,Q2,Q3,Q4
FMT, 198, 51, NKF1, QccCfffffffccc, TimeUS,Roll,Pitch,Yaw,VN,VE,VD,dPD,PN,PE,PD,GX,GY,GZ
FMT, 199, 35, NKF2, QbccccchhhhhhB, TimeUS,AZbias,GSX,GSY,GSZ,VWN,VWE,MN,ME,MD,MX,MY,MZ,MI
FMT, 200, 33, NKF3, Qcccccchhhcc, TimeUS,IVN,IVE,IVD,IPN,IPE,IPD,IMX,IMY,IMZ,IYAW,IVT
FMT, 201, 35, NKF4, QcccccfbbHBHHb, TimeUS,SV,SP,SH,SM,SVT,errRP,OFN,OFE,FS,TS,SS,GPS,PI
FMT, 202, 40, NKF5, QBhhhcccCCfff, TimeUS,NI,FIX,FIY,AFI,HAGL,offset,RI,rng,Herr,eAng,eVel,ePos
FMT, 203, 51, NKF6, QccCfffffffccc, TimeUS,Roll,Pitch,Yaw,VN,VE,VD,dPD,PN,PE,PD,GX,GY,GZ
FMT, 204, 35, NKF7, QbccccchhhhhhB, TimeUS,AZbias,GSX,GSY,GSZ,VWN,VWE,MN,ME,MD,MX,MY,MZ,MI
FMT, 205, 33, NKF8, Qcccccchhhcc, TimeUS,IVN,IVE,IVD,IPN,IPE,IPD,IMX,IMY,IMZ,IYAW,IVT
FMT, 206, 35, NKF9, QcccccfbbHBHHb, TimeUS,SV,SP,SH,SM,SVT,errRP,OFN,OFE,FS,TS,SS,GPS,PI
FMT, 207, 36, NKF0, QBccCCcccccccc, TimeUS,ID,rng,innov,SIV,TR,BPN,BPE,BPD,OFH,OFL,OFN,OFE,OFD
FMT, 208, 27, NKQ1, Qffff, TimeUS,Q1,Q2,Q3,Q4
FMT, 209, 27, NKQ2, Qffff, TimeUS,Q1,Q2,Q3,Q4
FMT, 210, 51, XKF1, QccCfffffffccc, TimeUS,Roll,Pitch,Yaw,VN,VE,VD,dPD,PN,PE,PD,GX,GY,GZ
FMT, 211, 34, XKF2, QccccchhhhhhB, TimeUS,AX,AY,AZ,VWN,VWE,MN,ME,MD,MX,MY,MZ,MI
FMT, 212, 33, XKF3, Qcccccchhhcc, TimeUS,IVN,IVE,IVD,IPN,IPE,IPD,IMX,IMY,IMZ,IYAW,IVT
FMT, 213, 35, XKF4, QcccccfbbHBHHb, TimeUS,SV,SP,SH,SM,SVT,errRP,OFN,OFE,FS,TS,SS,GPS,PI
FMT, 214, 40, XKF5, QBhhhcccCCfff, TimeUS,NI,FIX,FIY,AFI,HAGL,offset,RI,rng,Herr,eAng,eVel,ePos
FMT, 215, 51, XKF6, QccCfffffffccc, TimeUS,Roll,Pitch,Yaw,VN,VE,VD,dPD,PN,PE,PD,GX,GY,GZ
FMT, 216, 34, XKF7, QccccchhhhhhB, TimeUS,AX,AY,AZ,VWN,VWE,MN,ME,MD,MX,MY,MZ,MI
FMT, 217, 33, XKF8, Qcccccchhhcc, TimeUS,IVN,IVE,IVD,IPN,IPE,IPD,IMX,IMY,IMZ,IYAW,IVT
FMT, 218, 35, XKF9, QcccccfbbHBHHb, TimeUS,SV,SP,SH,SM,SVT,errRP,OFN,OFE,FS,TS,SS,GPS,PI
FMT, 219, 36, XKF0, QBccCCcccccccc, TimeUS,ID,rng,innov,SIV,TR,BPN,BPE,BPD,OFH,OFL,OFN,OFE,OFD
FMT, 220, 27, XKQ1, Qffff, TimeUS,Q1,Q2,Q3,Q4
FMT, 221, 27, XKQ2, Qffff, TimeUS,Q1,Q2,Q3,Q4
FMT, 222, 35, XKFD, Qffffff, TimeUS,IX,IY,IZ,IVX,IVY,IVZ
FMT, 148, 34, TERR, QBLLHffHH, TimeUS,Status,Lat,Lng,Spacing,TerrH,CHeight,Pending,Loaded
FMT, 149, 18, UBX1, QBHBBH, TimeUS,Instance,noisePerMS,jamInd,aPower,agcCnt
FMT, 150, 16, UBX2, QBbBbB, TimeUS,Instance,ofsI,magI,ofsQ,magQ
FMT, 151, 18, UBY1, QBHBBH, TimeUS,Instance,noisePerMS,jamInd,aPower,agcCnt
FMT, 152, 16, UBY2, QBbBbB, TimeUS,Instance,ofsI,magI,ofsQ,magQ
FMT, 170, 42, GRAW, QIHBBddfBbB, TimeUS,WkMS,Week,numSV,sv,cpMes,prMes,doMes,mesQI,cno,lli
FMT, 171, 24, GRXH, QdHbBB, TimeUS,rcvTime,week,leapS,numMeas,recStat
FMT, 172, 41, GRXS, QddfBBBHBBBBB, TimeUS,prMes,cpMes,doMes,gnss,sv,freq,lock,cno,prD,cpD,doD,trk
FMT, 173, 63, SBFE, QIHBBdddfffff, TimeUS,TOW,WN,Mode,Err,Lat,Lng,Height,Undul,Vn,Ve,Vu,COG
FMT, 153, 19, ESC1, Qcccc, TimeUS,RPM,Volt,Curr,Temp
FMT, 154, 19, ESC2, Qcccc, TimeUS,RPM,Volt,Curr,Temp
FMT, 155, 19, ESC3, Qcccc, TimeUS,RPM,Volt,Curr,Temp
FMT, 156, 19, ESC4, Qcccc, TimeUS,RPM,Volt,Curr,Temp
FMT, 157, 19, ESC5, Qcccc, TimeUS,RPM,Volt,Curr,Temp
FMT, 158, 19, ESC6, Qcccc, TimeUS,RPM,Volt,Curr,Temp
FMT, 159, 19, ESC7, Qcccc, TimeUS,RPM,Volt,Curr,Temp
FMT, 160, 19, ESC8, Qcccc, TimeUS,RPM,Volt,Curr,Temp
FMT, 167, 34, MAG2, QhhhhhhhhhBI, TimeUS,MagX,MagY,MagZ,OfsX,OfsY,OfsZ,MOfsX,MOfsY,MOfsZ,Health,S
FMT, 168, 34, MAG3, QhhhhhhhhhBI, TimeUS,MagX,MagY,MagZ,OfsX,OfsY,OfsZ,MOfsX,MOfsY,MOfsZ,Health,S
FMT, 174, 31, ACC1, QQfff, TimeUS,SampleUS,AccX,AccY,AccZ
FMT, 175, 31, ACC2, QQfff, TimeUS,SampleUS,AccX,AccY,AccZ
FMT, 176, 31, ACC3, QQfff, TimeUS,SampleUS,AccX,AccY,AccZ
FMT, 177, 31, GYR1, QQfff, TimeUS,SampleUS,GyrX,GyrY,GyrZ
FMT, 178, 31, GYR2, QQfff, TimeUS,SampleUS,GyrX,GyrY,GyrZ
FMT, 179, 31, GYR3, QQfff, TimeUS,SampleUS,GyrX,GyrY,GyrZ
FMT, 181, 35, PIDR, Qffffff, TimeUS,Des,P,I,D,FF,AFF
FMT, 182, 35, PIDP, Qffffff, TimeUS,Des,P,I,D,FF,AFF
FMT, 183, 35, PIDY, Qffffff, TimeUS,Des,P,I,D,FF,AFF
FMT, 184, 35, PIDA, Qffffff, TimeUS,Des,P,I,D,FF,AFF
FMT, 185, 35, PIDS, Qffffff, TimeUS,Des,P,I,D,FF,AFF
FMT, 186, 35, PIDL, Qffffff, TimeUS,Des,P,I,D,FF,AFF
FMT, 161, 37, BAR2, QffcfIff, TimeUS,Alt,Press,Temp,CRt,SMS,Offset,GndTemp
FMT, 197, 37, BAR3, QffcfIff, TimeUS,Alt,Press,Temp,CRt,SMS,Offset,GndTemp
FMT, 187, 35, VIBE, QfffIII, TimeUS,VibeX,VibeY,VibeZ,Clip0,Clip1,Clip2
FMT, 188, 47, IMT, Qfffffffff, TimeUS,DelT,DelvT,DelaT,DelAX,DelAY,DelAZ,DelVX,DelVY,DelVZ
FMT, 189, 47, IMT2, Qfffffffff, TimeUS,DelT,DelvT,DelaT,DelAX,DelAY,DelAZ,DelVX,DelVY,DelVZ
FMT, 190, 47, IMT3, Qfffffffff, TimeUS,DelT,DelvT,DelaT,DelAX,DelAY,DelAZ,DelVX,DelVY,DelVZ
FMT, 191, 24, ORGN, QBLLe, TimeUS,Type,Lat,Lng,Alt
FMT, 192, 19, RPM, Qff, TimeUS,rpm1,rpm2
FMT, 233, 47, GMB1, Iffffffffff, TimeMS,dt,dax,day,daz,dvx,dvy,dvz,jx,jy,jz
FMT, 234, 44, GMB2, IBfffffffff, TimeMS,es,ex,ey,ez,rx,ry,rz,tx,ty,tz
FMT, 235, 13, GMB3, Ihhh, TimeMS,rl_torque_cmd,el_torque_cmd,az_torque_cmd
FMT, 236, 59, RATE, Qffffffffffff, TimeUS,RDes,R,ROut,PDes,P,POut,YDes,Y,YOut,ADes,A,AOut
FMT, 237, 23, RALY, QBBLLh, TimeUS,Tot,Seq,Lat,Lng,Alt
FMT, 238, 43, VISO, Qffffffff, TimeUS,dt,AngDX,AngDY,AngDZ,PosDX,PosDY,PosDZ,conf
FMT, 224, 23, SBPH, QIII, TimeUS,CrcError,LastInject,IARhyp
FMT, 229, 80, SBR1, QHHBZ, TimeUS,msg_type,sender_id,msg_len,d1
FMT, 230, 205, SBR2, QHZZZ, TimeUS,msg_type,d2,d3,d4
FMT, 25, 41, ATUN, QBBfffffff, TimeUS,Axis,TuneStep,Targ,Min,Max,RP,RD,SP,ddt
FMT, 26, 19, ATDE, Qff, TimeUS,Angle,Rate
FMT, 31, 22, PTUN, QBfHHH, TimeUS,Param,TunVal,CtrlIn,TunLo,TunHi
FMT, 12, 28, OF, QBffff, TimeUS,Qual,flowX,flowY,bodyX,bodyY
FMT, 5, 51, NTUN, Qffffffffff, TimeUS,DPosX,DPosY,PosX,PosY,DVelX,DVelY,VelX,VelY,DAccX,DAccY
FMT, 4, 51, CTUN, Qffffffeccfhh, TimeUS,ThI,ABst,ThO,ThH,DAlt,Alt,BAlt,DSAlt,SAlt,TAlt,DCRt,CRt
FMT, 6, 32, PM, QHHIhBHII, TimeUS,NLon,NLoop,MaxT,PMT,I2CErr,INSErr,LogDrop,Mem
FMT, 30, 27, MOTB, Qffff, TimeUS,LiftMax,BatVolt,BatRes,ThLimit
FMT, 13, 12, EV, QB, TimeUS,Id
FMT, 20, 14, D16, QBh, TimeUS,Id,Value
FMT, 21, 14, DU16, QBH, TimeUS,Id,Value
FMT, 22, 16, D32, QBi, TimeUS,Id,Value
FMT, 23, 16, DU32, QBI, TimeUS,Id,Value
FMT, 24, 16, DFLT, QBf, TimeUS,Id,Value
FMT, 19, 13, ERR, QBB, TimeUS,Subsys,ECode
FMT, 32, 19, HELI, Qff, TimeUS,DRRPM,ERRPM
FMT, 33, 29, PL, QBBffff, TimeUS,Heal,TAcq,pX,pY,vX,vY
FMT, 34, 36, GUID, QBffffff, TimeUS,Type,pX,pY,pZ,vX,vY,vZ
FMT, 35, 32, THRO, QBffffbbbb, TimeUS,Stage,Vel,VelZ,Acc,AccEfZ,Throw,AttOk,HgtOk,PosOk
FMT, 36, 56, PRX, QBfffffffffff, TimeUS,Health,D0,D45,D90,D135,D180,D225,D270,D315,DUp,CAn,CDis
MODE, 440189799, 100, 100, 2
EV, 440200412, 15
FMT, 254, 47, NKT1, QIffffffff, TimeUS,Cnt,IMUMin,IMUMax,EKFMin,EKFMax,AngMin,AngMax,VelMin,VelM
FMT, 253, 31, CTRL, Qfffff, TimeUS,RMSRollP,RMSRollD,RMSPitchP,RMSPitchD,RMSYaw
MSG, 440311026, APM:Copter V3.5.7 (38483450)
MSG, 440311031, New mission
MSG, 440311041, Frame: QUAD
MODE, 440311046, Autonomous, 100, 2
IMU, 440313186, 2.019388E-05, -0.001860559, -0.001213314, 0.2213227, 0.04003765, -9.466734, 0, 0, 39.17995, 1, 1, 999, 999
RFND, 440347955, 0.2, 25, 0, 0
IMU, 440353118, 0.0005370479, -0.00149134, -0.0007538176, 0.2125264, 0.04148814, -9.456357, 0, 0, 39.18019, 1, 1, 999, 999
IMU, 440393112, 0.0004410804, -0.0006048629, -0.001377933, 0.2288636, 0.04783757, -9.444628, 0, 0, 39.17996, 1, 1, 999, 999
MAG, 440397939, 112, 362, 441, 0, 0, 0, 0, 0, 0, 1, 440397931
RFND, 440397974, 0.2, 25, 0, 0
BARO, 440398004, 0.09935895, 981.0162, 37.31, -0.06603802, 440397, 0, 27.83
CTUN, 440398101, 0, 0, 0, 0.4253115, 0.09057438, 0.09057438, 0.09, 0, 0.19, 0, 0, 1
ATT, 440405515, 0, 0.29, 0, 0.49, 162.05, 162.06, 0, 1
RATE, 440405527, -1.328303, -0.04285076, -0.00272206, -2.217273, 0.05135516, -0.005445702, 0.007408028, -0.09806104, 0.0002214122, -618.3688, -1.616859, 0
NKF1, 440405534, 0.29, 0.49, 162.06, -0.01253214, 0.00429454, -0.01526836, 0, 0, 0, -0.0904673, 0, -0.08, -0.01
NKF2, 440405534, 35, 0, 0, 0, 0, 0, 0, 0, 0, 0, 0, 0, 0
NKF3, 440405534, 0, 0, 0, -0.01, 0, -0.02, 0, 0, 0, 0, 0
NKF4, 440405534, 0, 0, 0, 0, 0, 1.154886E-05, 0, 0, 0, 19, 229, 0, 0
NKF5, 440405534, 0, 0, 0, 0, 0.21, 0.13, 0, 0.19, 0.5, 5.459071E-05, 0.002375219, 0.003755577
NKQ1, 440405534, 0.155884, -0.0113512, -0.0001984997, 0.9877101
AHR2, 440405579, 0.22, 0.51, 156.6, 0.09, 0, 0, 0.2027155, -0.004019722, 0.002818695, 0.9792254
MOTB, 440405586, 1, 1, 0, 1
RCIN, 440405591, 0, 0, 0, 0, 0, 0, 0, 0, 0, 0, 0, 0, 0, 0
RCOU, 440405596, 1101, 1101, 1101, 1101, 0, 0, 0, 0, 0, 0, 0, 0, 0, 0
VIBE, 440405605, 0.02057048, 0.01903846, 0.03334847, 0, 0, 0
CTRL, 440405611, 0.003129997, 0.0001485623, 0.005204391, 0.0001492191, 0.0001814742
PRX, 440405642, 2, 0.63, 0, 0.69, 0, 0.64, 0, 2.36, 0, 0, 0, 0.63
IMU, 440433142, 0.0002164227, -0.0003345169, -0.001194289, 0.2215295, 0.05183821, -9.446474, 0, 0, 39.17892, 1, 1, 999, 999
RFND, 440447784, 0.2, 25, 0, 0
IMU, 440472965, 0.0001166979, -0.002116485, -0.0004748327, 0.2298217, 0.05331805, -9.433874, 0, 0, 39.17934, 1, 1, 999, 999
MAG, 440497714, 111, 360, 442, 0, 0, 0, 0, 0, 0, 1, 440497705
RFND, 440497793, 0.2, 25, 0, 0
BARO, 440497827, 0.09935895, 981.0162, 37.31, -0.07581087, 440497, 0, 27.83
CTUN, 440497839, 0, 0, 0, 0.4253115, 0.09003894, 0.09003894, 0.09, 0, 0.19, 0, 0, 1
ATT, 440505315, 0, 0.29, 0, 0.49, 162.05, 162.05, 0, 1
RATE, 440505327, -1.336164, 0.001589407, -0.003065821, -2.217907, 0.01369526, -0.005237571, 0.00564063, -0.05133921, 0.0001941608, -567.6238, 1.429558, 0
NKF1, 440505335, 0.29, 0.49, 162.05, -0.01308608, 0.003320279, -0.0140154, 0, 0, 0, -0.0899879, 0, -0.08, -0.01
NKF2, 440505335, 35, 0, 0, 0, 0, 0, 0, 0, 0, 0, 0, 0, 0
NKF3, 440505335, 0, 0, 0, -0.01, 0, -0.02, 0, 0, 0, 0, 0
NKF4, 440505335, 0, 0, 0, 0, 0, 7.547568E-06, 0, 0, 0, 19, 229, 0, 0
NKF5, 440505335, 0, 0, 0, 0, 0.21, 0.13, 0, 0.19, 0.5, 4.618591E-05, 0.002119071, 0.003578389
NKQ1, 440505335, 0.1559248, -0.01135236, -0.0001820078, 0.9877037
AHR2, 440505377, 0.22, 0.51, 156.6, 0.09, 0, 0, 0.20277, -0.004033299, 0.002836096, 0.979214
MOTB, 440505384, 1, 1, 0, 1
RCIN, 440505388, 0, 0, 0, 0, 0, 0, 0, 0, 0, 0, 0, 0, 0, 0
RCOU, 440505394, 1101, 1101, 1101, 1101, 0, 0, 0, 0, 0, 0, 0, 0, 0, 0
VIBE, 440505402, 0.01970129, 0.02060754, 0.0343386, 0, 0, 0
CTRL, 440505409, 0.003137628, 0.0001425297, 0.005216746, 0.0001612022, 0.0001928829
PRX, 440505439, 2, 0.63, 0, 0.7, 0, 0.64, 0, 2.34, 0, 0, 0, 0.63
IMU, 440513108, 9.7528E-05, -0.001462018, -0.0008854788, 0.2172986, 0.04253976, -9.460969, 0, 0, 39.18081, 1, 1, 999, 999
RFND, 440547797, 0.2, 25, 0, 0
IMU, 440552976, 9.788681E-05, -0.001602484, -0.001023208, 0.2243453, 0.0358606, -9.441608, 0, 0, 39.18228, 1, 1, 999, 999
IMU, 440593309, -0.0005301064, -0.001232252, -0.001377456, 0.2270795, 0.03954308, -9.465783, 0, 0, 39.18268, 1, 1, 999, 999
MAG, 440597750, 112, 363, 444, 0, 0, 0, 0, 0, 0, 1, 440597742
RFND, 440597781, 0.2, 25, 0, 0
BARO, 440597810, 0.1738782, 981.0078, 37.31, 0.05422561, 440597, 0, 27.83
CTUN, 440597824, 0, 0, 0, 0.4253115, 0.08957595, 0.08957595, 0.17, 0, 0.19, 0, 0, 1
ATT, 440605339, 0, 0.29, 0, 0.49, 162.04, 162.05, 0, 1
RATE, 440605349, -1.331841, -0.0813481, -0.002755674, -2.216935, 0.02194136, -0.005349264, 0.007423353, -0.08783311, 0.0001492532, -528.3774, 0.06465912, 0
NKF1, 440605357, 0.29, 0.49, 162.05, -0.01339149, 0.003320004, -0.01304636, 0, 0, 0, -0.08947097, 0, -0.08, -0.01
NKF2, 440605357, 35, 0, 0, 0, 0, 0, 0, 0, 0, 0, 0, 0, 0
NKF3, 440605357, 0, 0, 0, -0.01, 0, -0.02, 0, 0, 0, 0, 0
NKF4, 440605357, 0, 0, 0, 0, 0, 5.031695E-06, 0, 0, 0, 19, 229, 0, 0
NKF5, 440605357, 0, 0, 0, 0, 0.21, 0.13, 0, 0.19, 0.5, 4.162734E-05, 0.002168633, 0.003925927
NKQ1, 440605357, 0.1559572, -0.01135154, -0.0001895259, 0.9876986
AHR2, 440605399, 0.22, 0.51, 156.59, 0.17, 0, 0, 0.202816, -0.004047527, 0.002822846, 0.9792044
MOTB, 440605406, 1, 1, 0, 1
RCIN, 440605410, 0, 0, 0, 0, 0, 0, 0, 0, 0, 0, 0, 0, 0, 0
RCOU, 440605414, 1101, 1101, 1101, 1101, 0, 0, 0, 0, 0, 0, 0, 0, 0, 0
VIBE, 440605422, 0.01947321, 0.02022636, 0.03698305, 0, 0, 0
CTRL, 440605429, 0.003137553, 0.0001457446, 0.0052114, 0.0001471515, 0.0001772776
PRX, 440605460, 2, 0.63, 0, 0.69, 0, 0.61, 0, 2.34, 0, 0, 180, 0.61
IMU, 440633499, 8.229013E-05, -0.002508461, -0.001604785, 0.2258345, 0.04461613, -9.44673, 0, 0, 39.18198, 1, 1, 999, 999
RFND, 440647753, 0.2, 25, 0, 0
IMU, 440672951, -0.0007738498, -0.001135405, -0.0001466696, 0.2226125, 0.04010018, -9.476166, 0, 0, 39.18102, 1, 1, 999, 999
MAG, 440697764, 109, 359, 440, 0, 0, 0, 0, 0, 0, 1, 440697756
RFND, 440697797, 0.2, 25, 0, 0
BARO, 440697826, 0.187678, 981.0061, 37.31, 0.1949946, 440697, 0, 27.83
CTUN, 440697838, 0, 0, 0, 0.4253115, 0.08908837, 0.08908837, 0.18, 0, 0.19, 0, 0, 1
ATT, 440705362, 0, 0.29, 0, 0.49, 162.04, 162.04, 0, 1
RATE, 440705375, -1.327928, 0.01966109, -0.003230322, -2.206738, 0.001394659, -0.005430917, 0.00527193, -0.096803, 0.0001568719, -502.7278, -2.663136, 0
NKF1, 440705384, 0.29, 0.49, 162.04, -0.01388614, 0.003496685, -0.01241303, 0, 0, 0, -0.08901793, 0, -0.08, -0.01
NKF2, 440705384, 35, 0, 0, 0, 0, 0, 0, 0, 0, 0, 0, 0, 0
NKF3, 440705384, 0, 0, 0, -0.01, 0, -0.02, 0, 0, 0, 0, 0
NKF4, 440705384, 0, 0, 0, 0, 0, 3.41649E-06, 0, 0, 0, 19, 229, 0, 0
NKF5, 440705384, 0, 0, 0, 0, 0.22, 0.13, 0, 0.19, 0.5, 3.923474E-05, 0.002116307, 0.003804753
NKQ1, 440705384, 0.155996, -0.01133223, -0.0002002611, 0.9876927
AHR2, 440705428, 0.22, 0.51, 156.59, 0.18, 0, 0, 0.2028681, -0.004044836, 0.002806499, 0.9791937
MOTB, 440705484, 1, 1, 0, 1
RCIN, 440705492, 0, 0, 0, 0, 0, 0, 0, 0, 0, 0, 0, 0, 0, 0
RCOU, 440705497, 1101, 1101, 1101, 1101, 0, 0, 0, 0, 0, 0, 0, 0, 0, 0
VIBE, 440705506, 0.02057965, 0.02077835, 0.03817799, 0, 0, 0
CTRL, 440705513, 0.003121927, 0.0001557762, 0.005187959, 0.0001599298, 0.0001734707
PRX, 440705544, 2, 0.63, 0, 0.7, 0, 0.61, 0, 2.36, 0, 0, 180, 0.61
IMU, 440713051, -0.0005713638, -0.0009981551, -0.001992833, 0.2267982, 0.03907621, -9.453558, 0, 0, 39.17987, 1, 1, 999, 999
RFND, 440747917, 0.2, 25, 0, 0
IMU, 440753203, -0.0008511306, -0.002696726, -0.0005194766, 0.2236908, 0.04059851, -9.458918, 0, 0, 39.17908, 1, 1, 999, 999
IMU, 440793778, -4.106601E-05, -0.001265914, -0.000975949, 0.2338895, 0.03241486, -9.440226, 0, 0, 39.17905, 1, 1, 999, 999
MAG, 440797761, 111, 357, 443, 0, 0, 0, 0, 0, 0, 1, 440797753
RFND, 440797793, 0.2, 25, 0, 0
BARO, 440797821, 0.1407585, 981.0114, 37.31, 0.2757017, 440797, 0, 27.83
CTUN, 440797833, 0, 0, 0, 0.4253115, 0.08843646, 0.08843646, 0.14, 0, 0.19, 0, 0, 1
ATT, 440805378, 0, 0.29, 0, 0.48, 162.03, 162.04, 0, 1
RATE, 440805387, -1.32171, -0.009553509, -0.003031076, -2.197878, -0.01437505, -0.005075028, 0.00563318, -0.04511227, 0.0001428142, -495.1961, 0.2146721, 0
NKF1, 440805394, 0.29, 0.48, 162.04, -0.01482393, 0.004135504, -0.01222706, 0, 0, 0, -0.08836529, 0, -0.08, -0.01
NKF2, 440805394, 35, 0, 0, 0, 0, 0, 0, 0, 0, 0, 0, 0, 0
NKF3, 440805394, 0, 0, 0, -0.01, 0, -0.02, 0, 0, 0, 0, 0
NKF4, 440805394, 0, 0, 0, 0, 0, 2.349784E-06, 0, 0, 0, 19, 229, 0, 0
NKF5, 440805394, 0, 0, 0, 0, 0.21, 0.13, 0, 0.19, 0.5, 3.778627E-05, 0.002071144, 0.00381982
NKQ1, 440805394, 0.1560344, -0.011317, -0.0002158515, 0.9876868
AHR2, 440805438, 0.21, 0.51, 156.58, 0.14, 0, 0, 0.2029205, -0.004039738, 0.002790707, 0.9791829
MOTB, 440805446, 1, 1, 0, 1
RCIN, 440805450, 0, 0, 0, 0, 0, 0, 0, 0, 0, 0, 0, 0, 0, 0
RCOU, 440805455, 1101, 1101, 1101, 1101, 0, 0, 0, 0, 0, 0, 0, 0, 0, 0
VIBE, 440805463, 0.02071192, 0.02297562, 0.0385888, 0, 0, 0
CTRL, 440805470, 0.00310943, 0.0001681103, 0.005175504, 0.0001607564, 0.0001755459
PRX, 440805501, 2, 0.63, 0, 0.7, 0, 3.6, 0, 2.37, 0, 0, 0, 0.63
IMU, 440833438, 1.963493E-05, -0.0009037497, -0.00173704, 0.2192424, 0.03096229, -9.449436, 0, 0, 39.17952, 1, 1, 999, 999
RFND, 440847729, 0.2, 25, 0, 0
IMU, 440873026, 0.000497447, -0.001408739, -0.0006987631, 0.2341682, 0.03883243, -9.463445, 0, 0, 39.17822, 1, 1, 999, 999
MAG, 440897990, 109, 360, 443, 0, 0, 0, 0, 0, 0, 1, 440897982
RFND, 440898075, 0.2, 25, 0, 0
BARO, 440898109, 0.1269587, 981.0129, 37.31, 0.2035709, 440898, 0, 27.83
CTUN, 440898121, 0, 0, 0, 0.4253115, 0.08816327, 0.08816327, 0.12, 0, 0.19, 0, 0, 1
ATT, 440905376, 0, 0.29, 0, 0.48, 162.03, 162.03, 0, 1
RATE, 440905389, -1.317353, -0.08282719, -0.002810015, -2.193274, -0.03425192, -0.005245438, 0.006232587, -0.0259361, 0.0001305125, -515.508, 0.1693726, 0
NKF1, 440905396, 0.29, 0.48, 162.03, -0.01565201, 0.004261698, -0.01272859, 0, 0, 0, -0.08812921, 0, -0.08, -0.01
NKF2, 440905396, 35, 0, 0, 0, 0, 0, 0, 0, 0, 0, 0, 0, 0
NKF3, 440905396, 0, 0, 0, -0.01, 0, -0.02, 0, 0, 0, 0, 0
NKF4, 440905396, 0, 0, 0, 0, 0, 1.644876E-06, 0, 0, 0, 19, 229, 0, 0
NKF5, 440905396, 0, 0, 0, 0, 0.21, 0.13, 0, 0.19, 0.5, 3.699674E-05, 0.002132041, 0.003841762
NKQ1, 440905396, 0.156065, -0.01131079, -0.0002246536, 0.987682
AHR2, 440905439, 0.21, 0.51, 156.57, 0.12, 0, 0, 0.2029647, -0.004045901, 0.002783139, 0.9791738
MOTB, 440905446, 1, 1, 0, 1
RCIN, 440905451, 0, 0, 0, 0, 0, 0, 0, 0, 0, 0, 0, 0, 0, 0
RCOU, 440905455, 1101, 1101, 1101, 1101, 0, 0, 0, 0, 0, 0, 0, 0, 0, 0
VIBE, 440905464, 0.02020655, 0.02104255, 0.03373565, 0, 0, 0
CTRL, 440905470, 0.003108883, 0.0001767295, 0.005167673, 0.0001556306, 0.0001662122
PRX, 440905962, 2, 0.63, 0, 0.69, 0, 3.6, 0, 2.38, 0, 0, 0, 0.63
IMU, 440913163, -0.001563994, -0.002151603, -0.0009516642, 0.2177779, 0.04487433, -9.446226, 0, 0, 39.17769, 1, 1, 999, 999
RFND, 440947989, 0.2, 25, 0, 0
IMU, 440953513, -0.0003716547, -0.001792395, -0.001591124, 0.2238398, 0.04132184, -9.459326, 0, 0, 39.17828, 1, 1, 999, 999
IMU, 440992991, -0.001026738, -0.00101423, -0.000185169, 0.2143973, 0.0469714, -9.451767, 0, 0, 39.17839, 1, 1, 999, 999
MAG, 440997937, 111, 365, 441, 0, 0, 0, 0, 0, 0, 1, 440997928
RFND, 440997967, 0.2, 25, 0, 0
BARO, 440997998, 0.03587962, 981.0233, 37.32, -0.03717314, 440997, 0, 27.83
CTUN, 440998011, 0, 0, 0, 0.4253115, 0.08757126, 0.08757126, 0.03, 0, 0.19, 0, 0, 1
ATT, 441005436, 0, 0.28, 0, 0.48, 162.03, 162.03, 0, 1
RATE, 441005449, -1.301716, 0.003594052, -0.003321276, -2.18634, -0.01808131, -0.004948626, 0.006117516, -0.004712864, 0.0001298332, -515.8181, 2.01149, 0
NKF1, 441005456, 0.28, 0.48, 162.03, -0.01617233, 0.004361956, -0.01273625, 0, 0, 0, -0.0875026, 0, -0.08, -0.01
NKF2, 441005456, 35, 0, 0, 0, 0, 0, 0, 0, 0, 0, 0, 0, 0
NKF3, 441005456, 0, 0, 0, -0.01, 0, -0.02, 0, 0, 0, 0, 0
NKF4, 441005456, 0, 0, 0, 0, 0, 1.191675E-06, 0, 0, 0, 19, 229, 0, 0
NKF5, 441005456, 0, 0, 0, 0, 0.21, 0.13, 0, 0.19, 0.5, 3.654707E-05, 0.00199857, 0.003641804
NKQ1, 441005456, 0.1561065, -0.01130155, -0.0002573569, 0.9876756
AHR2, 441005500, 0.21, 0.51, 156.57, 0.03, 0, 0, 0.2030198, -0.004054866, 0.002754861, 0.9791624
MOTB, 441005507, 1, 1, 0, 1
RCIN, 441005512, 0, 0, 0, 0, 0, 0, 0, 0, 0, 0, 0, 0, 0, 0
RCOU, 441005517, 1101, 1101, 1101, 1101, 0, 0, 0, 0, 0, 0, 0, 0, 0, 0
VIBE, 441005525, 0.01883403, 0.0192868, 0.03488846, 0, 0, 0
CTRL, 441005532, 0.003062304, 0.0001802867, 0.005153421, 0.0001442631, 0.0001673184
PRX, 441005563, 2, 0.63, 0, 0.69, 0, 3.6, 0, 2.35, 0, 0, 0, 0.63
IMU, 441033941, -0.0007716569, -0.002314749, -0.0004440873, 0.2222416, 0.03420632, -9.454997, 0, 0, 39.17864, 1, 1, 999, 999
RFND, 441047935, 0.2, 25, 0, 0
IMU, 441073000, -0.0004317384, -0.001686984, -0.002013969, 0.2332927, 0.04142818, -9.453835, 0, 0, 39.17934, 1, 1, 999, 999
DU32, 441093558, 7, 50357752
MAG, 441097772, 109, 366, 440, 0, 0, 0, 0, 0, 0, 1, 441097764
RFND, 441097801, 0.2, 25, 0, 0
BARO, 441097833, 0.1545584, 981.0098, 37.32, -0.2496504, 441097, 0, 27.83
CTUN, 441097908, 0, 0, 0, 0.4253115, 0.08730404, 0.08730404, 0.15, 0, 0.19, 0, 0, 1
ATT, 441105769, 0, 0.28, 0, 0.48, 162.02, 162.02, 0, 1
RATE, 441105782, -1.289735, -0.05558809, -0.002631979, -2.178927, -0.03234163, -0.005046654, 0.006932159, -0.119775, 0.0002172343, -494.5809, -0.4522324, 0
NKF1, 441105790, 0.28, 0.48, 162.02, -0.01695313, 0.004693371, -0.01221187, 0, 0, 0, -0.08720595, 0, -0.08, -0.01
NKF2, 441105790, 35, 0, 0, 0, 0, 0, 0, 0, 0, 0, 0, 0, 0
NKF3, 441105790, 0, 0, 0, -0.02, 0, -0.01, 0, 0, 0, 0, 0
NKF4, 441105790, 0, 0, 0, 0, 0, 8.946856E-07, 0, 0, 0, 19, 229, 0, 0
NKF5, 441105790, 0, 0, 0, 0, 0.21, 0.13, 0, 0.19, 0.5, 3.659104E-05, 0.00189702, 0.003639425
NKQ1, 441105790, 0.15617, -0.01128944, -0.000280283, 0.9876657
AHR2, 441105833, 0.21, 0.51, 156.56, 0.15, 0, 0, 0.2030968, -0.004060013, 0.002735858, 0.9791464
MOTB, 441105841, 1, 1, 0, 1
RCIN, 441105917, 0, 0, 0, 0, 0, 0, 0, 0, 0, 0, 0, 0, 0, 0
RCOU, 441105922, 1101, 1101, 1101, 1101, 0, 0, 0, 0, 0, 0, 0, 0, 0, 0
VIBE, 441105930, 0.01776262, 0.01915428, 0.03234565, 0, 0, 0
CTRL, 441105936, 0.003045796, 0.0001651584, 0.00513104, 0.0001269117, 0.0001680761
PRX, 441105967, 2, 0.63, 0, 0.69, 0, 3.6, 0, 2.37, 0, 0, 0, 0.63
IMU, 441112976, -0.001096023, -0.0008824986, -0.002131809, 0.2222295, 0.04192952, -9.435249, 0, 0, 39.1813, 1, 1, 999, 999
RFND, 441147766, 0.2, 25, 0, 0
IMU, 441153160, -7.583268E-05, -0.0004534825, -0.001380906, 0.2245509, 0.03203513, -9.441056, 0, 0, 39.18334, 1, 1, 999, 999
IMU, 441192960, -1.273588E-05, -0.002018927, -0.000927794, 0.2140178, 0.03784405, -9.444798, 0, 0, 39.1843, 1, 1, 999, 999
MAG, 441197744, 115, 364, 441, 0, 0, 0, 0, 0, 0, 1, 441197736
RFND, 441197771, 0.2, 25, 0, 0
BARO, 441197801, 0.1545584, 981.01, 37.32, -0.2113103, 441197, 0, 27.83
CTUN, 441197812, 0, 0, 0, 0.4253115, 0.08681389, 0.08681389, 0.15, 0, 0.19, 0, 0, 1
ATT, 441205364, 0, 0.28, 0, 0.48, 162.01, 162.02, 0, 1
RATE, 441205374, -1.285487, -0.0205086, -0.002905608, -2.190515, 0.01704748, -0.005330095, 0.00654796, -0.03920011, 0.0002280653, -461.9872, 0.1714706, 0
NKF1, 441205381, 0.28, 0.48, 162.02, -0.01758647, 0.005490122, -0.01140709, 0, 0, 0, -0.08677266, 0, -0.08, -0.01
NKF2, 441205381, 35, 0, 0, 0, 0, 0, 0, 0, 0, 0, 0, 0, 0
NKF3, 441205381, 0, 0, 0, -0.02, 0, -0.01, 0, 0, 0, 0, 0
NKF4, 441205381, 0, 0, 0, 0, 0, 7.177223E-07, 0, 0, 0, 19, 229, 0, 0
NKF5, 441205381, 0, 0, 0, 0, 0.21, 0.13, 0, 0.19, 0.5, 3.657455E-05, 0.001895525, 0.003464254
NKQ1, 441205381, 0.1562248, -0.01131347, -0.0002858229, 0.9876567
AHR2, 441205424, 0.21, 0.52, 156.55, 0.15, 0, 0, 0.2031656, -0.004095586, 0.002732849, 0.979132
MOTB, 441205431, 1, 1, 0, 1
RCIN, 441205435, 0, 0, 0, 0, 0, 0, 0, 0, 0, 0, 0, 0, 0, 0
RCOU, 441205440, 1101, 1101, 1101, 1101, 0, 0, 0, 0, 0, 0, 0, 0, 0, 0
VIBE, 441205448, 0.02146855, 0.01903513, 0.03290851, 0, 0, 0
CTRL, 441205455, 0.003026587, 0.0001618549, 0.005151018, 0.0001359185, 0.0001953368
PRX, 441205485, 2, 0.63, 0, 0.69, 0, 3.6, 0, 2.34, 0, 0, 0, 0.63
IMU, 441233304, -0.0007355955, -0.001263709, -0.001993393, 0.2259254, 0.0324295, -9.440584, 0, 0, 39.1854, 1, 1, 999, 999
RFND, 441247814, 0.2, 25, 0, 0
IMU, 441273014, 0.0006768903, -0.002102023, -0.001551255, 0.2330256, 0.0404808, -9.459773, 0, 0, 39.18646, 1, 1, 999, 999
MAG, 441297775, 110, 359, 447, 0, 0, 0, 0, 0, 0, 1, 441297767
RFND, 441297805, 0.2, 25, 0, 0
BARO, 441297836, 0.1849181, 981.0067, 37.32, 0.05972859, 441297, 0, 27.83
CTUN, 441297914, 0, 0, 0, 0.4253115, 0.08647265, 0.08647265, 0.18, 0, 0.19, 0, 0, 1
ATT, 441305324, 0, 0.28, 0, 0.48, 162.01, 162.01, 0, 1
RATE, 441305336, -1.291144, 0.02923679, -0.002913475, -2.183547, 0.02599412, -0.005489442, 0.006693922, -0.03115441, 0.0001966462, -469.9432, 0.9207726, 0
NKF1, 441305344, 0.28, 0.48, 162.01, -0.01898798, 0.006153378, -0.01160354, 0, 0, 0, -0.08639185, 0, -0.08, -0.01
NKF2, 441305344, 35, 0, 0, 0, 0, 0, 0, 0, 0, 0, 0, 0, 0
NKF3, 441305344, 0, 0, 0, -0.02, 0.01, -0.01, 0, 0, 0, 0, 0
NKF4, 441305344, 0, 0, 0, 0, 0, 6.162724E-07, 0, 0, 0, 19, 229, 0, 0
NKF5, 441305344, 0, 0, 0, 0, 0.21, 0.13, 0, 0.19, 0.5, 3.68764E-05, 0.001753104, 0.003271974
NKQ1, 441305344, 0.1562734, -0.01130006, -0.0002753903, 0.9876492
AHR2, 441305389, 0.21, 0.52, 156.54, 0.18, 0, 0, 0.203228, -0.004092962, 0.002744161, 0.9791191
MOTB, 441305396, 1, 1, 0, 1
RCIN, 441305400, 0, 0, 0, 0, 0, 0, 0, 0, 0, 0, 0, 0, 0, 0
RCOU, 441305405, 1101, 1101, 1101, 1101, 0, 0, 0, 0, 0, 0, 0, 0, 0, 0
VIBE, 441305413, 0.02099068, 0.02148823, 0.03412007, 0, 0, 0
CTRL, 441305420, 0.003040827, 0.0001538839, 0.005138176, 0.0001310861, 0.0002046011
PRX, 441305450, 2, 0.63, 0, 0.7, 0, 0.66, 0, 2.36, 0, 0, 0, 0.63
IMU, 441313069, -0.0006884519, -0.0007842532, -0.001263095, 0.233312, 0.04008257, -9.458506, 0, 0, 39.18687, 1, 1, 999, 999
RFND, 441348021, 0.2, 25, 0, 0
IMU, 441353110, 4.922051E-05, -0.001323862, -0.001335413, 0.2269647, 0.02756559, -9.456836, 0, 0, 39.18764, 1, 1, 999, 999
IMU, 441393096, -0.0003723989, -0.001494715, -0.001374467, 0.2347613, 0.04205209, -9.448332, 0, 0, 39.18811, 1, 1, 999, 999
MAG, 441397731, 108, 362, 441, 0, 0, 0, 0, 0, 0, 1, 441397723
RFND, 441397759, 0.2, 25, 0, 0
BARO, 441397791, 0.2290776, 981.0016, 37.32, 0.2856661, 441397, 0, 27.83
CTUN, 441397803, 0, 0, 0, 0.4253115, 0.08620273, 0.08620273, 0.22, 0, 0.19, 0, 0, 1
ATT, 441405303, 0, 0.28, 0, 0.48, 162, 162, 0, 1
RATE, 441405314, -1.283261, -0.02063208, -0.002978259, -2.180936, 0.01211787, -0.005277021, 0.005472261, -0.04623594, 0.0002088927, -486.6317, 0.6718636, 0
NKF1, 441405322, 0.28, 0.48, 162, -0.01995456, 0.006512935, -0.0120156, 0, 0, 0, -0.0861694, 0, -0.08, -0.01
NKF2, 441405322, 35, 0, 0, 0, 0, 0, 0, 0, 0, 0, 0, 0, 0
NKF3, 441405322, 0, 0, 0, -0.02, 0.01, -0.01, 0, 0, 0, 0, 0
NKF4, 441405322, 0, 0, 0, 0, 0, 5.664986E-07, 0, 0, 0, 19, 229, 0, 0
NKF5, 441405322, 0, 0, 0, 0, 0.21, 0.13, 0, 0.19, 0.5, 3.688148E-05, 0.001773337, 0.003289348
NKQ1, 441405322, 0.1563269, -0.01129676, -0.0002908885, 0.9876407
AHR2, 441405365, 0.21, 0.52, 156.54, 0.22, 0, 0, 0.2032952, -0.004105728, 0.002735089, 0.9791051
MOTB, 441405372, 1, 1, 0, 1
RCIN, 441405376, 0, 0, 0, 0, 0, 0, 0, 0, 0, 0, 0, 0, 0, 0
RCOU, 441405381, 1101, 1101, 1101, 1101, 0, 0, 0, 0, 0, 0, 0, 0, 0, 0
VIBE, 441405389, 0.01987449, 0.01898219, 0.0350237, 0, 0, 0
CTRL, 441405397, 0.00302394, 0.0001724181, 0.00513703, 0.000135649, 0.0002069074
PRX, 441405428, 2, 0.63, 0, 0.7, 0, 0.66, 0, 2.36, 0, 0, 0, 0.63
IMU, 441433141, 0.0001249154, -0.002353462, -0.001415615, 0.2276438, 0.03051279, -9.454152, 0, 0, 39.18903, 1, 1, 999, 999
RFND, 441448011, 0.2, 25, 0, 0
IMU, 441473105, 0.0005875239, -0.002157375, -0.0005492108, 0.2234248, 0.02636535, -9.43513, 0, 0, 39.18988, 1, 1, 999, 999
MAG, 441498276, 112, 361, 450, 0, 0, 0, 0, 0, 0, 1, 441498268
RFND, 441498309, 0.2, 25, 0, 0
BARO, 441498342, 0.2152777, 981.0033, 37.32, 0.3165342, 441498, 0, 27.83
CTUN, 441498354, 0, 0, 0, 0.4253115, 0.08585497, 0.08585497, 0.21, 0, 0.19, 0, 0, 1
ATT, 441505416, 0, 0.28, 0, 0.48, 162, 162, 0, 1
RATE, 441505429, -1.292254, 0.01544095, -0.003015744, -2.171959, -0.04182952, -0.004785912, 0.006709329, 0.00272861, 9.965886E-05, -461.2927, 0.530529, 0
NKF1, 441505436, 0.28, 0.48, 162, -0.02063694, 0.007334506, -0.01138994, 0, 0, 0, -0.08579031, 0, -0.08, -0.01
NKF2, 441505436, 35, 0, 0, 0, 0, 0, 0, 0, 0, 0, 0, 0, 0
NKF3, 441505436, 0, 0, 0, -0.02, 0.01, -0.01, 0, 0, 0, 0, 0
NKF4, 441505436, 0, 0, 0, 0, 0, 5.620456E-07, 0, 0, 0, 19, 229, 0, 0
NKF5, 441505436, 0, 0, 0, 0, 0.21, 0.13, 0, 0.19, 0.5, 3.723015E-05, 0.001613569, 0.00295683
NKQ1, 441505436, 0.1563446, -0.01127812, -0.0002763286, 0.9876382
AHR2, 441505481, 0.21, 0.52, 156.53, 0.21, 0, 0, 0.203327, -0.004101738, 0.002755526, 0.9790984
MOTB, 441505488, 1, 1, 0, 1
RCIN, 441505492, 0, 0, 0, 0, 0, 0, 0, 0, 0, 0, 0, 0, 0, 0
RCOU, 441505497, 1101, 1101, 1101, 1101, 0, 0, 0, 0, 0, 0, 0, 0, 0, 0
VIBE, 441505506, 0.01957503, 0.02257733, 0.03301389, 0, 0, 0
CTRL, 441505513, 0.003037772, 0.0001737289, 0.005126148, 0.0001507933, 0.0001924079
PRX, 441505544, 2, 0.63, 0, 0.69, 0, 3.6, 0, 2.36, 0, 0, 0, 0.63
IMU, 441513142, 0.0002790295, -0.002537014, -0.0008016246, 0.2295805, 0.03505677, -9.466664, 0, 0, 39.19013, 1, 1, 999, 999
RFND, 441547959, 0.2, 25, 0, 0
IMU, 441553132, -0.0003718665, -0.002390184, -0.002180925, 0.2295675, 0.03462177, -9.478618, 0, 0, 39.18995, 1, 1, 999, 999
IMU, 441593083, 0.0009926342, -0.00033268, -0.0005048916, 0.2144204, 0.04045533, -9.448647, 0, 0, 39.1893, 1, 1, 999, 999
MAG, 441597920, 115, 360, 444, 0, 0, 0, 0, 0, 0, 1, 441597837
RFND, 441597960, 0.2, 25, 0, 0
BARO, 441597991, 0.09383901, 981.0167, 37.32, 0.2102585, 441597, 0, 27.83
CTUN, 441598003, 0, 0, 0, 0.4253115, 0.08571295, 0.08571295, 0.09, 0, 0.19, 0, 0, 1
ATT, 441605425, 0, 0.28, 0, 0.48, 161.99, 161.99, 0, 1
RATE, 441605437, -1.300872, -0.06639992, -0.002371204, -2.164966, -0.02205354, -0.004725703, 0.007792719, -0.02608878, 0.0001793567, -469.9913, 0.1336098, 0
NKF1, 441605446, 0.28, 0.48, 161.99, -0.02116771, 0.007904019, -0.01160472, 0, 0, 0, -0.08570178, 0, -0.08, -0.01
NKF2, 441605446, 35, 0, 0, 0, 0, 0, 0, 0, 0, 0, 0, 0, 0
NKF3, 441605446, 0, 0, 0, -0.02, 0.01, -0.01, 0, 0, 0, 0, 0
NKF4, 441605446, 0, 0, 0, 0, 0, 5.731795E-07, 0, 0, 0, 19, 229, 0, 0
NKF5, 441605446, 0, 0, 0, 0, 0.21, 0.13, 0, 0.19, 0.5, 3.722262E-05, 0.001660825, 0.003122445
NKQ1, 441605446, 0.1564087, -0.0112605, -0.0002618587, 0.9876283
AHR2, 441605491, 0.21, 0.52, 156.52, 0.09, 0, 0, 0.2034048, -0.004096599, 0.002773165, 0.9790823
MOTB, 441605498, 1, 1, 0, 1
RCIN, 441605503, 0, 0, 0, 0, 0, 0, 0, 0, 0, 0, 0, 0, 0, 0
RCOU, 441605508, 1101, 1101, 1101, 1101, 0, 0, 0, 0, 0, 0, 0, 0, 0, 0
VIBE, 441605516, 0.02037996, 0.01997548, 0.03364279, 0, 0, 0
CTRL, 441605523, 0.003065587, 0.0002063758, 0.005105213, 0.0001804694, 0.0001901839
PRX, 441605554, 2, 0.63, 0, 0.69, 0, 3.6, 0, 2.34, 0, 0, 0, 0.63
IMU, 441633145, -5.095129E-05, -0.00231113, -0.001367877, 0.2213967, 0.04017676, -9.460908, 0, 0, 39.18943, 1, 1, 999, 999
RFND, 441648245, 0.2, 25, 0, 0
IMU, 441673922, 6.395939E-05, -0.0005397797, -0.001083223, 0.2293076, 0.03893479, -9.434253, 0, 0, 39.1896, 1, 1, 999, 999
MAG, 441697821, 112, 362, 443, 0, 0, 0, 0, 0, 0, 1, 441697814
RFND, 441697940, 0.2, 25, 0, 0
BARO, 441697972, 0.09107904, 981.017, 37.32, -0.04853551, 441697, 0, 27.83
CTUN, 441697985, 0, 0, 0, 0.4253115, 0.08526902, 0.08526902, 0.09, 0, 0.19, 0, 0, 1
ATT, 441705342, 0, 0.28, 0, 0.48, 161.98, 161.99, 0, 1
RATE, 441705414, -1.291211, -0.09095179, -0.002822246, -2.161596, -0.05717664, -0.004905479, 0.005917929, -0.07553423, 0.0001945268, -457.1132, 1.317692, 0
NKF1, 441705424, 0.28, 0.48, 161.99, -0.02213001, 0.008124573, -0.01128674, 0, 0, 0, -0.08522391, 0, -0.08, -0.01
NKF2, 441705424, 35, 0, 0, 0, 0, 0, 0, 0, 0, 0, 0, 0, 0
NKF3, 441705424, 0, 0, 0, -0.03, 0.01, -0.01, 0, 0, 0, 0, 0
NKF4, 441705424, 0, 0, 0, 0, 0, 6.26468E-07, 0, 0, 0, 19, 229, 0, 0
NKF5, 441705424, 0, 0, 0, 0, 0.21, 0.13, 0, 0.19, 0.5, 3.743577E-05, 0.001491064, 0.002710651
NKQ1, 441705424, 0.1564586, -0.01125796, -0.0002787872, 0.9876204
AHR2, 441705470, 0.21, 0.52, 156.52, 0.09, 0, 0, 0.2034682, -0.004107998, 0.002760259, 0.9790691
MOTB, 441705477, 1, 1, 0, 1
RCIN, 441705482, 0, 0, 0, 0, 0, 0, 0, 0, 0, 0, 0, 0, 0, 0
RCOU, 441705487, 1101, 1101, 1101, 1101, 0, 0, 0, 0, 0, 0, 0, 0, 0, 0
VIBE, 441705495, 0.02245707, 0.01830983, 0.03466303, 0, 0, 0
CTRL, 441705502, 0.0030457, 0.000204522, 0.005096035, 0.0001901776, 0.0001912822
PRX, 441705534, 2, 0.63, 0, 0.7, 0, 3.6, 0, 2.36, 0, 0, 0, 0.63
IMU, 441713686, -0.0009134961, -0.002001843, -0.001976657, 0.2204044, 0.04049833, -9.458245, 0, 0, 39.18962, 1, 1, 999, 999
RFND, 441747945, 0.2, 25, 0, 0
IMU, 441753198, -0.0002504914, -0.002324626, -0.001281779, 0.2132477, 0.0280421, -9.458302, 0, 0, 39.1896, 1, 1, 999, 999
IMU, 441793339, -0.000459531, -0.002751311, -0.001773139, 0.2300819, 0.03949944, -9.436966, 0, 0, 39.18932, 1, 1, 999, 999
MAG, 441797809, 110, 366, 446, 0, 0, 0, 0, 0, 0, 1, 441797801
RFND, 441797952, 0.2, 25, 0, 0
BARO, 441797985, 0.1241987, 981.0134, 37.32, -0.3380965, 441797, 0, 27.83
CTUN, 441797997, 0, 0, 0, 0.4253115, 0.08515778, 0.08515778, 0.12, 0, 0.19, 0, 0, 1
ATT, 441805396, 0, 0.28, 0, 0.47, 161.98, 161.98, 0, 1
RATE, 441805407, -1.289383, -0.07285195, -0.002602779, -2.147965, -0.005818434, -0.005215311, 0.0064482, -0.08937949, 0.0002408297, -456.1793, 2.201748, 0
NKF1, 441805415, 0.28, 0.47, 161.98, -0.02287068, 0.008486376, -0.01126369, 0, 0, 0, -0.08506867, 0, -0.08, -0.01
NKF2, 441805415, 35, 0, 0, 0, 0, 0, 0, 0, 0, 0, 0, 0, 0
NKF3, 441805415, 0, 0, 0, -0.03, 0.01, -0.01, 0, 0, 0, 0, 0
NKF4, 441805415, 0, 0, 0, 0, 0, 6.745652E-07, 0, 0, 0, 19, 229, 0, 0
NKF5, 441805415, 0, 0, 0, 0, 0.21, 0.13, 0, 0.19, 0.5, 3.773455E-05, 0.001384187, 0.00253286
NKQ1, 441805415, 0.1565244, -0.01123216, -0.0002855673, 0.9876102
AHR2, 441805460, 0.21, 0.52, 156.51, 0.12, 0, 0, 0.2035475, -0.004095729, 0.002755996, 0.9790527
MOTB, 441805467, 1, 1, 0, 1
RCIN, 441805471, 0, 0, 0, 0, 0, 0, 0, 0, 0, 0, 0, 0, 0, 0
RCOU, 441805476, 1101, 1101, 1101, 1101, 0, 0, 0, 0, 0, 0, 0, 0, 0, 0
VIBE, 441805484, 0.01947775, 0.02153389, 0.03818944, 0, 0, 0
CTRL, 441805491, 0.003044876, 0.00021409, 0.005061836, 0.0001756963, 0.0002023661
PRX, 441805520, 2, 0.63, 0, 0.7, 0, 0.66, 0, 2.36, 0, 0, 0, 0.63
IMU, 441833417, -0.0004892899, -0.001500659, -0.0009264476, 0.2278193, 0.02831, -9.447896, 0, 0, 39.18768, 1, 1, 999, 999
RFND, 441847943, 0.2, 25, 0, 0
IMU, 441873224, -0.0004789725, -0.002279097, -0.001285961, 0.2211785, 0.03665021, -9.451344, 0, 0, 39.18677, 1, 1, 999, 999
MAG, 441897770, 108, 359, 443, 0, 0, 0, 0, 0, 0, 1, 441897762
RFND, 441897805, 0.2, 25, 0, 0
BARO, 441897835, 0.1849181, 981.0067, 37.32, -0.3261343, 441897, 0, 27.83
CTUN, 441897919, 0, 0, 0, 0.4253115, 0.08476039, 0.08476039, 0.18, 0, 0.19, 0, 0, 1
ATT, 441905320, 0, 0.28, 0, 0.47, 161.97, 161.98, 0, 1
RATE, 441905330, -1.277524, -0.06231241, -0.002593829, -2.136568, -0.003607514, -0.005090002, 0.008423151, -0.005922596, 0.0001703697, -452.2041, 0.1558304, 0
NKF1, 441905337, 0.28, 0.47, 161.98, -0.02394313, 0.009222423, -0.01116553, 0, 0, 0, -0.08472785, 0, -0.08, -0.01
NKF2, 441905337, 35, 0, 0, 0, 0, 0, 0, 0, 0, 0, 0, 0, 0
NKF3, 441905337, 0, 0, 0, -0.03, 0.01, -0.01, 0, 0, 0, 0, 0
NKF4, 441905337, 0, 0, 0, 0, 0, 7.597698E-07, 0, 0, 0, 19, 229, 0, 0
NKF5, 441905337, 0, 0, 0, 0, 0.21, 0.13, 0, 0.19, 0.5, 3.754998E-05, 0.001373535, 0.002524279
NKQ1, 441905337, 0.1565528, -0.01121413, -0.0003133272, 0.9876059
AHR2, 441905380, 0.21, 0.52, 156.5, 0.18, 0, 0, 0.2035897, -0.004092299, 0.002731438, 0.979044
MOTB, 441905388, 1, 1, 0, 1
RCIN, 441905392, 0, 0, 0, 0, 0, 0, 0, 0, 0, 0, 0, 0, 0, 0
RCOU, 441905397, 1101, 1101, 1101, 1101, 0, 0, 0, 0, 0, 0, 0, 0, 0, 0
VIBE, 441905405, 0.02214414, 0.0199481, 0.03590699, 0, 0, 0
CTRL, 441905412, 0.003017115, 0.0001863058, 0.005035918, 0.0001561571, 0.0001981584
PRX, 441905443, 2, 0.63, 0, 0.7, 0, 0.66, 0, 2.35, 0, 0, 0, 0.63
IMU, 441912963, -0.0009866771, -0.001263342, -0.0007373743, 0.231411, 0.03477203, -9.450918, 0, 0, 39.187, 1, 1, 999, 999
RFND, 441947735, 0.2, 25, 0, 0
IMU, 441953015, 0.001062681, -0.002484685, -0.001500043, 0.2327963, 0.03129467, -9.454833, 0, 0, 39.18658, 1, 1, 999, 999
IMU, 441993107, -0.0009354964, -0.0009382714, -0.001568387, 0.2234447, 0.03135764, -9.467896, 0, 0, 39.18683, 1, 1, 999, 999
MAG, 441997751, 113, 360, 445, 0, 0, 0, 0, 0, 0, 1, 441997743
RFND, 441997784, 0.2, 25, 0, 0
BARO, 441997812, 0.1076389, 981.0151, 37.32, -0.0285573, 441997, 0, 27.83
CTUN, 441997824, 0, 0, 0, 0.4253115, 0.08461758, 0.08461758, 0.1, 0, 0.19, 0, 0, 1
ATT, 442005389, 0, 0.28, 0, 0.47, 161.97, 161.97, 0, 1
RATE, 442005401, -1.283274, -0.02337132, -0.002932579, -2.129388, 0.02121982, -0.005114956, 0.006724962, -0.03394823, 0.0002048092, -466.7286, 2.211857, 0
NKF1, 442005409, 0.28, 0.47, 161.97, -0.02463697, 0.01031817, -0.01152416, 0, 0, 0, -0.08452475, 0, -0.08, -0.01
NKF2, 442005409, 35, 0, 0, 0, 0, 0, 0, 0, 0, 0, 0, 0, 0
NKF3, 442005409, 0, 0, 0, -0.03, 0.01, -0.01, 0, 0, 0, 0, 0
NKF4, 442005409, 0, 0, 0, 0, 0, 8.439498E-07, 0, 0, 0, 19, 229, 0, 0
NKF5, 442005409, 0, 0, 0, 0, 0.21, 0.13, 0, 0.19, 0.5, 3.778187E-05, 0.001245579, 0.002187197
NKQ1, 442005409, 0.1566027, -0.01119922, -0.0003027571, 0.9875982
AHR2, 442005454, 0.21, 0.52, 156.49, 0.09999999, 0, 0, 0.2036532, -0.004090588, 0.002745691, 0.9790307
MOTB, 442005462, 1, 1, 0, 1
RCIN, 442005466, 0, 0, 0, 0, 0, 0, 0, 0, 0, 0, 0, 0, 0, 0
RCOU, 442005471, 1101, 1101, 1101, 1101, 0, 0, 0, 0, 0, 0, 0, 0, 0, 0
VIBE, 442005479, 0.01924596, 0.01916193, 0.03453708, 0, 0, 0
CTRL, 442005487, 0.00302271, 0.000184711, 0.005017817, 0.0001541828, 0.0001948747
PRX, 442005517, 2, 0.63, 0, 0.7, 0, 0.69, 0, 2.36, 0, 0, 0, 0.63
IMU, 442033126, 0.000937484, -0.001566851, -0.0006674705, 0.2200517, 0.04251545, -9.444281, 0, 0, 39.18662, 1, 1, 999, 999
RFND, 442047801, 0.2, 25, 0, 0
IMU, 442073008, -0.0006560966, -0.000606254, -0.0009861449, 0.2311107, 0.04127219, -9.455, 0, 0, 39.1868, 1, 1, 999, 999
DU32, 442092997, 7, 50357752
MAG, 442097722, 115, 363, 443, 0, 0, 0, 0, 0, 0, 1, 442097715
RFND, 442097755, 0.2, 25, 0, 0
BARO, 442097784, 0.1241987, 981.0134, 37.32, 0.1353636, 442097, 0, 27.83
CTUN, 442097796, 0, 0, 0, 0.4253115, 0.08436992, 0.08436992, 0.12, 0, 0.19, 0, 0, 1
ATT, 442105353, 0, 0.28, 0, 0.47, 161.96, 161.97, 0, 1
RATE, 442105362, -1.293226, -0.008637161, -0.002891952, -2.132668, -0.057526, -0.004582068, 0.00593341, -0.07850625, 0.0001809286, -454.0193, 0.07419586, 0
NKF1, 442105370, 0.28, 0.47, 161.97, -0.02522977, 0.01048468, -0.01121035, 0, 0, 0, -0.08435091, 0, -0.08, -0.01
NKF2, 442105370, 35, 0, 0, 0, 0, 0, 0, 0, 0, 0, 0, 0, 0
NKF3, 442105370, 0, 0, 0, -0.03, 0.01, -0.01, 0, 0, 0, 0, 0
NKF4, 442105370, 0, 0, 0, 0, 0, 9.465454E-07, 0, 0, 0, 19, 229, 0, 0
NKF5, 442105370, 0, 0, 0, 0, 0.21, 0.13, 0, 0.19, 0.5, 3.757617E-05, 0.001272305, 0.002378209
NKQ1, 442105370, 0.1566481, -0.0112002, -0.0002830248, 0.987591
AHR2, 442105412, 0.21, 0.52, 156.49, 0.12, 0, 0, 0.2037126, -0.004102776, 0.00276945, 0.9790182
MOTB, 442105420, 1, 1, 0, 1
RCIN, 442105424, 0, 0, 0, 0, 0, 0, 0, 0, 0, 0, 0, 0, 0, 0
RCOU, 442105429, 1101, 1101, 1101, 1101, 0, 0, 0, 0, 0, 0, 0, 0, 0, 0
VIBE, 442105437, 0.02106235, 0.02111061, 0.03406525, 0, 0, 0
CTRL, 442105444, 0.00304323, 0.0001839084, 0.005029965, 0.0001446029, 0.0001931449
PRX, 442105474, 2, 0.63, 0, 0.7, 0, 0.69, 0, 2.34, 0, 0, 0, 0.63
IMU, 442113038, -0.0005208034, -0.002600949, -0.00142068, 0.2161794, 0.03617988, -9.440904, 0, 0, 39.18686, 1, 1, 999, 999
RFND, 442147793, 0.2, 25, 0, 0
IMU, 442153563, -0.0006749117, -0.0007668075, -0.001894478, 0.2331862, 0.03962646, -9.447673, 0, 0, 39.18671, 1, 1, 999, 999
EV, 442190131, 57
IMU, 442193644, -0.0008825075, -0.002058391, -0.001307003, 0.2235565, 0.05248722, -9.434429, 0, 0, 39.18692, 1, 1, 999, 999
MAG, 442197814, 110, 360, 441, 0, 0, 0, 0, 0, 0, 1, 442197806
RFND, 442197945, 0.2, 25, 0, 0
BARO, 442197975, 0.2290776, 981.0018, 37.32, 0.05778689, 442197, 0, 27.83
CTUN, 442197987, 0, 0, 0, 0.4253115, 0.08417077, 0.08417077, 0.22, 0, 0.19, 0, 0, 1
ATT, 442205398, 0, 0.28, 0, 0.47, 161.96, 161.96, 0, 1
RATE, 442205409, -1.284124, -0.03221842, -0.002918433, -2.125145, -0.06633015, -0.004721711, 0.005326495, -0.05133611, 0.0002091558, -431.8926, -1.439571, 0
NKF1, 442205416, 0.28, 0.47, 161.96, -0.02660706, 0.01024921, -0.01066402, 0, 0, 0, -0.08411048, 0, -0.08, -0.01
NKF2, 442205416, 35, 0, 0, 0, 0, 0, 0, 0, 0, 0, 0, 0, 0
NKF3, 442205416, 0, 0, 0, -0.04, 0.01, -0.01, 0, 0, 0, 0, 0
NKF4, 442205416, 0, 0, 0, 0, 0, 1.064704E-06, 0, 0, 0, 19, 229, 0, 0
NKF5, 442205416, 0, 0, 0, 0, 0.21, 0.13, 0, 0.19, 0.5, 3.796184E-05, 0.001118491, 0.001915936
NKQ1, 442205416, 0.1567052, -0.01119009, -0.0003014876, 0.987582
AHR2, 442205458, 0.21, 0.52, 156.48, 0.22, 0, 0, 0.2037831, -0.004102825, 0.002754852, 0.9790036
MOTB, 442205465, 1, 1, 0, 1
RCIN, 442205469, 0, 0, 0, 0, 0, 0, 0, 0, 0, 0, 0, 0, 0, 0
RCOU, 442205474, 1104, 1104, 1104, 1104, 0, 0, 0, 0, 0, 0, 0, 0, 0, 0
VIBE, 442205482, 0.01885375, 0.01875391, 0.03426138, 0, 0, 0
CTRL, 442205489, 0.003029216, 0.0001954926, 0.005012017, 0.0001580208, 0.0001977169
PRX, 442205520, 2, 0.63, 0, 0.69, 0, 3.6, 0, 2.36, 0, 0, 0, 0.63
IMU, 442233197, 0.0007087484, -0.001499161, -0.001436282, 0.23262, 0.03447539, -9.445552, 0, 0, 39.18766, 1, 1, 999, 999
RFND, 442247745, 0.2, 25, 0, 0
IMU, 442273152, 0.0002089596, -0.00131507, -0.0009862529, 0.2300008, 0.02584881, -9.458715, 0, 0, 39.18862, 1, 1, 999, 999
MAG, 442297748, 113, 360, 445, 0, 0, 0, 0, 0, 0, 1, 442297740
RFND, 442297781, 0.2, 25, 0, 0
BARO, 442297810, 0.2428774, 981.0002, 37.32, 0.08366161, 442297, 0, 27.83
CTUN, 442297822, 0, 0, 0, 0.4253115, 0.08401311, 0.08401311, 0.24, 0, 0.19, 0, 0, 1
ATT, 442305336, 0, 0.28, 0, 0.47, 161.95, 161.96, 0, 1
RATE, 442305347, -1.285769, -0.02048391, -0.002800207, -2.122279, -0.0005475424, -0.005061356, 0.005241965, -0.05998388, 0.0001778259, -458.2965, 1.535892, 0
NKF1, 442305355, 0.28, 0.47, 161.96, -0.02743398, 0.01108905, -0.01131596, 0, 0, 0, -0.08400421, 0, -0.08, -0.01
NKF2, 442305355, 35, 0, 0, 0, 0, 0, 0, 0, 0, 0, 0, 0, 0
NKF3, 442305355, 0, 0, 0, -0.04, 0.01, -0.01, 0, 0, 0, 0, 0
NKF4, 442305355, 0, 0, 0, 0, 0, 1.180379E-06, 0, 0, 0, 19, 229, 0, 0
NKF5, 442305355, 0, 0, 0, 0, 0.21, 0.13, 0, 0.19, 0.5, 3.772438E-05, 0.001195821, 0.002276996
NKQ1, 442305355, 0.1567437, -0.01118444, -0.0002982805, 0.987576
AHR2, 442305399, 0.21, 0.52, 156.47, 0.24, 0, 0, 0.2038355, -0.004106222, 0.002762222, 0.9789926
MOTB, 442305407, 1, 1, 0, 1
RCIN, 442305411, 0, 0, 0, 0, 0, 0, 0, 0, 0, 0, 0, 0, 0, 0
RCOU, 442305416, 1128, 1128, 1128, 1128, 0, 0, 0, 0, 0, 0, 0, 0, 0, 0
VIBE, 442305424, 0.01841555, 0.02167194, 0.03194252, 0, 0, 0
CTRL, 442305431, 0.003032307, 0.0002012744, 0.005003418, 0.0001471473, 0.0001968039
PRX, 442305462, 2, 0.63, 0, 0.69, 0, 3.6, 0, 2.34, 0, 0, 0, 0.63
IMU, 442312979, -0.001328432, -0.002304636, -0.0007471035, 0.2270732, 0.03838651, -9.459324, 0, 0, 39.18845, 1, 1, 999, 999
RFND, 442347949, 0.2, 25, 0, 0
IMU, 442353122, 0.0001732086, -0.003227238, -0.002292947, 0.2249201, 0.02991231, -9.450235, 0, 0, 39.18857, 1, 1, 999, 999
IMU, 442393481, -0.0001954006, -0.001080902, -0.0008350592, 0.2362147, 0.03362612, -9.455252, 0, 0, 39.188, 1, 1, 999, 999
MAG, 442397970, 108, 359, 443, 0, 0, 0, 0, 0, 0, 1, 442397962
RFND, 442398007, 0.2, 25, 0, 0
BARO, 442398130, 0.2594373, 980.9984, 37.32, 0.304389, 442398, 0, 27.83
CTUN, 442398143, 0, 0, 0, 0.4253115, 0.08380287, 0.08380287, 0.25, 0, 0.19, 0, 0, 1
ATT, 442405417, 0, 0.28, 0, 0.46, 161.95, 161.95, 0, 1
RATE, 442405429, -1.279963, -0.04433915, -0.002699764, -2.107049, 0.007782086, -0.005009908, 0.005234404, -0.04637088, 0.0001560176, -471.0656, -1.476097, 0
NKF1, 442405438, 0.28, 0.46, 161.95, -0.02832374, 0.01201642, -0.01163125, 0, 0, 0, -0.083763, 0, -0.08, -0.01
NKF2, 442405438, 35, 0, 0, 0, 0, 0, 0, 0, 0, 0, 0, 0, 0
NKF3, 442405438, 0, 0, 0, -0.04, 0.01, -0.01, 0, 0, 0, 0, 0
NKF4, 442405438, 0, 0, 0, 0, 0, 1.334781E-06, 0, 0, 0, 19, 229, 0, 0
NKF5, 442405438, 0, 0, 0, 0, 0.21, 0.13, 0, 0.19, 0.5, 3.825497E-05, 0.001014072, 0.00171367
NKQ1, 442405438, 0.1567846, -0.01115716, -0.0003138176, 0.9875697
AHR2, 442405483, 0.21, 0.52, 156.47, 0.25, 0, 0, 0.2038899, -0.004094046, 0.002746029, 0.9789814
MOTB, 442405491, 1, 1, 0, 1
RCIN, 442405495, 0, 0, 0, 0, 0, 0, 0, 0, 0, 0, 0, 0, 0, 0
RCOU, 442405501, 1152, 1152, 1152, 1152, 0, 0, 0, 0, 0, 0, 0, 0, 0, 0
VIBE, 442405509, 0.02251176, 0.02042323, 0.03671119, 0, 0, 0
CTRL, 442405516, 0.003018666, 0.0001878176, 0.00496172, 0.000159379, 0.000189707
PRX, 442405546, 2, 0.63, 0, 0.69, 0, 0.68, 0, 2.35, 0, 0, 0, 0.63
IMU, 442432977, -0.00156533, -0.001437307, -0.0005780003, 0.2253054, 0.04263553, -9.454728, 0, 0, 39.18787, 1, 1, 999, 999
RFND, 442447812, 0.2, 25, 0, 0
IMU, 442473371, -0.0007118515, -0.0008390754, 0.000469886, 0.2240153, 0.03471022, -9.467173, 0, 0, 39.18784, 1, 1, 999, 999
MAG, 442497739, 112, 364, 441, 0, 0, 0, 0, 0, 0, 1, 442497731
RFND, 442497774, 0.2, 25, 0, 0
BARO, 442497803, 0.3339565, 980.9899, 37.32, 0.4212849, 442497, 0, 27.83
CTUN, 442497814, 0, 0, 0, 0.4253115, 0.08388589, 0.08388589, 0.33, 0, 0.19, 0, 0, 1
ATT, 442505315, 0, 0.27, 0, 0.46, 161.94, 161.95, 0, 1
RATE, 442505325, -1.256366, -0.05396486, -0.002885878, -2.102448, -0.03076053, -0.004549342, 0.005119385, -0.1061123, 0.0002092514, -495.4591, -0.5060196, 0
NKF1, 442505333, 0.27, 0.46, 161.95, -0.02916295, 0.01243038, -0.01223356, 0, 0, 0, -0.08389332, 0, -0.08, -0.01
NKF2, 442505333, 35, 0, 0, 0, 0, 0, 0, 0, 0, 0, 0, 0, 0
NKF3, 442505333, 0, 0, 0, -0.04, 0.01, -0.01, 0, 0, 0, 0, 0
NKF4, 442505333, 0, 0, 0, 0, 0, 1.461879E-06, 0, 0, 0, 19, 229, 0, 0
NKF5, 442505333, 0, 0, 0, 0, 0.21, 0.13, 0, 0.19, 0.5, 3.792522E-05, 0.001126465, 0.002217594
NKQ1, 442505333, 0.1568324, -0.01115527, -0.0003587001, 0.9875622
AHR2, 442505376, 0.2, 0.52, 156.46, 0.33, 0, 0, 0.2039513, -0.004107294, 0.00270117, 0.9789687
MOTB, 442505383, 1, 1, 0, 1
RCIN, 442505386, 0, 0, 0, 0, 0, 0, 0, 0, 0, 0, 0, 0, 0, 0
RCOU, 442505391, 1176, 1176, 1176, 1176, 0, 0, 0, 0, 0, 0, 0, 0, 0, 0
VIBE, 442505399, 0.02889383, 0.03024051, 0.04364095, 0, 0, 0
CTRL, 442505406, 0.00296496, 0.0001958574, 0.004966492, 0.0001462786, 0.0001812406
PRX, 442505437, 2, 0.63, 0, 0.69, 0, 0.65, 0, 2.35, 0, 0, 0, 0.63
IMU, 442513184, -0.0006699398, -0.003464038, -1.875361E-05, 0.2189023, 0.05052572, -9.451809, 0, 0, 39.18851, 1, 1, 999, 999
RFND, 442547788, 0.2, 25, 0, 0
IMU, 442552985, -0.000188751, -0.002722605, -0.0002468076, 0.2077672, 0.0271134, -9.435402, 0, 0, 39.18921, 1, 1, 999, 999
IMU, 442593129, -0.001783904, -0.002688936, -0.01267585, 0.2265661, 0.03480008, -9.425079, 0, 0, 39.18983, 1, 1, 999, 999
MAG, 442597734, 113, 362, 442, 0, 0, 0, 0, 0, 0, 1, 442597726
RFND, 442597762, 0.2, 25, 0, 0
BARO, 442597793, 0.2897969, 980.995, 37.32, 0.3663226, 442597, 0, 27.83
CTUN, 442597805, 0, 0, 0, 0.4253115, 0.08366228, 0.08366228, 0.28, 0, 0.19, 0, 0, 1
ATT, 442605462, 0, 0.27, 0, 0.46, 161.94, 161.95, 0, 1
RATE, 442605475, -1.258279, -0.07169452, -0.002449946, -2.080437, -0.4150458, -0.002383719, 0.005088768, 0.5496228, 0.0004305588, -465.7574, -2.676105, 0
NKF1, 442605483, 0.27, 0.46, 161.95, -0.02955764, 0.0138792, -0.01150018, 0, 0, 0, -0.08363342, 0, -0.08, -0.01
NKF2, 442605483, 35, 0, 0, 0, 0, 0, 0, 0, 0, 0, 0, 0, 0
NKF3, 442605483, 0, 0, 0, -0.05, 0.02, -0.01, 0, 0, 0, 0, 0
NKF4, 442605483, 0, 0, 0, 0, 0, 1.655922E-06, 0, 0, 0, 19, 229, 0, 0
NKF5, 442605483, 0, 0, 0, 0, 0.21, 0.13, 0, 0.19, 0.5, 3.853923E-05, 0.0009258551, 0.001582051
NKQ1, 442605483, 0.1568174, -0.01111935, -0.0003718391, 0.987565
AHR2, 442605527, 0.2, 0.52, 156.46, 0.28, 0, 0, 0.2039505, -0.004084634, 0.002692588, 0.978969
MOTB, 442605535, 1, 1, 0, 1
RCIN, 442605539, 0, 0, 0, 0, 0, 0, 0, 0, 0, 0, 0, 0, 0, 0
RCOU, 442605544, 1199, 1199, 1199, 1199, 0, 0, 0, 0, 0, 0, 0, 0, 0, 0
VIBE, 442605552, 0.1001036, 0.1040768, 0.1035221, 0, 0, 0
CTRL, 442605559, 0.002959563, 0.0002424014, 0.004954894, 0.000529265, 0.000241298
PRX, 442605590, 2, 0.63, 0, 0.69, 0, 0.65, 0, 2.38, 0, 0, 0, 0.63
IMU, 442632966, -0.003166029, 0.01841119, -0.007998521, 0.2198612, 0.03776552, -9.469398, 0, 0, 39.19102, 1, 1, 999, 999
RFND, 442647773, 0.2, 25, 0, 0
IMU, 442673010, 0.01058819, -0.002003415, 0.01916359, 0.279785, 0.02209372, -9.429754, 0, 0, 39.19254, 1, 1, 999, 999
MAG, 442697948, 115, 355, 438, 0, 0, 0, 0, 0, 0, 1, 442697823
RFND, 442697981, 0.2, 25, 0, 0
BARO, 442698012, 0.2125178, 981.0034, 37.32, 0.2458099, 442697, 0, 27.83
CTUN, 442698112, 0, 0, 0, 0.4253115, 0.08365338, 0.08365338, 0.21, 0, 0.19, 0, 0, 1
ATT, 442705478, 0, 0.27, 0, 0.47, 161.91, 161.91, 0, 1
RATE, 442705490, -1.208955, -0.7524226, 0.0005638765, -2.154228, -0.4674404, 0.004532943, 0.005073456, -1.253628, 0.0004654014, -495.068, 1.329994, 0
NKF1, 442705497, 0.27, 0.47, 161.91, -0.02990722, 0.01313705, -0.0122239, 0, 0, 0, -0.08359211, 0, -0.08, -0.01
NKF2, 442705497, 35, 0, 0, 0, 0, 0, 0, 0, 0, 0, 0, 0, 0
NKF3, 442705497, 0, 0, 0, -0.05, 0.02, -0.01, 0, 0, 0, 0, 0
NKF4, 442705497, 0, 0, 0, 0, 0, 1.825596E-06, 0, 0, 0, 19, 229, 0, 0
NKF5, 442705497, 0, 0, 0, 0, 0.21, 0.13, 0, 0.19, 0.5, 3.933633E-05, 0.0007894886, 0.001160916
NKQ1, 442705497, 0.1571251, -0.01125401, -0.000415149, 0.9875146
AHR2, 442705542, 0.19, 0.53, 156.42, 0.21, 0, 0, 0.20427, -0.004232557, 0.002659608, 0.9789019
MOTB, 442705550, 1, 1, 0, 1
RCIN, 442705554, 0, 0, 0, 0, 0, 0, 0, 0, 0, 0, 0, 0, 0, 0
RCOU, 442705559, 1229, 1222, 1230, 1221, 0, 0, 0, 0, 0, 0, 0, 0, 0, 0
VIBE, 442705568, 0.16016, 0.1895633, 0.1853519, 0, 0, 0
CTRL, 442705574, 0.002981319, 0.001105167, 0.005445534, 0.003027622, 0.0004748522
PRX, 442705605, 2, 0.63, 0, 0.7, 0, 0.66, 0, 2.36, 0, 0, 0, 0.63
IMU, 442713191, -0.006183152, -0.03204921, -0.0177296, 0.1719605, 0.1101685, -9.463493, 0, 0, 39.19366, 1, 1, 999, 999
RFND, 442747810, 0.2, 25, 0, 0
IMU, 442753078, -0.01115247, 0.02977585, -0.003237457, 0.2177686, 0.04399352, -9.459078, 0, 0, 39.19467, 1, 1, 999, 999
IMU, 442793242, 0.02400764, -0.004324615, -0.02255272, 0.280542, 0.02596378, -9.483932, 0, 0, 39.19459, 1, 1, 999, 999
MAG, 442797760, 115, 357, 443, 0, 0, 0, 0, 0, 0, 1, 442797753
RFND, 442797794, 0.2, 25, 0, 0
BARO, 442797824, 0.1186787, 981.014, 37.33, -0.02477384, 442797, 0, 27.83
CTUN, 442797836, 0, 0, 0, 0.4253115, 0.08349503, 0.08349503, 0.11, 0, 0.19, 0, 0, 1
ATT, 442805297, 0, 0.29, 0, 0.48, 161.9, 161.9, 0, 1
RATE, 442805309, -1.30338, 0.6252223, -0.002705642, -2.178108, 0.8960896, -0.01233817, 0.005495063, -1.25803, 0.0008384997, -509.9107, 1.470184, 0
NKF1, 442805317, 0.29, 0.48, 161.9, -0.03128168, 0.01452166, -0.01259039, 0, 0, 0, -0.08348475, 0, -0.08, -0.01
NKF2, 442805317, 35, 0, 0, 0, 0, 0, 0, 0, 0, 0, 0, 0, 0
NKF3, 442805317, 0, 0, 0, -0.05, 0.02, -0.01, 0, 0, 0, 0, 0
NKF4, 442805317, 0, 0, 0, 0, 0, 2.031535E-06, 0, 0, 0, 19, 229, 0, 0
NKF5, 442805317, 0, 0, 0, 0, 0.21, 0.13, 0, 0.19, 0.5, 3.891797E-05, 0.0008746203, 0.001563048
NKQ1, 442805317, 0.1572011, -0.01126971, -0.0002262389, 0.9875023
AHR2, 442805361, 0.22, 0.54, 156.41, 0.11, 0, 0, 0.2043611, -0.004245393, 0.002851217, 0.9788823
MOTB, 442805368, 1, 1, 0, 1
RCIN, 442805372, 0, 0, 0, 0, 0, 0, 0, 0, 0, 0, 0, 0, 0, 0
RCOU, 442805377, 1227, 1243, 1221, 1246, 0, 0, 0, 0, 0, 0, 0, 0, 0, 0
VIBE, 442805386, 0.1786264, 0.2354425, 0.2052457, 0, 0, 0
CTRL, 442805393, 0.003332893, 0.002443958, 0.005477635, 0.00458907, 0.0004676788
PRX, 442805424, 2, 0.63, 0, 0.69, 0, 0.66, 0, 2.37, 0, 0, 0, 0.63
IMU, 442832991, -0.01787451, -0.008874716, 0.008267218, 0.2147073, 0.07048676, -9.463781, 0, 0, 39.19453, 1, 1, 999, 999
RFND, 442847813, 0.2, 25, 0, 0
IMU, 442873155, -0.000263099, -0.005759454, 0.01044953, 0.2582355, 0.02392922, -9.425368, 0, 0, 39.19442, 1, 1, 999, 999
MAG, 442898335, 113, 358, 445, 0, 0, 0, 0, 0, 0, 1, 442898327
RFND, 442898370, 0.2, 25, 0, 0
BARO, 442898401, 0.1793981, 981.0073, 37.33, -0.3859414, 442898, 0, 27.83
CTUN, 442898414, 0, 0, 0, 0.4253115, 0.08352688, 0.08352688, 0.17, 0, 0.19, 0, 0, 1
ATT, 442905374, 0, 0.27, 0, 0.47, 161.89, 161.89, 0, 1
RATE, 442905385, -1.213542, -0.1401239, -0.005233048, -2.142383, 0.08089542, -0.00621717, 0.005065809, -0.7714987, 0.0006618333, -470.4861, -0.9778023, 0
NKF1, 442905393, 0.27, 0.47, 161.89, -0.03093467, 0.01396346, -0.01161694, 0, 0, 0, -0.08346663, 0, -0.08, -0.01
NKF2, 442905393, 35, 0, 0, 0, 0, 0, 0, 0, 0, 0, 0, 0, 0
NKF3, 442905393, 0, 0, 0, -0.06, 0.02, -0.01, 0, 0, 0, 0, 0
NKF4, 442905393, 0, 0, 0, 0, 0, 2.241074E-06, 0, 0, 0, 19, 229, 0, 0
NKF5, 442905393, 0, 0, 0, 0, 0.21, 0.13, 0, 0.19, 0.5, 3.989836E-05, 0.0006784229, 0.0009051414
NKQ1, 442905393, 0.1573056, -0.01123557, -0.0004149899, 0.987486
AHR2, 442905437, 0.19, 0.53, 156.4, 0.17, 0, 0, 0.2044771, -0.004226874, 0.00266304, 0.9788586
MOTB, 442905444, 1, 1, 0, 1
RCIN, 442905449, 0, 0, 0, 0, 0, 0, 0, 0, 0, 0, 0, 0, 0, 0
RCOU, 442905454, 1231, 1233, 1221, 1240, 0, 0, 0, 0, 0, 0, 0, 0, 0, 0
VIBE, 442905462, 0.2558722, 0.2949501, 0.2594212, 0, 0, 0
CTRL, 442905469, 0.003206785, 0.002903542, 0.005364704, 0.003891403, 0.0005344812
PRX, 442905499, 2, 0.63, 0, 0.69, 0, 0.67, 0, 2.36, 0, 0, 0, 0.63
IMU, 442913192, 0.008723082, -0.003358471, -0.01292324, 0.1937116, 0.08298498, -9.471977, 0, 0, 39.19498, 1, 1, 999, 999
RFND, 442947926, 0.2, 25, 0, 0
IMU, 442953099, -0.01562852, 0.003784463, -0.001633128, 0.2325391, 0.0435442, -9.426999, 0, 0, 39.1953, 1, 1, 999, 999
IMU, 442993234, 0.008948827, -0.01626207, -0.02147856, 0.1936306, 0.008974872, -9.462739, 0, 0, 39.19433, 1, 1, 999, 999
MAG, 442997929, 117, 356, 450, 0, 0, 0, 0, 0, 0, 1, 442997845
RFND, 442997965, 0.2, 25, 0, 0
BARO, 442997995, 0.1793981, 981.0072, 37.33, -0.4851424, 442997, 0, 27.83
CTUN, 442998008, 0, 0, 0, 0.4253115, 0.08348793, 0.08348793, 0.17, 0, 0.19, 0, 0, 1
ATT, 443005973, 0, 0.27, 0, 0.45, 161.87, 161.88, 0, 1
RATE, 443005986, -1.211421, -0.1920362, 0.0004569415, -2.054753, -0.611155, -0.003772789, 0.004781923, -0.3433775, 0.0007417936, -463.791, -1.405525, 0
NKF1, 443005993, 0.27, 0.45, 161.88, -0.03263127, 0.01424863, -0.01145163, 0, 0, 0, -0.08348365, 0, -0.08, -0.01
NKF2, 443005993, 35, 0, 0, 0, 0, 0, 0, 0, 0, 0, 0, 0, 0
NKF3, 443005993, 0, 0, 0, -0.06, 0.02, -0.01, 0, 0, 0, 0, 0
NKF4, 443005993, 0, 0, 0, 0, 0, 2.460751E-06, 0, 0, 0, 19, 229, 0, 0
NKF5, 443005993, 0, 0, 0, 0, 0.21, 0.13, 0, 0.19, 0.5, 3.931626E-05, 0.0008323476, 0.001561837
NKQ1, 443005993, 0.1574071, -0.01107403, -0.000450601, 0.9874716
AHR2, 443006119, 0.19, 0.51, 156.38, 0.17, 0, 0, 0.2045912, -0.004083847, 0.002620674, 0.9788355
MOTB, 443006128, 1, 1, 0, 1
RCIN, 443006133, 0, 0, 0, 0, 0, 0, 0, 0, 0, 0, 0, 0, 0, 0
RCOU, 443006139, 1221, 1229, 1221, 1226, 0, 0, 0, 0, 0, 0, 0, 0, 0, 0
VIBE, 443006146, 0.3101387, 0.2838738, 0.3542434, 0, 0, 0
CTRL, 443006154, 0.003254358, 0.002874207, 0.005175372, 0.003435515, 0.0005928307
PRX, 443006184, 2, 0.63, 0, 0.7, 0, 0.65, 0, 2.38, 0, 0, 0, 0.63
IMU, 443033176, 0.0004001632, 0.01911313, 0.01143002, 0.2525909, 0.06735353, -9.435798, 0, 0, 39.19477, 1, 1, 999, 999
RFND, 443047810, 0.2, 25, 0, 0
IMU, 443073597, -0.002422251, -0.01252431, -0.02023588, 0.2632105, 0.05678879, -9.465707, 0, 0, 39.19556, 1, 1, 999, 999
DU32, 443093054, 7, 33580536
MAG, 443097939, 113, 354, 449, 0, 0, 0, 0, 0, 0, 1, 443097929
RFND, 443097976, 0.2, 25, 0, 0
BARO, 443098007, 0.1793981, 981.0072, 37.33, -0.23779, 443097, 0, 27.83
CTUN, 443098101, 0, 0, 0, 0.4253115, 0.08335283, 0.08335283, 0.17, 0, 0.19, 0, 0, 1
ATT, 443105391, 0, 0.27, 0, 0.48, 161.89, 161.9, 0, 1
RATE, 443105403, -1.229332, 0.2450463, -0.004860246, -2.159232, 1.078558, -0.01077019, 0.005134848, 1.085671, -0.000520371, -486.8808, 3.796101, 0
NKF1, 443105411, 0.27, 0.48, 161.9, -0.03543324, 0.01499653, -0.01202175, 0, 0, 0, -0.08330032, 0, -0.08, -0.01
NKF2, 443105411, 35, 0, 0, 0, 0, 0, 0, 0, 0, 0, 0, 0, 0
NKF3, 443105411, 0, 0, 0, -0.06, 0.02, -0.01, 0, 0, 0, 0, 0
NKF4, 443105411, 0, 0, 0, 0, 0, 2.722076E-06, 0, 0, 0, 19, 229, 0, 0
NKF5, 443105411, 0, 0, 0, 0, 0.21, 0.13, 0, 0.19, 0.5, 4.054349E-05, 0.0005927776, 0.0007575622
NKQ1, 443105411, 0.1572519, -0.01128505, -0.0004068236, 0.987494
AHR2, 443105457, 0.19, 0.54, 156.4, 0.17, 0, 0, 0.2044528, -0.004312207, 0.002677873, 0.9788633
MOTB, 443105463, 1, 1, 0, 1
RCIN, 443105468, 0, 0, 0, 0, 0, 0, 0, 0, 0, 0, 0, 0, 0, 0
RCOU, 443105473, 1228, 1238, 1221, 1247, 0, 0, 0, 0, 0, 0, 0, 0, 0, 0
VIBE, 443105481, 0.2748632, 0.246141, 0.3065333, 0, 0, 0
CTRL, 443105488, 0.003113936, 0.002469672, 0.005270828, 0.003390437, 0.0005487893
PRX, 443105519, 2, 0.63, 0, 0.7, 0, 0.65, 0, 2.36, 0, 0, 0, 0.63
IMU, 443113246, 0.0003218359, 0.01075386, -0.006275667, 0.2371379, 0.06961195, -9.512231, 0, 0, 39.19559, 1, 1, 999, 999
RFND, 443147826, 0.2, 25, 0, 0
IMU, 443153118, 0.006814077, 0.004620279, -0.01016889, 0.292702, 0.07782339, -9.437172, 0, 0, 39.19565, 1, 1, 999, 999
IMU, 443193278, -0.006950798, -0.01219955, -0.008507915, 0.1036832, 0.04353334, -9.467572, 0, 0, 39.19574, 1, 1, 999, 999
MAG, 443198000, 116, 358, 445, 0, 0, 0, 0, 0, 0, 1, 443197993
RFND, 443198114, 0.2, 25, 0, 0
BARO, 443198144, 0.3311965, 980.9902, 37.32, 0.0663903, 443198, 0, 27.83
CTUN, 443198157, 0, 0, 0, 0.4253115, 0.08332699, 0.08332699, 0.33, 0, 0.19, 0, 0, 1
ATT, 443205432, 0, 0.27, 0, 0.46, 161.87, 161.87, 0, 1
RATE, 443205444, -1.248269, 0.412425, -0.007065453, -2.114796, -0.4798469, -0.004226079, 0.005080981, -0.4498677, 0.0003664521, -416.6178, 5.534649, 0
NKF1, 443205452, 0.27, 0.46, 161.87, -0.03665907, 0.01526223, -0.01028686, 0, 0, 0, -0.08333016, 0, -0.08, -0.01
NKF2, 443205452, 35, 0, 0, 0, 0, 0, 0, 0, 0, 0, 0, 0, 0
NKF3, 443205452, 0, 0, 0, -0.06, 0.02, -0.01, 0, 0, 0, 0, 0
NKF4, 443205452, 0, 0, 0, 0, 0, 2.952908E-06, 0, 0, 0, 19, 229, 0, 0
NKF5, 443205452, 0, 0, 0, 0, 0.21, 0.13, 0, 0.19, 0.5, 3.976912E-05, 0.000801215, 0.001609017
NKQ1, 443205452, 0.1574434, -0.01117584, -0.0003600799, 0.9874647
AHR2, 443205497, 0.2, 0.53, 156.38, 0.33, 0, 0, 0.2046567, -0.004212798, 0.002725918, 0.9788209
MOTB, 443205505, 1, 1, 0, 1
RCIN, 443205509, 0, 0, 0, 0, 0, 0, 0, 0, 0, 0, 0, 0, 0, 0
RCOU, 443205514, 1234, 1229, 1221, 1240, 0, 0, 0, 0, 0, 0, 0, 0, 0, 0
VIBE, 443205523, 0.3371873, 0.2578857, 0.3079212, 0, 0, 0
CTRL, 443205530, 0.003059884, 0.002174607, 0.005263374, 0.00340632, 0.0004734141
PRX, 443205560, 2, 0.63, 0, 0.69, 0, 0.63, 0, 2.35, 0, 0, 0, 0.63
IMU, 443233420, 0.003114223, 0.008167889, 0.005760124, 0.07614394, -0.02342943, -9.451773, 0, 0, 39.19468, 1, 1, 999, 999
RFND, 443247816, 0.2, 25, 0, 0
IMU, 443273108, 0.01016077, -0.0001526042, -0.003364151, 0.3943846, 0.08896337, -9.488228, 0, 0, 39.19196, 1, 1, 999, 999
MAG, 443297929, 114, 358, 447, 0, 0, 0, 0, 0, 0, 1, 443297920
RFND, 443297966, 0.2, 25, 0, 0
BARO, 443297996, 0.383636, 980.9846, 37.32, 0.3184592, 443297, 0, 27.83
CTUN, 443298009, 0, 0, 0, 0.4253115, 0.08305106, 0.08305106, 0.38, 0, 0.19, 0, 0, 0
ATT, 443305427, 0, 0.27, 0, 0.48, 161.86, 161.87, 0, 1
RATE, 443305441, -1.240301, -0.3782079, 0.0005155716, -2.176735, -0.002728827, -0.004534738, 0.005180698, -0.2148781, 0.0001747429, -416.9789, 2.925205, 0
