FMT, 128, 89, FMT, BBnNZ, Type,Length,Name,Format,Columns
FMT, 129, 31, PARM, QNf, TimeUS,Name,Value
FMT, 130, 46, GPS, QBIHBcLLefffB, TimeUS,Status,GMS,GWk,NSats,HDop,Lat,Lng,Alt,Spd,GCrs,VZ,U
FMT, 131, 46, GPS2, QBIHBcLLefffB, TimeUS,Status,GMS,GWk,NSats,HDop,Lat,Lng,Alt,Spd,GCrs,VZ,U
FMT, 132, 46, GPSB, QBIHBcLLefffB, TimeUS,Status,GMS,GWk,NSats,HDop,Lat,Lng,Alt,Spd,GCrs,VZ,U
FMT, 193, 24, GPA, QCCCCBI, TimeUS,VDop,HAcc,VAcc,SAcc,VV,SMS
FMT, 194, 24, GPA2, QCCCCBI, TimeUS,VDop,HAcc,VAcc,SAcc,VV,SMS
FMT, 195, 24, GPAB, QCCCCBI, TimeUS,VDop,HAcc,VAcc,SAcc,VV,SMS
FMT, 133, 53, IMU, QffffffIIfBBHH, TimeUS,GyrX,GyrY,GyrZ,AccX,AccY,AccZ,EG,EA,T,GH,AH,GHz,AHz
FMT, 134, 75, MSG, QZ, TimeUS,Message
FMT, 135, 39, RCIN, QHHHHHHHHHHHHHH, TimeUS,C1,C2,C3,C4,C5,C6,C7,C8,C9,C10,C11,C12,C13,C14
FMT, 136, 39, RCOU, QHHHHHHHHHHHHHH, TimeUS,C1,C2,C3,C4,C5,C6,C7,C8,C9,C10,C11,C12,C13,C14
FMT, 137, 15, RSSI, Qf, TimeUS,RXRSSI
FMT, 139, 37, BARO, QffcfIff, TimeUS,Alt,Press,Temp,CRt,SMS,Offset,GndTemp
FMT, 140, 22, POWR, QffHB, TimeUS,Vcc,VServo,Flags,Safety
FMT, 143, 45, CMD, QHHHfffffff, TimeUS,CTot,CNum,CId,Prm1,Prm2,Prm3,Prm4,Lat,Lng,Alt
FMT, 144, 20, RAD, QBBBBBHH, TimeUS,RSSI,RemRSSI,TxBuf,Noise,RemNoise,RxErrors,Fixed
FMT, 146, 43, CAM, QIHLLeeeccC, TimeUS,GPSTime,GPSWeek,Lat,Lng,Alt,RelAlt,GPSAlt,Roll,Pitch,Yaw
FMT, 232, 43, TRIG, QIHLLeeeccC, TimeUS,GPSTime,GPSWeek,Lat,Lng,Alt,RelAlt,GPSAlt,Roll,Pitch,Yaw
FMT, 162, 30, ARSP, QffcffB, TimeUS,Airspeed,DiffPress,Temp,RawPress,Offset,U
FMT, 164, 45, CURR, QfffcHHHHHHHHHH, TimeUS,Volt,Curr,CurrTot,Temp,V1,V2,V3,V4,V5,V6,V7,V8,V9,V10
FMT, 165, 45, CUR2, QfffcHHHHHHHHHH, TimeUS,Volt,Curr,CurrTot,Temp,V1,V2,V3,V4,V5,V6,V7,V8,V9,V10
FMT, 163, 27, ATT, QccccCCCC, TimeUS,DesRoll,Roll,DesPitch,Pitch,DesYaw,Yaw,ErrRP,ErrYaw
FMT, 166, 34, MAG, QhhhhhhhhhBI, TimeUS,MagX,MagY,MagZ,OfsX,OfsY,OfsZ,MOfsX,MOfsY,MOfsZ,Health,S
FMT, 169, 14, MODE, QMBB, TimeUS,Mode,ModeNum,Rsn
FMT, 196, 17, RFND, QCBCB, TimeUS,Dist1,Orient1,Dist2,Orient2
FMT, 223, 33, DMS, IIIIIBBBBBBBBBB, TimeMS,N,Dp,RT,RS,Er,Fa,Fmn,Fmx,Pa,Pmn,Pmx,Sa,Smn,Smx
FMT, 240, 41, BCN, QBBfffffff, TimeUS,Health,Cnt,D0,D1,D2,D3,PosX,PosY,PosZ
FMT, 138, 53, IMU2, QffffffIIfBBHH, TimeUS,GyrX,GyrY,GyrZ,AccX,AccY,AccZ,EG,EA,T,GH,AH,GHz,AHz
FMT, 147, 53, IMU3, QffffffIIfBBHH, TimeUS,GyrX,GyrY,GyrZ,AccX,AccY,AccZ,EG,EA,T,GH,AH,GHz,AHz
FMT, 141, 45, AHR2, QccCfLLffff, TimeUS,Roll,Pitch,Yaw,Alt,Lat,Lng,Q1,Q2,Q3,Q4
FMT, 180, 31, POS, QLLfff, TimeUS,Lat,Lng,Alt,RelHomeAlt,RelOriginAlt
FMT, 142, 45, SIM, QccCfLLffff, TimeUS,Roll,Pitch,Yaw,Alt,Lat,Lng,Q1,Q2,Q3,Q4
FMT, 198, 51, NKF1, QccCfffffffccc, TimeUS,Roll,Pitch,Yaw,VN,VE,VD,dPD,PN,PE,PD,GX,GY,GZ
FMT, 199, 35, NKF2, QbccccchhhhhhB, TimeUS,AZbias,GSX,GSY,GSZ,VWN,VWE,MN,ME,MD,MX,MY,MZ,MI
FMT, 200, 33, NKF3, Qcccccchhhcc, TimeUS,IVN,IVE,IVD,IPN,IPE,IPD,IMX,IMY,IMZ,IYAW,IVT
FMT, 201, 35, NKF4, QcccccfbbHBHHb, TimeUS,SV,SP,SH,SM,SVT,errRP,OFN,OFE,FS,TS,SS,GPS,PI
FMT, 202, 40, NKF5, QBhhhcccCCfff, TimeUS,NI,FIX,FIY,AFI,HAGL,offset,RI,rng,Herr,eAng,eVel,ePos
FMT, 203, 51, NKF6, QccCfffffffccc, TimeUS,Roll,Pitch,Yaw,VN,VE,VD,dPD,PN,PE,PD,GX,GY,GZ
FMT, 204, 35, NKF7, QbccccchhhhhhB, TimeUS,AZbias,GSX,GSY,GSZ,VWN,VWE,MN,ME,MD,MX,MY,MZ,MI
FMT, 205, 33, NKF8, Qcccccchhhcc, TimeUS,IVN,IVE,IVD,IPN,IPE,IPD,IMX,IMY,IMZ,IYAW,IVT
FMT, 206, 35, NKF9, QcccccfbbHBHHb, TimeUS,SV,SP,SH,SM,SVT,errRP,OFN,OFE,FS,TS,SS,GPS,PI
FMT, 207, 36, NKF0, QBccCCcccccccc, TimeUS,ID,rng,innov,SIV,TR,BPN,BPE,BPD,OFH,OFL,OFN,OFE,OFD
FMT, 208, 27, NKQ1, Qffff, TimeUS,Q1,Q2,Q3,Q4
FMT, 209, 27, NKQ2, Qffff, TimeUS,Q1,Q2,Q3,Q4
FMT, 210, 51, XKF1, QccCfffffffccc, TimeUS,Roll,Pitch,Yaw,VN,VE,VD,dPD,PN,PE,PD,GX,GY,GZ
FMT, 211, 34, XKF2, QccccchhhhhhB, TimeUS,AX,AY,AZ,VWN,VWE,MN,ME,MD,MX,MY,MZ,MI
FMT, 212, 33, XKF3, Qcccccchhhcc, TimeUS,IVN,IVE,IVD,IPN,IPE,IPD,IMX,IMY,IMZ,IYAW,IVT
FMT, 213, 35, XKF4, QcccccfbbHBHHb, TimeUS,SV,SP,SH,SM,SVT,errRP,OFN,OFE,FS,TS,SS,GPS,PI
FMT, 214, 40, XKF5, QBhhhcccCCfff, TimeUS,NI,FIX,FIY,AFI,HAGL,offset,RI,rng,Herr,eAng,eVel,ePos
FMT, 215, 51, XKF6, QccCfffffffccc, TimeUS,Roll,Pitch,Yaw,VN,VE,VD,dPD,PN,PE,PD,GX,GY,GZ
FMT, 216, 34, XKF7, QccccchhhhhhB, TimeUS,AX,AY,AZ,VWN,VWE,MN,ME,MD,MX,MY,MZ,MI
FMT, 217, 33, XKF8, Qcccccchhhcc, TimeUS,IVN,IVE,IVD,IPN,IPE,IPD,IMX,IMY,IMZ,IYAW,IVT
FMT, 218, 35, XKF9, QcccccfbbHBHHb, TimeUS,SV,SP,SH,SM,SVT,errRP,OFN,OFE,FS,TS,SS,GPS,PI
FMT, 219, 36, XKF0, QBccCCcccccccc, TimeUS,ID,rng,innov,SIV,TR,BPN,BPE,BPD,OFH,OFL,OFN,OFE,OFD
FMT, 220, 27, XKQ1, Qffff, TimeUS,Q1,Q2,Q3,Q4
FMT, 221, 27, XKQ2, Qffff, TimeUS,Q1,Q2,Q3,Q4
FMT, 222, 35, XKFD, Qffffff, TimeUS,IX,IY,IZ,IVX,IVY,IVZ
FMT, 148, 34, TERR, QBLLHffHH, TimeUS,Status,Lat,Lng,Spacing,TerrH,CHeight,Pending,Loaded
FMT, 149, 18, UBX1, QBHBBH, TimeUS,Instance,noisePerMS,jamInd,aPower,agcCnt
FMT, 150, 16, UBX2, QBbBbB, TimeUS,Instance,ofsI,magI,ofsQ,magQ
FMT, 151, 18, UBY1, QBHBBH, TimeUS,Instance,noisePerMS,jamInd,aPower,agcCnt
FMT, 152, 16, UBY2, QBbBbB, TimeUS,Instance,ofsI,magI,ofsQ,magQ
FMT, 170, 42, GRAW, QIHBBddfBbB, TimeUS,WkMS,Week,numSV,sv,cpMes,prMes,doMes,mesQI,cno,lli
FMT, 171, 24, GRXH, QdHbBB, TimeUS,rcvTime,week,leapS,numMeas,recStat
FMT, 172, 41, GRXS, QddfBBBHBBBBB, TimeUS,prMes,cpMes,doMes,gnss,sv,freq,lock,cno,prD,cpD,doD,trk
FMT, 173, 63, SBFE, QIHBBdddfffff, TimeUS,TOW,WN,Mode,Err,Lat,Lng,Height,Undul,Vn,Ve,Vu,COG
FMT, 153, 19, ESC1, Qcccc, TimeUS,RPM,Volt,Curr,Temp
FMT, 154, 19, ESC2, Qcccc, TimeUS,RPM,Volt,Curr,Temp
FMT, 155, 19, ESC3, Qcccc, TimeUS,RPM,Volt,Curr,Temp
FMT, 156, 19, ESC4, Qcccc, TimeUS,RPM,Volt,Curr,Temp
FMT, 157, 19, ESC5, Qcccc, TimeUS,RPM,Volt,Curr,Temp
FMT, 158, 19, ESC6, Qcccc, TimeUS,RPM,Volt,Curr,Temp
FMT, 159, 19, ESC7, Qcccc, TimeUS,RPM,Volt,Curr,Temp
FMT, 160, 19, ESC8, Qcccc, TimeUS,RPM,Volt,Curr,Temp
FMT, 167, 34, MAG2, QhhhhhhhhhBI, TimeUS,MagX,MagY,MagZ,OfsX,OfsY,OfsZ,MOfsX,MOfsY,MOfsZ,Health,S
FMT, 168, 34, MAG3, QhhhhhhhhhBI, TimeUS,MagX,MagY,MagZ,OfsX,OfsY,OfsZ,MOfsX,MOfsY,MOfsZ,Health,S
FMT, 174, 31, ACC1, QQfff, TimeUS,SampleUS,AccX,AccY,AccZ
FMT, 175, 31, ACC2, QQfff, TimeUS,SampleUS,AccX,AccY,AccZ
FMT, 176, 31, ACC3, QQfff, TimeUS,SampleUS,AccX,AccY,AccZ
FMT, 177, 31, GYR1, QQfff, TimeUS,SampleUS,GyrX,GyrY,GyrZ
FMT, 178, 31, GYR2, QQfff, TimeUS,SampleUS,GyrX,GyrY,GyrZ
FMT, 179, 31, GYR3, QQfff, TimeUS,SampleUS,GyrX,GyrY,GyrZ
FMT, 181, 35, PIDR, Qffffff, TimeUS,Des,P,I,D,FF,AFF
FMT, 182, 35, PIDP, Qffffff, TimeUS,Des,P,I,D,FF,AFF
FMT, 183, 35, PIDY, Qffffff, TimeUS,Des,P,I,D,FF,AFF
FMT, 184, 35, PIDA, Qffffff, TimeUS,Des,P,I,D,FF,AFF
FMT, 185, 35, PIDS, Qffffff, TimeUS,Des,P,I,D,FF,AFF
FMT, 186, 35, PIDL, Qffffff, TimeUS,Des,P,I,D,FF,AFF
FMT, 161, 37, BAR2, QffcfIff, TimeUS,Alt,Press,Temp,CRt,SMS,Offset,GndTemp
FMT, 197, 37, BAR3, QffcfIff, TimeUS,Alt,Press,Temp,CRt,SMS,Offset,GndTemp
FMT, 187, 35, VIBE, QfffIII, TimeUS,VibeX,VibeY,VibeZ,Clip0,Clip1,Clip2
FMT, 188, 47, IMT, Qfffffffff, TimeUS,DelT,DelvT,DelaT,DelAX,DelAY,DelAZ,DelVX,DelVY,DelVZ
FMT, 189, 47, IMT2, Qfffffffff, TimeUS,DelT,DelvT,DelaT,DelAX,DelAY,DelAZ,DelVX,DelVY,DelVZ
FMT, 190, 47, IMT3, Qfffffffff, TimeUS,DelT,DelvT,DelaT,DelAX,DelAY,DelAZ,DelVX,DelVY,DelVZ
FMT, 191, 24, ORGN, QBLLe, TimeUS,Type,Lat,Lng,Alt
FMT, 192, 19, RPM, Qff, TimeUS,rpm1,rpm2
FMT, 233, 47, GMB1, Iffffffffff, TimeMS,dt,dax,day,daz,dvx,dvy,dvz,jx,jy,jz
FMT, 234, 44, GMB2, IBfffffffff, TimeMS,es,ex,ey,ez,rx,ry,rz,tx,ty,tz
FMT, 235, 13, GMB3, Ihhh, TimeMS,rl_torque_cmd,el_torque_cmd,az_torque_cmd
FMT, 236, 59, RATE, Qffffffffffff, TimeUS,RDes,R,ROut,PDes,P,POut,YDes,Y,YOut,ADes,A,AOut
FMT, 237, 23, RALY, QBBLLh, TimeUS,Tot,Seq,Lat,Lng,Alt
FMT, 238, 43, VISO, Qffffffff, TimeUS,dt,AngDX,AngDY,AngDZ,PosDX,PosDY,PosDZ,conf
FMT, 224, 23, SBPH, QIII, TimeUS,CrcError,LastInject,IARhyp
FMT, 229, 80, SBR1, QHHBZ, TimeUS,msg_type,sender_id,msg_len,d1
FMT, 230, 205, SBR2, QHZZZ, TimeUS,msg_type,d2,d3,d4
FMT, 25, 41, ATUN, QBBfffffff, TimeUS,Axis,TuneStep,Targ,Min,Max,RP,RD,SP,ddt
FMT, 26, 19, ATDE, Qff, TimeUS,Angle,Rate
FMT, 31, 22, PTUN, QBfHHH, TimeUS,Param,TunVal,CtrlIn,TunLo,TunHi
FMT, 12, 28, OF, QBffff, TimeUS,Qual,flowX,flowY,bodyX,bodyY
FMT, 5, 51, NTUN, Qffffffffff, TimeUS,DPosX,DPosY,PosX,PosY,DVelX,DVelY,VelX,VelY,DAccX,DAccY
FMT, 4, 51, CTUN, Qffffffeccfhh, TimeUS,ThI,ABst,ThO,ThH,DAlt,Alt,BAlt,DSAlt,SAlt,TAlt,DCRt,CRt
FMT, 6, 32, PM, QHHIhBHII, TimeUS,NLon,NLoop,MaxT,PMT,I2CErr,INSErr,LogDrop,Mem
FMT, 30, 27, MOTB, Qffff, TimeUS,LiftMax,BatVolt,BatRes,ThLimit
FMT, 13, 12, EV, QB, TimeUS,Id
FMT, 20, 14, D16, QBh, TimeUS,Id,Value
FMT, 21, 14, DU16, QBH, TimeUS,Id,Value
FMT, 22, 16, D32, QBi, TimeUS,Id,Value
FMT, 23, 16, DU32, QBI, TimeUS,Id,Value
FMT, 24, 16, DFLT, QBf, TimeUS,Id,Value
FMT, 19, 13, ERR, QBB, TimeUS,Subsys,ECode
FMT, 32, 19, HELI, Qff, TimeUS,DRRPM,ERRPM
FMT, 33, 29, PL, QBBffff, TimeUS,Heal,TAcq,pX,pY,vX,vY
FMT, 34, 36, GUID, QBffffff, TimeUS,Type,pX,pY,pZ,vX,vY,vZ
FMT, 35, 32, THRO, QBffffbbbb, TimeUS,Stage,Vel,VelZ,Acc,AccEfZ,Throw,AttOk,HgtOk,PosOk
FMT, 36, 56, PRX, QBfffffffffff, TimeUS,Health,D0,D45,D90,D135,D180,D225,D270,D315,DUp,CAn,CDis
MODE, 312413447, 100, 100, 2
EV, 312425303, 15
FMT, 254, 47, NKT1, QIffffffff, TimeUS,Cnt,IMUMin,IMUMax,EKFMin,EKFMax,AngMin,AngMax,VelMin,VelM
FMT, 253, 31, CTRL, Qfffff, TimeUS,RMSRollP,RMSRollD,RMSPitchP,RMSPitchD,RMSYaw
IMU, 312504983, -0.0007054823, 0.0009325171, -0.001386469, 0.1266242, -0.05839992, -10.08505, 0, 0, 35.74108, 1, 1, 1000, 1000
RFND, 312536277, 0.2, 25, 0, 0
MSG, 312565586, APM:Copter V3.5.7 (48b6d6f2)
MSG, 312565590, New mission
MSG, 312565600, Frame: QUAD
MODE, 312565604, Autonomous, 100, 2
MAG, 312585215, 224, 647, 229, 0, 0, 0, 0, 0, 0, 1, 312585206
IMU, 312585265, -0.000473598, 0.001555822, -3.818151E-05, 0.1399724, -0.06691513, -10.0997, 0, 0, 35.74127, 1, 1, 1000, 1000
RFND, 312587788, 0.2, 25, 0, 0
BARO, 312587823, -0.2980868, 981.0139, 34.42, 0.6387252, 312587, 0, 27.84
CTUN, 312587836, 0, 0, 0, 0.411675, 0.7895615, 0.7895615, -0.29, 0, 0.19, 0, 0, -2
ATT, 312590521, 0, 0.81, 0, -0.03, 189.77, 189.79, 0, 1
RATE, 312590531, -3.645802, -0.02774351, -0.0084504, 0.1437812, 0.02883369, 0.000349727, 0.0007011198, -0.08249343, 0.0002528914, 1006.386, 1.214409, 0
NKF1, 312590539, 0.81, -0.03, 189.78, -0.04246759, -0.01241495, 0.02484904, 0, 0, 0, -0.7894869, 0, 0.03, 0.04
NKF2, 312590539, -29, 0, 0, 0, 0, 0, 0, 0, 0, 0, 0, 0, 0
NKF3, 312590539, 0, 0, 0, -0.05, 0, 0.03, 0, 0, 0, 0, 0
NKF4, 312590539, 0, 0, 0.01, 0, 0, 8.635061E-05, 0, 0, 0, 19, 229, 0, 0
NKF5, 312590539, 0, 0, 0, 0, 0.16, -0.62, 0, 0.19, 0.5, 0.0002251001, 0.009242699, 0.0193013
NKQ1, 312590539, 0.08524872, 0.006793895, -0.001954747, -0.9963347
AHR2, 312590583, 0.87, -0.1, 203.59, -0.29, 0, 0, -0.2044523, -0.0006493659, 0.007699819, 0.9788461
MOTB, 312590591, 1, 1, 0, 1
RCIN, 312590595, 0, 0, 0, 0, 0, 0, 0, 0, 0, 0, 0, 0, 0, 0
RCOU, 312590600, 1101, 1101, 1101, 1101, 0, 0, 0, 0, 0, 0, 0, 0, 0, 0
VIBE, 312590609, 0.01941925, 0.02163352, 0.03513976, 0, 0, 0
CTRL, 312590616, 0.00857112, 0.0001644016, 0.0004872201, 0.0001380039, 0.0002869828
PRX, 312590647, 2, 0.57, 0, 0.58, 0, 3.6, 0, 2.46, 0, 0, 0, 0.57
IMU, 312625293, -0.0002291932, 0.001063686, -0.0001854512, 0.1281406, -0.0591337, -10.10811, 0, 0, 35.74258, 1, 1, 1000, 1000
RFND, 312637635, 0.2, 25, 0, 0
IMU, 312665405, -9.957469E-06, 5.747951E-05, -0.000367161, 0.1340754, -0.0590524, -10.10722, 0, 0, 35.74354, 1, 1, 1000, 1000
MAG, 312685444, 234, 645, 223, 0, 0, 0, 0, 0, 0, 1, 312685436
RFND, 312687751, 0.2, 25, 0, 0
BARO, 312687786, -0.3146471, 981.0161, 34.42, 0.5650328, 312687, 0, 27.84
CTUN, 312687799, 0, 0, 0, 0.411675, 0.7899712, 0.7899712, -0.31, 0, 0.19, 0, 0, -2
ATT, 312690440, 0, 0.8, 0, -0.02, 189.76, 189.78, 0, 1
RATE, 312690451, -3.642215, -0.02179674, -0.008298854, 0.1230648, 0.05847365, -0.0003087188, 0.0006592627, -0.02389495, 0.0002026472, 970.6491, -0.942421, 0
NKF1, 312690458, 0.8, -0.02, 189.77, -0.04118322, -0.01113272, 0.02396664, 0, 0, 0, -0.7898753, 0, 0.03, 0.04
NKF2, 312690458, -29, 0, 0, 0, 0, 0, 0, 0, 0, 0, 0, 0, 0
NKF3, 312690458, 0, 0, 0, -0.06, 0, 0.03, 0, 0, 0, 0, 0
NKF4, 312690458, 0, 0, 0.01, 0, 0, 5.626335E-05, 0, 0, 0, 19, 229, 0, 0
NKF5, 312690458, 0, 0, 0, 0, 0.17, -0.62, 0, 0.19, 0.5, 0.0001491443, 0.008830831, 0.01834654
NKQ1, 312690458, 0.0852031, 0.0068348, -0.001943669, -0.9963382
AHR2, 312690501, 0.88, -0.1, 203.59, -0.31, 0, 0, -0.2044599, -0.000667355, 0.007725811, 0.9788442
MOTB, 312690509, 1, 1, 0, 1
RCIN, 312690513, 0, 0, 0, 0, 0, 0, 0, 0, 0, 0, 0, 0, 0, 0
RCOU, 312690518, 1101, 1101, 1101, 1101, 0, 0, 0, 0, 0, 0, 0, 0, 0, 0
VIBE, 312690527, 0.01943493, 0.02014727, 0.03590851, 0, 0, 0
CTRL, 312690534, 0.008570361, 0.0001532218, 0.0004322905, 0.000149379, 0.0002691295
PRX, 312690565, 2, 0.58, 0, 0.58, 0, 3.6, 0, 2.46, 0, 0, 0, 0.58
IMU, 312705506, -0.001159032, 0.001542022, -0.0001119778, 0.136195, -0.05091618, -10.09483, 0, 0, 35.74417, 1, 1, 1000, 1000
RFND, 312737739, 0.2, 25, 0, 0
IMU, 312745305, 0.001111175, 0.0002395451, -0.001791533, 0.1324276, -0.05777886, -10.0998, 0, 0, 35.74454, 1, 1, 1000, 1000
MAG, 312785669, 231, 652, 224, 0, 0, 0, 0, 0, 0, 1, 312785661
IMU, 312785819, -0.001187326, 0.0003157192, -0.002357323, 0.1393228, -0.07330395, -10.10946, 0, 0, 35.74501, 1, 1, 1000, 1000
RFND, 312787749, 0.2, 25, 0, 0
BARO, 312787785, -0.353288, 981.0199, 34.42, 0.2542149, 312787, 0, 27.84
CTUN, 312787798, 0, 0, 0, 0.411675, 0.790256, 0.790256, -0.35, 0, 0.19, 0, 0, -2
ATT, 312790342, 0, 0.8, 0, -0.02, 189.75, 189.77, 0, 1
RATE, 312790352, -3.643843, -0.06447115, -0.008307638, 0.1059867, 0.01119934, 0.0001624771, -4.334592E-05, -0.1614272, 0.0003573235, 938.3573, 0.4703522, 0
NKF1, 312790360, 0.8, -0.02, 189.76, -0.04017397, -0.009723641, 0.02316931, 0, 0, 0, -0.7902098, 0, 0.03, 0.04
NKF2, 312790360, -30, 0, 0, 0, 0, 0, 0, 0, 0, 0, 0, 0, 0
NKF3, 312790360, 0, 0, 0, -0.06, 0, 0.03, 0, 0, 0, 0, 0
NKF4, 312790360, 0, 0, 0.01, 0, 0, 3.770746E-05, 0, 0, 0, 19, 229, 0, 0
NKF5, 312790360, 0, 0, 0, 0, 0.16, -0.62, 0, 0.19, 0.5, 9.187436E-05, 0.008374372, 0.01753643
NKQ1, 312790360, 0.08509739, 0.006864079, -0.001944744, -0.9963471
AHR2, 312790402, 0.88, -0.1, 203.58, -0.35, 0, 0, -0.2044077, -0.00068583, 0.00776386, 0.9788548
MOTB, 312790410, 1, 1, 0, 1
RCIN, 312790414, 0, 0, 0, 0, 0, 0, 0, 0, 0, 0, 0, 0, 0, 0
RCOU, 312790420, 1101, 1101, 1101, 1101, 0, 0, 0, 0, 0, 0, 0, 0, 0, 0
VIBE, 312790428, 0.01998028, 0.02159557, 0.03365961, 0, 0, 0
CTRL, 312790435, 0.008572276, 0.0001766879, 0.0003776404, 0.0001784156, 0.0002654826
PRX, 312790466, 2, 0.57, 0, 0.59, 0, 3.6, 0, 2.49, 0, 0, 0, 0.57
IMU, 312825336, 0.0008455879, 0.001653407, -0.0007336017, 0.1209905, -0.05155096, -10.07724, 0, 0, 35.74574, 1, 1, 1000, 1000
RFND, 312837741, 0.2, 25, 0, 0
IMU, 312865319, 0.00130656, 0.0009598662, 1.784747E-05, 0.1405075, -0.05719468, -10.09135, 0, 0, 35.74514, 1, 1, 1000, 1000
MAG, 312885245, 229, 651, 218, 0, 0, 0, 0, 0, 0, 1, 312885237
RFND, 312887784, 0.2, 25, 0, 0
BARO, 312887822, -0.2925667, 981.0134, 34.43, -0.02048341, 312887, 0, 27.84
CTUN, 312887836, 0, 0, 0, 0.411675, 0.7911261, 0.7911261, -0.29, 0, 0.19, 0, 0, -2
ATT, 312890347, 0, 0.81, 0, -0.01, 189.74, 189.76, 0, 1
RATE, 312890359, -3.651005, -0.02030792, -0.008254462, 0.08093002, 0.07915973, -6.234192E-05, 0.002438897, -0.1469939, 0.0002792527, 943.0499, -0.4449844, 0
NKF1, 312890366, 0.81, -0.01, 189.75, -0.03918749, -0.008652478, 0.02328518, 0, 0, 0, -0.7910332, 0, 0.03, 0.04
NKF2, 312890366, -30, 0, 0, 0, 0, 0, 0, 0, 0, 0, 0, 0, 0
NKF3, 312890366, 0, 0, 0, -0.06, 0, 0.03, 0, 0, 0, 0, 0
NKF4, 312890366, 0, 0, 0.01, 0, 0, 2.535333E-05, 0, 0, 0, 19, 229, 0, 0
NKF5, 312890366, 0, 0, 0, 0, 0.17, -0.62, 0, 0.19, 0.5, 5.473016E-05, 0.00814665, 0.01707171
NKQ1, 312890366, 0.08502518, 0.006913938, -0.001955316, -0.996353
AHR2, 312890410, 0.89, -0.1, 203.58, -0.29, 0, 0, -0.2043889, -0.0007316828, 0.007808652, 0.9788584
MOTB, 312890417, 1, 1, 0, 1
RCIN, 312890421, 0, 0, 0, 0, 0, 0, 0, 0, 0, 0, 0, 0, 0, 0
RCOU, 312890427, 1101, 1101, 1101, 1101, 0, 0, 0, 0, 0, 0, 0, 0, 0, 0
VIBE, 312890435, 0.0196347, 0.02098586, 0.03312269, 0, 0, 0
CTRL, 312890442, 0.008597629, 0.0001913215, 0.000319153, 0.000185281, 0.0002749891
PRX, 312890473, 2, 0.58, 0, 0.59, 0, 3.6, 0, 2.47, 0, 0, 0, 0.58
IMU, 312905458, -0.001166601, 0.001213229, -0.002063228, 0.1432586, -0.06447138, -10.09023, 0, 0, 35.74499, 1, 1, 1000, 1000
RFND, 312937731, 0.2, 25, 0, 0
IMU, 312945309, 0.0003244277, 0.002548579, -9.990476E-05, 0.1195542, -0.05006668, -10.09307, 0, 0, 35.74508, 1, 1, 1000, 1000
MAG, 312985269, 231, 650, 226, 0, 0, 0, 0, 0, 0, 1, 312985261
IMU, 312985319, 4.078263E-05, 0.001748578, -0.0008459007, 0.1361186, -0.05317869, -10.1146, 0, 0, 35.74501, 1, 1, 1000, 1000
RFND, 312987741, 0.2, 25, 0, 0
BARO, 312987777, -0.2925667, 981.0134, 34.43, -0.0760547, 312987, 0, 27.84
CTUN, 312987790, 0, 0, 0, 0.411675, 0.7913047, 0.7913047, -0.29, 0, 0.19, 0, 0, -2
ATT, 312990303, 0, 0.81, 0, -0.01, 189.73, 189.75, 0, 1
RATE, 312990315, -3.646086, -0.001588171, -0.008633512, 0.05344909, 0.04530852, 7.807229E-05, 0.003591862, -0.1287649, 0.0002769403, 919.9973, 0.5570412, 0
NKF1, 312990323, 0.81, -0.01, 189.74, -0.03868815, -0.007874711, 0.02271598, 0, 0, 0, -0.7912139, 0, 0.03, 0.04
NKF2, 312990323, -30, 0, 0, 0, 0, 0, 0, 0, 0, 0, 0, 0, 0
NKF3, 312990323, 0, 0, 0, -0.07, 0, 0.03, 0, 0, 0, 0, 0
NKF4, 312990323, 0, 0, 0.01, 0, 0, 1.720041E-05, 0, 0, 0, 19, 229, 0, 0
NKF5, 312990323, 0, 0, 0, 0, 0.17, -0.62, 0, 0.19, 0.5, 3.858565E-05, 0.007987138, 0.01685526
NKQ1, 312990323, 0.08494166, 0.006966492, -0.001940811, -0.9963597
AHR2, 312990365, 0.89, -0.09, 203.58, -0.29, 0, 0, -0.2043588, -0.0007762797, 0.007825732, 0.9788645
MOTB, 312990373, 1, 1, 0, 1
RCIN, 312990378, 0, 0, 0, 0, 0, 0, 0, 0, 0, 0, 0, 0, 0, 0
RCOU, 312990383, 1101, 1101, 1101, 1101, 0, 0, 0, 0, 0, 0, 0, 0, 0, 0
VIBE, 312990391, 0.02045791, 0.02258296, 0.03292907, 0, 0, 0
CTRL, 312990398, 0.008579934, 0.000180857, 0.0002665001, 0.0001869237, 0.000285462
PRX, 312990429, 2, 0.57, 0, 0.58, 0, 3.6, 0, 2.47, 0, 0, 0, 0.57
IMU, 313025838, -0.0004674915, 0.001080798, -0.00157379, 0.1284636, -0.0581376, -10.10857, 0, 0, 35.74503, 1, 1, 1000, 1000
RFND, 313038453, 0.2, 25, 0, 0
IMU, 313066524, -0.001543695, -0.0001150255, -0.001170238, 0.1191895, -0.06311537, -10.1163, 0, 0, 35.74506, 1, 1, 1000, 1000
MAG, 313085679, 229, 651, 230, 0, 0, 0, 0, 0, 0, 1, 313085671
RFND, 313088142, 0.2, 25, 0, 0
BARO, 313088175, -0.3588082, 981.0211, 34.43, 0.02076918, 313088, 0, 27.84
CTUN, 313088188, 0, 0, 0, 0.411675, 0.7919927, 0.7919927, -0.35, 0, 0.19, 0, 0, -2
ATT, 313090726, 0, 0.8, 0, -0.01, 189.72, 189.74, 0, 1
RATE, 313090736, -3.626519, -0.0194039, -0.008723021, 0.05055691, 0.03352175, 3.707996E-05, 0.001654988, -0.09924983, 0.0003749233, 909.038, -1.719856, 0
NKF1, 313090743, 0.8, -0.01, 189.73, -0.0381884, -0.006605791, 0.02244538, 0, 0, 0, -0.7919478, 0, 0.03, 0.04
NKF2, 313090743, -30, 0, 0, 0, 0, 0, 0, 0, 0, 0, 0, 0, 0
NKF3, 313090743, 0, 0, 0, -0.07, 0, 0.03, 0, 0, 0, 0, 0
NKF4, 313090743, 0, 0, 0.01, 0, 0, 1.180774E-05, 0, 0, 0, 19, 229, 0, 0
NKF5, 313090743, 0, 0, 0, 0, 0.17, -0.62, 0, 0.19, 0.5, 3.717558E-05, 0.007671749, 0.01616995
NKQ1, 313090743, 0.08483922, 0.006969488, -0.001903175, -0.9963685
AHR2, 313090808, 0.89, -0.09, 203.57, -0.35, 0, 0, -0.2043104, -0.0007707946, 0.007825669, 0.9788746
MOTB, 313090816, 1, 1, 0, 1
RCIN, 313090821, 0, 0, 0, 0, 0, 0, 0, 0, 0, 0, 0, 0, 0, 0
RCOU, 313090827, 1101, 1101, 1101, 1101, 0, 0, 0, 0, 0, 0, 0, 0, 0, 0
VIBE, 313090836, 0.02067064, 0.02055834, 0.03432949, 0, 0, 0
CTRL, 313090842, 0.008538225, 0.0001664715, 0.0002339559, 0.0001882207, 0.0003040055
PRX, 313090933, 2, 0.58, 0, 0.58, 0, 3.6, 0, 2.47, 0, 0, 0, 0.58
IMU, 313105816, -0.0002235237, 0.0005609602, -0.001202676, 0.1300223, -0.06323616, -10.09447, 0, 0, 35.74529, 1, 1, 1000, 1000
RFND, 313138160, 0.2, 25, 0, 0
IMU, 313145653, 0.0003858799, 0.001265977, -0.001470611, 0.1294155, -0.05434233, -10.10919, 0, 0, 35.74677, 1, 1, 1000, 1000
MAG, 313185685, 232, 650, 221, 0, 0, 0, 0, 0, 0, 1, 313185677
IMU, 313185730, -0.0001028917, 0.0001525447, -0.001536999, 0.141387, -0.06224322, -10.13232, 0, 0, 35.74851, 1, 1, 1000, 1000
RFND, 313188174, 0.2, 25, 0, 0
BARO, 313188207, -0.309127, 981.015, 34.43, 0.03636917, 313188, 0, 27.84
CTUN, 313188220, 0, 0, 0, 0.411675, 0.7923086, 0.7923086, -0.3, 0, 0.19, 0, 0, -2
ATT, 313190697, 0, 0.8, 0, -0.01, 189.71, 189.73, 0, 1
RATE, 313190705, -3.622129, -0.02334373, -0.008398249, 0.05194011, -0.03249171, 0.0003237517, -0.001305535, -0.1053107, 0.0003781134, 855.2167, 2.139568, 0
NKF1, 313190712, 0.8, -0.01, 189.72, -0.0380227, -0.005062241, 0.02111646, 0, 0, 0, -0.7922664, 0, 0.03, 0.04
NKF2, 313190712, -30, 0, 0, 0, 0, 0, 0, 0, 0, 0, 0, 0, 0
NKF3, 313190712, 0, 0, 0, -0.08, 0, 0.03, 0, 0, 0, 0, 0
NKF4, 313190712, 0, 0, 0.01, 0, 0, 8.22535E-06, 0, 0, 0, 19, 229, 0, 0
NKF5, 313190712, 0, 0, 0, 0, 0.17, -0.62, 0, 0.19, 0.5, 3.93026E-05, 0.007463042, 0.01579828
NKQ1, 313190712, 0.08474263, 0.006965808, -0.001896428, -0.9963768
AHR2, 313190754, 0.89, -0.09, 203.57, -0.3, 0, 0, -0.2042675, -0.0007634461, 0.007854838, 0.9788833
MOTB, 313190761, 1, 1, 0, 1
RCIN, 313190790, 0, 0, 0, 0, 0, 0, 0, 0, 0, 0, 0, 0, 0, 0
RCOU, 313190797, 1101, 1101, 1101, 1101, 0, 0, 0, 0, 0, 0, 0, 0, 0, 0
VIBE, 313190805, 0.01955569, 0.02224719, 0.03381645, 0, 0, 0
CTRL, 313190812, 0.008532463, 0.0001510182, 0.0002057738, 0.0001758226, 0.0003252886
PRX, 313190843, 2, 0.57, 0, 0.59, 0, 3.6, 0, 2.46, 0, 0, 0, 0.57
IMU, 313225733, 0.0005461399, 0.001013317, -0.001699519, 0.1328317, -0.05298274, -10.09591, 0, 0, 35.74972, 1, 1, 1000, 1000
RFND, 313238172, 0.2, 25, 0, 0
IMU, 313265693, 0.0005864505, 0.0004694144, -0.001307013, 0.1364433, -0.05280724, -10.11854, 0, 0, 35.75029, 1, 1, 1000, 1000
MAG, 313285739, 232, 650, 224, 0, 0, 0, 0, 0, 0, 1, 313285731
RFND, 313288201, 0.2, 25, 0, 0
BARO, 313288236, -0.2925667, 981.0137, 34.44, -0.04103516, 313288, 0, 27.84
CTUN, 313288249, 0, 0, 0, 0.411675, 0.7928718, 0.7928718, -0.29, 0, 0.19, 0, 0, -2
ATT, 313290702, 0, 0.8, 0, -0.01, 189.7, 189.72, 0, 1
RATE, 313290710, -3.634182, -0.03334294, -0.008232962, 0.04884993, 0.03931929, -0.0001351635, 0.001329284, -0.1536977, 0.0003714504, 856.6166, -2.456856, 0
NKF1, 313290717, 0.8, -0.01, 189.71, -0.03807224, -0.004533657, 0.02115103, 0, 0, 0, -0.7928297, 0, 0.03, 0.04
NKF2, 313290717, -30, 0, 0, 0, 0, 0, 0, 0, 0, 0, 0, 0, 0
NKF3, 313290717, 0, 0, 0, -0.08, 0, 0.03, 0, 0, 0, 0, 0
NKF4, 313290717, 0, 0, 0.01, 0, 0, 5.864633E-06, 0, 0, 0, 19, 229, 0, 0
NKF5, 313290717, 0, 0, 0, 0, 0.16, -0.62, 0, 0.19, 0.5, 4.054873E-05, 0.007171965, 0.01519773
NKQ1, 313290717, 0.08463284, 0.006972184, -0.001919646, -0.996386
AHR2, 313290758, 0.9, -0.09, 203.56, -0.29, 0, 0, -0.2042114, -0.0007701528, 0.007912363, 0.9788945
MOTB, 313290784, 1, 1, 0, 1
RCIN, 313290788, 0, 0, 0, 0, 0, 0, 0, 0, 0, 0, 0, 0, 0, 0
RCOU, 313290794, 1101, 1101, 1101, 1101, 0, 0, 0, 0, 0, 0, 0, 0, 0, 0
VIBE, 313290803, 0.0227905, 0.02040105, 0.03387352, 0, 0, 0
CTRL, 313290809, 0.008564381, 0.0001451094, 0.0001858206, 0.0001670974, 0.0003389434
PRX, 313290839, 2, 0.58, 0, 0.59, 0, 3.6, 0, 2.46, 0, 0, 0, 0.58
IMU, 313306147, -0.0005040062, 0.001128899, -0.001496527, 0.1351765, -0.04844543, -10.09526, 0, 0, 35.75102, 1, 1, 1000, 1000
RFND, 313338155, 0.2, 25, 0, 0
IMU, 313345703, -0.0001340214, 0.001540993, -0.0020638, 0.133459, -0.05902364, -10.11294, 0, 0, 35.75299, 1, 1, 1000, 1000
MAG, 313385633, 233, 648, 220, 0, 0, 0, 0, 0, 0, 1, 313385625
DU32, 313385660, 7, 50357752
IMU, 313385805, 9.638844E-06, 0.002098455, -0.001665991, 0.1499226, -0.05386505, -10.11648, 0, 0, 35.75465, 1, 1, 1000, 1000
RFND, 313388196, 0.2, 25, 0, 0
BARO, 313388229, -0.4360899, 981.0292, 34.44, -0.05157939, 313388, 0, 27.84
CTUN, 313388241, 0, 0, 0, 0.411675, 0.7933642, 0.7933642, -0.43, 0, 0.19, 0, 0, -2
ATT, 313390699, 0, 0.8, 0, 0, 189.68, 189.71, 0, 1
RATE, 313390707, -3.632191, -0.04446063, -0.008187373, 0.03206893, 0.06088976, 1.15086E-05, -0.00052742, -0.1461223, 0.0003719264, 822.3384, 1.744652, 0
NKF1, 313390714, 0.8, 0, 189.7, -0.03845241, -0.003611724, 0.02030465, 0, 0, 0, -0.7933236, 0, 0.03, 0.04
NKF2, 313390714, -30, 0, 0, 0, 0, 0, 0, 0, 0, 0, 0, 0, 0
NKF3, 313390714, 0, 0, 0, -0.09, 0, 0.03, 0, 0, 0, 0, 0
NKF4, 313390714, 0, 0, 0.01, 0, 0, 4.353981E-06, 0, 0, 0, 19, 229, 0, 0
NKF5, 313390714, 0, 0, 0, 0, 0.17, -0.62, 0, 0.19, 0.5, 3.980376E-05, 0.006907613, 0.01465192
NKQ1, 313390714, 0.08453436, 0.007004262, -0.001913269, -0.9963942
AHR2, 313390755, 0.9, -0.09, 203.56, -0.43, 0, 0, -0.2041666, -0.0008012272, 0.007936061, 0.9789037
MOTB, 313390762, 1, 1, 0, 1
RCIN, 313390789, 0, 0, 0, 0, 0, 0, 0, 0, 0, 0, 0, 0, 0, 0
RCOU, 313390794, 1101, 1101, 1101, 1101, 0, 0, 0, 0, 0, 0, 0, 0, 0, 0
VIBE, 313390803, 0.02470297, 0.01991181, 0.03876385, 0, 0, 0
CTRL, 313390809, 0.00855873, 0.0001409276, 0.0001569141, 0.0001474642, 0.0003512956
PRX, 313390840, 2, 0.57, 0, 0.58, 0, 3.6, 0, 2.46, 0, 0, 0, 0.57
IMU, 313425740, 0.0007701564, 0.001065683, -0.0001285646, 0.1353917, -0.05358794, -10.08152, 0, 0, 35.75628, 1, 1, 1000, 1000
RFND, 313438201, 0.2, 25, 0, 0
IMU, 313465820, -0.0008038313, 0.001639408, -0.0007220604, 0.1351109, -0.05504572, -10.1025, 0, 0, 35.75815, 1, 1, 1000, 1000
MAG, 313485710, 232, 650, 223, 0, 0, 0, 0, 0, 0, 1, 313485702
RFND, 313488172, 0.2, 25, 0, 0
BARO, 313488207, -0.3864088, 981.0237, 34.44, -0.1047312, 313488, 0, 27.84
CTUN, 313488219, 0, 0, 0, 0.411675, 0.793713, 0.793713, -0.38, 0, 0.19, 0, 0, -2
ATT, 313490723, 0, 0.8, 0, 0, 189.68, 189.7, 0, 1
RATE, 313490731, -3.625754, -0.05524792, -0.0084796, 0.01518658, 0.02554901, -7.057806E-05, 0.001579971, -0.132642, 0.0002957695, 821.6819, -0.1309395, 0
NKF1, 313490738, 0.8, 0, 189.69, -0.03866801, -0.002615613, 0.02028844, 0, 0, 0, -0.7936724, 0, 0.03, 0.04
NKF2, 313490738, -30, 0, 0, 0, 0, 0, 0, 0, 0, 0, 0, 0, 0
NKF3, 313490738, 0, 0, 0, -0.09, 0, 0.03, 0, 0, 0, 0, 0
NKF4, 313490738, 0, 0, 0.01, 0, 0, 3.396156E-06, 0, 0, 0, 19, 229, 0, 0
NKF5, 313490738, 0, 0, 0, 0, 0.17, -0.62, 0, 0.19, 0.5, 3.889806E-05, 0.006641758, 0.01409607
NKQ1, 313490738, 0.08445813, 0.007036154, -0.00189987, -0.9964004
AHR2, 313490804, 0.91, -0.09, 203.55, -0.38, 0, 0, -0.2041437, -0.0008312402, 0.007952919, 0.9789083
MOTB, 313490811, 1, 1, 0, 1
RCIN, 313490816, 0, 0, 0, 0, 0, 0, 0, 0, 0, 0, 0, 0, 0, 0
RCOU, 313490821, 1101, 1101, 1101, 1101, 0, 0, 0, 0, 0, 0, 0, 0, 0, 0
VIBE, 313490830, 0.02185281, 0.02113413, 0.03455, 0, 0, 0
CTRL, 313490836, 0.008539686, 0.0001695128, 0.000137275, 0.0001536896, 0.0003381777
PRX, 313490924, 2, 0.57, 0, 0.58, 0, 3.6, 0, 2.51, 0, 0, 0, 0.57
IMU, 313505710, -0.0002862047, 0.0008124777, -0.001173542, 0.1341553, -0.05497925, -10.10011, 0, 0, 35.75983, 1, 1, 1000, 1000
RFND, 313538332, 0.2, 25, 0, 0
IMU, 313545715, 0.0001277161, 0.001663423, -0.001429749, 0.1247782, -0.06293608, -10.09781, 0, 0, 35.76131, 1, 1, 1000, 1000
MAG, 313585830, 231, 649, 223, 0, 0, 0, 0, 0, 0, 1, 313585821
IMU, 313585936, 0.0006724037, -0.0002012367, -0.0019985, 0.1347754, -0.06122566, -10.08795, 0, 0, 35.76181, 1, 1, 1000, 1000
RFND, 313588162, 0.2, 25, 0, 0
BARO, 313588197, -0.4250497, 981.0281, 34.44, -0.2742123, 313588, 0, 27.84
CTUN, 313588209, 0, 0, 0, 0.411675, 0.7942935, 0.7942935, -0.42, 0, 0.19, 0, 0, -2
ATT, 313590707, 0, 0.8, 0, 0, 189.67, 189.69, 0, 1
RATE, 313590715, -3.630131, 0.03936374, -0.008741023, 0.01273442, -0.0539972, 0.0003908433, 0.0006176262, -0.1488601, 0.0003633482, 824.6806, 0.02593994, 0
NKF1, 313590722, 0.8, 0, 189.68, -0.03850256, -0.001473507, 0.02036249, 0, 0, 0, -0.7942527, 0, 0.03, 0.04
NKF2, 313590722, -30, 0, 0, 0, 0, 0, 0, 0, 0, 0, 0, 0, 0
NKF3, 313590722, 0, 0, 0, -0.09, 0, 0.03, 0, 0, 0, 0, 0
NKF4, 313590722, 0, 0, 0.01, 0, 0, 2.819989E-06, 0, 0, 0, 19, 229, 0, 0
NKF5, 313590722, 0, 0, 0, 0, 0.17, -0.62, 0, 0.19, 0.5, 3.774358E-05, 0.006346074, 0.01343622
NKQ1, 313590722, 0.08436283, 0.00704092, -0.001907904, -0.9964085
AHR2, 313590784, 0.91, -0.09, 203.55, -0.42, 0, 0, -0.2041021, -0.0008371992, 0.007991715, 0.9789166
MOTB, 313590794, 1, 1, 0, 1
RCIN, 313590798, 0, 0, 0, 0, 0, 0, 0, 0, 0, 0, 0, 0, 0, 0
RCOU, 313590803, 1101, 1101, 1101, 1101, 0, 0, 0, 0, 0, 0, 0, 0, 0, 0
VIBE, 313590811, 0.02189299, 0.01943554, 0.03919283, 0, 0, 0
CTRL, 313590819, 0.008542551, 0.0001466322, 0.0001253237, 0.0001670119, 0.0003332037
PRX, 313590860, 2, 0.57, 0, 0.58, 0, 3.6, 0, 2.48, 0, 0, 0, 0.57
IMU, 313625809, -0.002052752, 0.001272283, -0.0009293023, 0.1383952, -0.06088869, -10.09882, 0, 0, 35.76247, 1, 1, 1000, 1000
RFND, 313638635, 0.2, 25, 0, 0
IMU, 313665640, 0.0005993806, 0.001892934, -0.001079961, 0.1362624, -0.05458868, -10.07991, 0, 0, 35.76524, 1, 1, 1000, 1000
MAG, 313685982, 228, 656, 216, 0, 0, 0, 0, 0, 0, 1, 313685974
RFND, 313688226, 0.2, 25, 0, 0
BARO, 313688263, -0.3643283, 981.0214, 34.44, -0.2932567, 313688, 0, 27.84
CTUN, 313688276, 0, 0, 0, 0.411675, 0.7943889, 0.7943889, -0.36, 0, 0.19, 0, 0, -2
ATT, 313690873, 0, 0.8, 0, 0, 189.66, 189.68, 0, 1
RATE, 313690935, -3.61594, 0.03958816, -0.008592107, -0.003884832, 0.08058333, -0.0002266133, 0.001364236, -0.08964969, 0.0003053771, 854.562, -1.713371, 0
NKF1, 313690943, 0.8, 0, 189.67, -0.03863929, -7.000609E-05, 0.02110029, 0, 0, 0, -0.7943467, 0, 0.03, 0.04
NKF2, 313690943, -30, 0, 0, 0, 0, 0, 0, 0, 0, 0, 0, 0, 0
NKF3, 313690943, 0, 0, 0, -0.09, 0, 0.03, 0, 0, 0, 0, 0
NKF4, 313690943, 0, 0, 0.01, 0, 0, 2.473244E-06, 0, 0, 0, 19, 229, 0, 0
NKF5, 313690943, 0, 0, 0, 0, 0.17, -0.62, 0, 0.19, 0.5, 3.710516E-05, 0.006112039, 0.01296609
NKQ1, 313690943, 0.08427682, 0.007072129, -0.001877759, -0.9964155
AHR2, 313690989, 0.91, -0.08, 203.55, -0.36, 0, 0, -0.2040699, -0.0008645334, 0.007989373, 0.9789234
MOTB, 313690997, 1, 1, 0, 1
RCIN, 313691077, 0, 0, 0, 0, 0, 0, 0, 0, 0, 0, 0, 0, 0, 0
RCOU, 313691082, 1101, 1101, 1101, 1101, 0, 0, 0, 0, 0, 0, 0, 0, 0, 0
VIBE, 313691092, 0.02270817, 0.02203152, 0.04183019, 0, 0, 0
CTRL, 313691098, 0.008512612, 0.0001889119, 0.0001253039, 0.0001613324, 0.0003379904
PRX, 313691128, 2, 0.57, 0, 0.58, 0, 3.6, 0, 2.48, 0, 0, 0, 0.57
IMU, 313705813, 0.0006277116, 0.001271563, -0.001181445, 0.1420737, -0.06255385, -10.09845, 0, 0, 35.76847, 1, 1, 1000, 1000
RFND, 313738119, 0.2, 25, 0, 0
IMU, 313745706, -0.0002953646, -5.024422E-05, -0.0004925088, 0.1337716, -0.05752537, -10.10461, 0, 0, 35.77115, 1, 1, 1000, 1000
MAG, 313785620, 232, 647, 221, 0, 0, 0, 0, 0, 0, 1, 313785612
IMU, 313785666, 0.0007026338, 0.0007435888, -0.001566522, 0.1314111, -0.05366848, -10.09619, 0, 0, 35.77351, 1, 1, 1000, 1000
RFND, 313788185, 0.2, 25, 0, 0
BARO, 313788217, -0.3036069, 981.0148, 34.44, -0.07072659, 313788, 0, 27.84
CTUN, 313788229, 0, 0, 0, 0.411675, 0.7949833, 0.7949833, -0.3, 0, 0.19, 0, 0, -2
ATT, 313790790, 0, 0.8, 0, 0, 189.65, 189.67, 0, 1
RATE, 313790801, -3.619212, 0.01935813, -0.008538373, -0.01131702, 0.02500635, -0.000134971, 0.001073801, -0.1263736, 0.0003003562, 854.6795, -1.38216, 0
NKF1, 313790808, 0.8, 0, 189.66, -0.0386573, 0.0008153711, 0.0211032, 0, 0, 0, -0.7949622, 0, 0.03, 0.04
NKF2, 313790808, -30, 0, 0, 0, 0, 0, 0, 0, 0, 0, 0, 0, 0
NKF3, 313790808, 0, 0, 0, -0.1, 0, 0.03, 0, 0, 0, 0, 0
NKF4, 313790808, 0, 0, 0.01, 0, 0, 2.349242E-06, 0, 0, 0, 19, 229, 0, 0
NKF5, 313790808, 0, 0, 0, 0, 0.17, -0.62, 0, 0.19, 0.5, 3.688846E-05, 0.005808094, 0.01223078
NKQ1, 313790808, 0.0842013, 0.007085888, -0.001883588, -0.9964218
AHR2, 313790937, 0.92, -0.08, 203.54, -0.3, 0, 0, -0.2040474, -0.0008756334, 0.00802792, 0.9789277
MOTB, 313790947, 1, 1, 0, 1
RCIN, 313790951, 0, 0, 0, 0, 0, 0, 0, 0, 0, 0, 0, 0, 0, 0
RCOU, 313790956, 1101, 1101, 1101, 1101, 0, 0, 0, 0, 0, 0, 0, 0, 0, 0
VIBE, 313790965, 0.02356274, 0.02108555, 0.04042825, 0, 0, 0
CTRL, 313790972, 0.008519707, 0.0001743169, 0.000115308, 0.0001539876, 0.000321196
PRX, 313791060, 2, 0.58, 0, 0.58, 0, 3.6, 0, 2.48, 0, 0, 0, 0.58
IMU, 313825866, 0.0003090123, 0.001891742, -0.0001970547, 0.1316382, -0.05570856, -10.08189, 0, 0, 35.77575, 1, 1, 1000, 1000
RFND, 313838175, 0.2, 25, 0, 0
IMU, 313865682, 0.0001549504, 0.00106678, -0.0003278483, 0.1306114, -0.06184255, -10.11592, 0, 0, 35.77909, 1, 1, 1000, 1000
MAG, 313885663, 231, 649, 226, 0, 0, 0, 0, 0, 0, 1, 313885655
RFND, 313888582, 0.2, 25, 0, 0
BARO, 313888617, -0.3864088, 981.024, 34.45, 0.1707789, 313888, 0, 27.84
CTUN, 313888629, 0, 0, 0, 0.411675, 0.7949789, 0.7949789, -0.38, 0, 0.19, 0, 0, -2
ATT, 313890877, 0, 0.8, 0, 0, 189.64, 189.66, 0, 1
RATE, 313890939, -3.62455, 0.007666043, -0.008499523, -0.03296731, 0.03554676, -0.0001911379, 0.0007388274, -0.05665855, 0.0002051891, 853.7362, -0.746727, 0
NKF1, 313890948, 0.8, 0, 189.65, -0.03855942, 0.001984957, 0.02107991, 0, 0, 0, -0.7949579, 0, 0.03, 0.04
NKF2, 313890948, -30, 0, 0, 0, 0, 0, 0, 0, 0, 0, 0, 0, 0
NKF3, 313890948, 0, 0, 0, -0.11, 0, 0.02, 0, 0, 0, 0, 0
NKF4, 313890948, 0, 0, 0.01, 0, 0, 2.294286E-06, 0, 0, 0, 19, 229, 0, 0
NKF5, 313890948, 0, 0, 0, 0, 0.17, -0.62, 0, 0.19, 0.5, 3.702267E-05, 0.005584592, 0.01168572
NKQ1, 313890948, 0.08415423, 0.007130409, -0.001890832, -0.9964254
AHR2, 313890991, 0.92, -0.08, 203.54, -0.38, 0, 0, -0.2040531, -0.0009174856, 0.008064534, 0.9789262
MOTB, 313891056, 1, 1, 0, 1
RCIN, 313891062, 0, 0, 0, 0, 0, 0, 0, 0, 0, 0, 0, 0, 0, 0
RCOU, 313891067, 1101, 1101, 1101, 1101, 0, 0, 0, 0, 0, 0, 0, 0, 0, 0
VIBE, 313891076, 0.02127733, 0.01993484, 0.03627393, 0, 0, 0
CTRL, 313891083, 0.008532397, 0.0001464423, 0.0001439838, 0.0001531364, 0.0002995669
PRX, 313891115, 2, 0.57, 0, 0.58, 0, 3.6, 0, 2.49, 0, 0, 0, 0.57
IMU, 313905708, -0.0002425238, 0.001141244, -0.002443478, 0.1322543, -0.05940469, -10.10854, 0, 0, 35.78119, 1, 1, 1000, 1000
RFND, 313938157, 0.2, 25, 0, 0
IMU, 313945767, -0.0004198275, 0.0001749369, -0.0006065299, 0.1418749, -0.04639236, -10.08686, 0, 0, 35.78328, 1, 1, 1000, 1000
MAG, 313986261, 227, 651, 222, 0, 0, 0, 0, 0, 0, 1, 313986253
IMU, 313986311, -0.0004366328, 0.0009212982, -0.001540414, 0.1245291, -0.07957336, -10.08846, 0, 0, 35.78595, 1, 1, 1000, 1000
RFND, 313988204, 0.2, 25, 0, 0
BARO, 313988241, -0.2704861, 981.0112, 34.45, 0.2415055, 313988, 0, 27.84
CTUN, 313988252, 0, 0, 0, 0.411675, 0.7954429, 0.7954429, -0.27, 0, 0.19, 0, 0, -2
ATT, 313990709, 0, 0.8, 0, 0, 189.63, 189.65, 0, 1
RATE, 313990718, -3.611392, -0.01468214, -0.008614982, -0.03515447, 0.01410365, -0.0001030406, -0.0004072824, -0.091764, 0.0002684453, 870.5621, -0.8968353, 0
NKF1, 313990725, 0.8, 0, 189.64, -0.03855633, 0.00300049, 0.02149536, 0, 0, 0, -0.7953784, 0, 0.03, 0.04
NKF2, 313990725, -30, 0, 0, 0, 0, 0, 0, 0, 0, 0, 0, 0, 0
NKF3, 313990725, 0, 0, 0, -0.11, 0, 0.02, 0, 0, 0, 0, 0
NKF4, 313990725, 0, 0, 0.01, 0, 0, 2.383351E-06, 0, 0, 0, 19, 229, 0, 0
NKF5, 313990725, 0, 0, 0, 0, 0.17, -0.62, 0, 0.19, 0.5, 3.690957E-05, 0.005306458, 0.01107428
NKQ1, 313990725, 0.08407098, 0.007131457, -0.001866437, -0.9964325
AHR2, 313990794, 0.92, -0.08, 203.54, -0.27, 0, 0, -0.2040244, -0.0009118111, 0.008071501, 0.9789321
MOTB, 313990804, 1, 1, 0, 1
RCIN, 313990808, 0, 0, 0, 0, 0, 0, 0, 0, 0, 0, 0, 0, 0, 0
RCOU, 313990814, 1101, 1101, 1101, 1101, 0, 0, 0, 0, 0, 0, 0, 0, 0, 0
VIBE, 313990822, 0.02127987, 0.0223699, 0.0345162, 0, 0, 0
CTRL, 313990829, 0.008504107, 0.0001373463, 0.0001348098, 0.0001423118, 0.0002912689
PRX, 313990870, 2, 0.57, 0, 0.58, 0, 3.6, 0, 2.46, 0, 0, 0, 0.57
IMU, 314025801, 0.0004054955, 0.001244705, 0.0003516664, 0.1356738, -0.0537785, -10.10459, 0, 0, 35.78818, 1, 1, 1000, 1000
RFND, 314038197, 0.2, 25, 0, 0
IMU, 314065745, 0.0004272498, 0.0008205053, -0.0002677177, 0.1370094, -0.05888263, -10.09043, 0, 0, 35.79095, 1, 1, 1000, 1000
MAG, 314085754, 230, 650, 222, 0, 0, 0, 0, 0, 0, 1, 314085746
RFND, 314088232, 0.2, 25, 0, 0
BARO, 314088268, -0.3477679, 981.0198, 34.45, 0.1707789, 314088, 0, 27.84
CTUN, 314088281, 0, 0, 0, 0.411675, 0.7954921, 0.7954921, -0.34, 0, 0.19, 0, 0, -2
ATT, 314090872, 0, 0.8, 0, 0, 189.63, 189.65, 0, 1
RATE, 314090936, -3.614623, -0.01288698, -0.008535359, -0.04073277, -0.01946557, -7.22369E-05, 0.001805005, -0.04351604, 0.0001906436, 882.6743, -1.086712, 0
NKF1, 314090944, 0.8, 0, 189.64, -0.03862881, 0.003933479, 0.02179443, 0, 0, 0, -0.795427, 0, 0.03, 0.04
NKF2, 314090944, -30, 0, 0, 0, 0, 0, 0, 0, 0, 0, 0, 0, 0
NKF3, 314090944, 0, 0, 0, -0.11, 0, 0.02, 0, 0, 0, 0, 0
NKF4, 314090944, 0, 0, 0.01, 0, 0, 2.493467E-06, 0, 0, 0, 19, 229, 0, 0
NKF5, 314090944, 0, 0, 0, 0, 0.17, -0.62, 0, 0.19, 0.5, 3.759554E-05, 0.005066496, 0.01046138
NKQ1, 314090944, 0.08402152, 0.007143961, -0.001871889, -0.9964366
AHR2, 314090991, 0.93, -0.08, 203.54, -0.34, 0, 0, -0.2040279, -0.0009205502, 0.008106608, 0.9789311
MOTB, 314091078, 1, 1, 0, 1
RCIN, 314091085, 0, 0, 0, 0, 0, 0, 0, 0, 0, 0, 0, 0, 0, 0
RCOU, 314091091, 1101, 1101, 1101, 1101, 0, 0, 0, 0, 0, 0, 0, 0, 0, 0
VIBE, 314091099, 0.01954089, 0.02344456, 0.03347499, 0, 0, 0
CTRL, 314091106, 0.008509415, 0.0001352931, 0.0001338175, 0.0001315941, 0.0002696056
PRX, 314091139, 2, 0.57, 0, 0.58, 0, 3.6, 0, 2.48, 0, 0, 0, 0.57
IMU, 314105733, 0.0003854341, 0.0001551733, -0.000498439, 0.1373986, -0.06713656, -10.08616, 0, 0, 35.79329, 1, 1, 1000, 1000
RFND, 314138228, 0.2, 25, 0, 0
IMU, 314146209, -6.006325E-05, 0.0001675237, -0.0002752374, 0.1330813, -0.05810799, -10.08771, 0, 0, 35.79477, 1, 1, 1000, 1000
MAG, 314185733, 230, 650, 220, 0, 0, 0, 0, 0, 0, 1, 314185725
IMU, 314185942, -7.413656E-05, 0.001431704, -0.0008001146, 0.1297251, -0.0433233, -10.08972, 0, 0, 35.7957, 1, 1, 1000, 1000
RFND, 314188273, 0.2, 25, 0, 0
BARO, 314188309, -0.4636905, 981.0324, 34.46, 0.06037638, 314188, 0, 27.84
CTUN, 314188322, 0, 0, 0, 0.411675, 0.7956387, 0.7956387, -0.46, 0, 0.19, 0, 0, -2
ATT, 314190861, 0, 0.8, 0, 0, 189.62, 189.64, 0, 1
RATE, 314190873, -3.610225, -0.02428513, -0.008369796, -0.04179614, 0.04472939, -0.0002850039, 0.0009752428, -0.09388538, 0.0002406898, 920.8301, -1.390362, 0
NKF1, 314190936, 0.8, 0, 189.63, -0.03848721, 0.005094499, 0.02273654, 0, 0, 0, -0.7955706, 0, 0.03, 0.04
NKF2, 314190936, -30, 0, 0, 0, 0, 0, 0, 0, 0, 0, 0, 0, 0
NKF3, 314190936, 0, 0, 0, -0.11, 0, 0.02, 0, 0, 0, 0, 0
NKF4, 314190936, 0, 0, 0.01, 0, 0, 2.674366E-06, 0, 0, 0, 19, 229, 0, 0
NKF5, 314190936, 0, 0, 0, 0, 0.17, -0.62, 0, 0.19, 0.5, 3.731772E-05, 0.004846392, 0.01002331
NKQ1, 314190936, 0.08395412, 0.007143871, -0.00186443, -0.9964423
AHR2, 314190985, 0.93, -0.08, 203.54, -0.46, 0, 0, -0.2040139, -0.0009172451, 0.008129194, 0.9789339
MOTB, 314190993, 1, 1, 0, 1
RCIN, 314190998, 0, 0, 0, 0, 0, 0, 0, 0, 0, 0, 0, 0, 0, 0
RCOU, 314191072, 1101, 1101, 1101, 1101, 0, 0, 0, 0, 0, 0, 0, 0, 0, 0
VIBE, 314191082, 0.01912379, 0.02061612, 0.03334109, 0, 0, 0
CTRL, 314191088, 0.008502344, 0.0001386586, 0.0001268388, 0.0001291506, 0.0002516744
PRX, 314191119, 2, 0.58, 0, 0.59, 0, 3.6, 0, 2.49, 0, 0, 0, 0.58
IMU, 314225989, -0.0003547333, 0.0005133263, -0.001776048, 0.1363671, -0.06609322, -10.11981, 0, 0, 35.79536, 1, 1, 1000, 1000
RFND, 314238311, 0.2, 25, 0, 0
IMU, 314265793, -0.0001310231, 0.0003215623, -0.000439699, 0.1390248, -0.05646277, -10.09925, 0, 0, 35.79538, 1, 1, 1000, 1000
MAG, 314285824, 227, 651, 224, 0, 0, 0, 0, 0, 0, 1, 314285816
RFND, 314288275, 0.2, 25, 0, 0
BARO, 314288313, -0.5023314, 981.0366, 34.46, -0.1828541, 314288, 0, 27.84
CTUN, 314288326, 0, 0, 0, 0.411675, 0.7957542, 0.7957542, -0.5, 0, 0.19, 0, 0, -2
ATT, 314290941, 0, 0.8, 0, 0, 189.61, 189.63, 0, 1
RATE, 314290951, -3.613513, 0.0730892, -0.008847269, -0.04198223, -0.05676566, 3.922635E-05, 0.001958785, -0.09719633, 0.0002789577, 890.7509, -1.731968, 0
NKF1, 314290960, 0.8, 0, 189.62, -0.03856092, 0.006141774, 0.02199385, 0, 0, 0, -0.7956662, 0, 0.03, 0.04
NKF2, 314290960, -30, 0, 0, 0, 0, 0, 0, 0, 0, 0, 0, 0, 0
NKF3, 314290960, 0, 0, 0, -0.12, 0, 0.02, 0, 0, 0, 0, 0
NKF4, 314290960, 0, 0, 0.01, 0, 0, 2.890387E-06, 0, 0, 0, 19, 229, 0, 0
NKF5, 314290960, 0, 0, 0, 0, 0.17, -0.62, 0, 0.19, 0.5, 3.805183E-05, 0.004596388, 0.009338384
NKQ1, 314290960, 0.08388022, 0.007144533, -0.001871281, -0.9964485
AHR2, 314291068, 0.93, -0.08, 203.54, -0.5, 0, 0, -0.2039934, -0.0009165508, 0.008165775, 0.9789378
MOTB, 314291077, 1, 1, 0, 1
RCIN, 314291082, 0, 0, 0, 0, 0, 0, 0, 0, 0, 0, 0, 0, 0, 0
RCOU, 314291087, 1101, 1101, 1101, 1101, 0, 0, 0, 0, 0, 0, 0, 0, 0, 0
VIBE, 314291096, 0.01811095, 0.0211536, 0.03192013, 0, 0, 0
CTRL, 314291103, 0.008501338, 0.0001506952, 0.0001410366, 0.0001485207, 0.0002523451
PRX, 314291134, 2, 0.58, 0, 0.59, 0, 3.6, 0, 2.46, 0, 0, 0, 0.58
IMU, 314305868, 0.0008348668, 0.001088751, -0.0006774899, 0.1344706, -0.06135143, -10.12176, 0, 0, 35.79511, 1, 1, 1000, 1000
RFND, 314338227, 0.2, 25, 0, 0
IMU, 314345744, -0.0005745664, 0.0006786853, -0.0004849806, 0.1441659, -0.06020768, -10.12027, 0, 0, 35.7932, 1, 1, 1000, 1000
MAG, 314385713, 233, 655, 217, 0, 0, 0, 0, 0, 0, 1, 314385705
DU32, 314385823, 7, 50357752
IMU, 314385959, 0.000344279, 0.0003799582, -0.001034311, 0.1392526, -0.05815752, -10.10051, 0, 0, 35.79213, 1, 1, 1000, 1000
RFND, 314388275, 0.2, 25, 0, 0
BARO, 314388313, -0.4084893, 981.0266, 34.46, -0.4795609, 314388, 0, 27.84
CTUN, 314388327, 0, 0, 0, 0.411675, 0.7957726, 0.7957726, -0.4, 0, 0.19, 0, 0, -2
ATT, 314390817, 0, 0.8, 0, 0, 189.6, 189.62, 0, 1
RATE, 314390826, -3.616818, 0.0004576393, -0.008436978, -0.0404488, -0.01998119, 8.026691E-06, 0.002707942, -0.08418859, 0.0002348642, 864.2852, -1.391888, 0
NKF1, 314390834, 0.8, 0, 189.61, -0.03920613, 0.007134471, 0.02134037, 0, 0, 0, -0.795709, 0, 0.03, 0.04
NKF2, 314390834, -30, 0, 0, 0, 0, 0, 0, 0, 0, 0, 0, 0, 0
NKF3, 314390834, 0, 0, 0, -0.12, 0, 0.02, 0, 0, 0, 0, 0
NKF4, 314390834, 0, 0, 0.01, 0, 0, 3.11792E-06, 0, 0, 0, 19, 229, 0, 0
NKF5, 314390834, 0, 0, 0, 0, 0.17, -0.62, 0, 0.19, 0.5, 3.763606E-05, 0.004429958, 0.00907301
NKQ1, 314390834, 0.08381666, 0.007142197, -0.001876871, -0.9964538
AHR2, 314390951, 0.94, -0.08, 203.54, -0.4, 0, 0, -0.2039831, -0.0009146596, 0.008200232, 0.9789397
MOTB, 314390960, 1, 1, 0, 1
RCIN, 314390964, 0, 0, 0, 0, 0, 0, 0, 0, 0, 0, 0, 0, 0, 0
RCOU, 314390969, 1101, 1101, 1101, 1101, 0, 0, 0, 0, 0, 0, 0, 0, 0, 0
VIBE, 314390978, 0.01829678, 0.02207404, 0.03751573, 0, 0, 0
CTRL, 314390985, 0.008514559, 0.0001444999, 0.0001301174, 0.0001411511, 0.0002522098
PRX, 314391080, 2, 0.58, 0, 0.59, 0, 3.6, 0, 2.46, 0, 0, 0, 0.58
EV, 314415465, 57
IMU, 314425712, 0.0004377537, -1.034174E-05, -0.001472446, 0.1328781, -0.05859137, -10.10647, 0, 0, 35.79138, 1, 1, 1000, 1000
RFND, 314438120, 0.2, 25, 0, 0
IMU, 314465999, -0.001377178, 0.0003204541, -0.001000373, 0.1296528, -0.0530559, -10.0924, 0, 0, 35.79164, 1, 1, 1000, 1000
MAG, 314485636, 234, 657, 214, 0, 0, 0, 0, 0, 0, 1, 314485628
RFND, 314488183, 0.2, 25, 0, 0
BARO, 314488218, -0.5078515, 981.037, 34.46, -0.4519603, 314488, 0, 27.84
CTUN, 314488231, 0, 0, 0, 0.411675, 0.7960641, 0.7960641, -0.5, 0, 0.19, 0, 0, -2
ATT, 314490694, 0, 0.8, 0, 0, 189.59, 189.61, 0, 1
RATE, 314490702, -3.602574, -0.005379128, -0.008622942, -0.03835675, 0.04165313, -0.0002384799, 0.0002585828, -0.04589752, 0.0002861759, 843.0003, 0.3442764, 0
NKF1, 314490709, 0.8, 0, 189.6, -0.03921167, 0.007968917, 0.02081482, 0, 0, 0, -0.7960225, 0, 0.03, 0.04
NKF2, 314490709, -30, 0, 0, 0, 0, 0, 0, 0, 0, 0, 0, 0, 0
NKF3, 314490709, 0, 0, 0, -0.13, 0, 0.02, 0, 0, 0, 0, 0
NKF4, 314490709, 0, 0, 0.01, 0, 0, 3.413188E-06, 0, 0, 0, 19, 229, 0, 0
NKF5, 314490709, 0, 0, 0, 0, 0.17, -0.62, 0, 0.19, 0.5, 3.84116E-05, 0.004170824, 0.008325972
NKQ1, 314490709, 0.08372699, 0.007136819, -0.001851267, -0.9964615
AHR2, 314490750, 0.94, -0.09, 203.53, -0.5, 0, 0, -0.203947, -0.0009057082, 0.008203766, 0.9789472
MOTB, 314490757, 1, 1, 0, 1
RCIN, 314490762, 0, 0, 0, 0, 0, 0, 0, 0, 0, 0, 0, 0, 0, 0
RCOU, 314490791, 1118, 1118, 1118, 1118, 0, 0, 0, 0, 0, 0, 0, 0, 0, 0
VIBE, 314490800, 0.01966835, 0.02138655, 0.03252992, 0, 0, 0
CTRL, 314490806, 0.008481551, 0.0001663651, 0.0001254588, 0.0001422832, 0.0002700677
PRX, 314490837, 2, 0.58, 0, 0.58, 0, 3.6, 0, 2.48, 0, 0, 0, 0.58
IMU, 314505740, 0.001043033, -0.0007286599, -0.0002345865, 0.13549, -0.05046046, -10.10261, 0, 0, 35.79201, 1, 1, 1000, 1000
RFND, 314538158, 0.2, 25, 0, 0
IMU, 314545655, -0.0005252156, -0.0001035844, -0.0004386232, 0.1419797, -0.05629538, -10.10025, 0, 0, 35.79197, 1, 1, 1000, 1000
MAG, 314585671, 229, 653, 217, 0, 0, 0, 0, 0, 0, 1, 314585663
IMU, 314585718, 0.0002214093, 0.001342461, -0.0004988975, 0.1292399, -0.0528813, -10.08725, 0, 0, 35.79189, 1, 1, 1000, 1000
RFND, 314588201, 0.2, 25, 0, 0
BARO, 314588236, -0.6127339, 981.0492, 34.46, -0.2208051, 314588, 0, 27.84
CTUN, 314588248, 0, 0, 0, 0.411675, 0.795935, 0.795935, -0.61, 0, 0.19, 0, 0, -2
ATT, 314590700, 0, 0.8, 0, 0, 189.58, 189.6, 0, 1
RATE, 314590707, -3.602657, 0.03225043, -0.008742957, -0.02937159, 0.0291614, -0.0001435031, 0.0002308162, -0.07482718, 0.0002591906, 859.244, -1.672363, 0
NKF1, 314590714, 0.8, 0, 189.59, -0.03928444, 0.00879334, 0.0212159, 0, 0, 0, -0.7959138, 0, 0.03, 0.04
NKF2, 314590714, -30, 0, 0, 0, 0, 0, 0, 0, 0, 0, 0, 0, 0
NKF3, 314590714, 0, 0, 0, -0.13, 0, 0.02, 0, 0, 0, 0, 0
NKF4, 314590714, 0, 0, 0.01, 0, 0, 3.664384E-06, 0, 0, 0, 19, 229, 0, 0
NKF5, 314590714, 0, 0, 0, 0, 0.17, -0.62, 0, 0.19, 0.5, 3.783034E-05, 0.004056416, 0.008221196
NKQ1, 314590714, 0.08365279, 0.007118587, -0.001853863, -0.9964678
AHR2, 314590757, 0.94, -0.09, 203.53, -0.61, 0, 0, -0.2039264, -0.0008902251, 0.008233625, 0.9789512
MOTB, 314590786, 1, 1, 0, 1
RCIN, 314590791, 0, 0, 0, 0, 0, 0, 0, 0, 0, 0, 0, 0, 0, 0
RCOU, 314590797, 1142, 1142, 1142, 1142, 0, 0, 0, 0, 0, 0, 0, 0, 0, 0
VIBE, 314590806, 0.01967466, 0.01990983, 0.03103134, 0, 0, 0
CTRL, 314590812, 0.008474607, 0.000174976, 0.000116185, 0.000153243, 0.0002711138
PRX, 314590842, 2, 0.57, 0, 0.58, 0, 3.6, 0, 2.48, 0, 0, 0, 0.57
IMU, 314626056, -0.0005783088, 0.0003251422, -0.001647517, 0.1268829, -0.05881003, -10.09067, 0, 0, 35.79307, 1, 1, 1000, 1000
RFND, 314638201, 0.2, 25, 0, 0
IMU, 314665682, 0.001211386, 0.001938106, -0.001088211, 0.138454, -0.04695503, -10.10028, 0, 0, 35.79362, 1, 1, 1000, 1000
MAG, 314685713, 232, 650, 225, 0, 0, 0, 0, 0, 0, 1, 314685705
RFND, 314688220, 0.2, 25, 0, 0
BARO, 314688256, -0.7010559, 981.0592, 34.46, -0.3053319, 314688, 0, 27.84
CTUN, 314688269, 0, 0, 0, 0.411675, 0.7963455, 0.7963455, -0.7, 0, 0.19, 0, 0, -2
ATT, 314691650, 0, 0.8, 0, 0, 189.57, 189.59, 0, 1
RATE, 314691660, -3.614702, 0.01393204, -0.008441964, -0.03296122, -0.043706, 0.0004702309, 0.0002085306, -0.1143791, 0.0003135887, 874.8677, -0.1512527, 0
NKF1, 314691668, 0.8, 0, 189.58, -0.03934383, 0.009872478, 0.02160167, 0, 0, 0, -0.7962595, 0, 0.03, 0.04
NKF2, 314691668, -30, 0, 0, 0, 0, 0, 0, 0, 0, 0, 0, 0, 0
NKF3, 314691668, 0, 0, 0, -0.13, 0, 0.02, 0, 0, 0, 0, 0
NKF4, 314691668, 0, 0, 0.01, 0, 0, 4.029426E-06, 0, 0, 0, 19, 229, 0, 0
NKF5, 314691668, 0, 0, 0, 0, 0.17, -0.62, 0, 0.19, 0.5, 3.882576E-05, 0.003787894, 0.007427305
NKQ1, 314691668, 0.08355815, 0.007126156, -0.001876676, -0.9964756
AHR2, 314691712, 0.94, -0.09, 203.52, -0.7, 0, 0, -0.2038859, -0.0009031725, 0.008279771, 0.9789592
MOTB, 314691721, 1, 1, 0, 1
RCIN, 314691725, 0, 0, 0, 0, 0, 0, 0, 0, 0, 0, 0, 0, 0, 0
RCOU, 314691730, 1166, 1166, 1166, 1166, 0, 0, 0, 0, 0, 0, 0, 0, 0, 0
VIBE, 314691739, 0.03283321, 0.0314194, 0.03754728, 0, 0, 0
CTRL, 314691745, 0.008508889, 0.0001796275, 0.0001260309, 0.0001573465, 0.0002819237
PRX, 314691841, 2, 0.57, 0, 0.58, 0, 3.6, 0, 2.47, 0, 0, 0, 0.57
IMU, 314705715, -6.170176E-06, -0.0004445184, 0.003195278, 0.1249759, -0.04570469, -10.09483, 0, 0, 35.7952, 1, 1, 1000, 1000
RFND, 314738202, 0.2, 25, 0, 0
IMU, 314745664, 0.003654052, 0.006527337, -0.0221637, 0.07582726, -0.1075171, -10.15911, 0, 0, 35.7966, 1, 1, 1000, 1000
MAG, 314785677, 234, 655, 226, 0, 0, 0, 0, 0, 0, 1, 314785668
IMU, 314785723, -0.004263344, -0.0006240726, 0.004558263, 0.08558204, -0.08972061, -10.1221, 0, 0, 35.79829, 1, 1, 1000, 1000
RFND, 314788137, 0.2, 25, 0, 0
BARO, 314788172, -0.6016937, 981.048, 34.47, -0.6106638, 314788, 0, 27.84
CTUN, 314788184, 0, 0, 0, 0.411675, 0.7961102, 0.7961102, -0.6, 0, 0.19, 0, 0, -2
ATT, 314790671, 0, 0.8, 0, 0.01, 189.56, 189.58, 0, 1
RATE, 314790679, -3.608534, -0.01257417, -0.009661501, -0.077971, -0.1201105, 0.0009828149, 0.0004907431, -0.1643848, 0.0002109045, 867.1896, 3.812599, 0
NKF1, 314790686, 0.8, 0.01, 189.57, -0.0393669, 0.009653463, 0.02141209, 0, 0, 0, -0.7960676, 0, 0.03, 0.04
NKF2, 314790686, -30, 0, 0, 0, 0, 0, 0, 0, 0, 0, 0, 0, 0
NKF3, 314790686, 0, 0, 0, -0.14, 0, 0.02, 0, 0, 0, 0, 0
NKF4, 314790686, 0, 0, 0.01, 0, 0, 4.315241E-06, 0, 0, 0, 19, 229, 0, 0
NKF5, 314790686, 0, 0, 0, 0, 0.17, -0.62, 0, 0.19, 0.5, 4.006234E-05, 0.003610869, 0.006909906
NKQ1, 314790686, 0.08343014, 0.007210462, -0.001857772, -0.9964859
AHR2, 314790726, 0.95, -0.08, 203.52, -0.6, 0, 0, -0.2038121, -0.0009859614, 0.008276806, 0.9789745
MOTB, 314790734, 1, 1, 0, 1
RCIN, 314790738, 0, 0, 0, 0, 0, 0, 0, 0, 0, 0, 0, 0, 0, 0
RCOU, 314790743, 1190, 1190, 1190, 1190, 0, 0, 0, 0, 0, 0, 0, 0, 0, 0
VIBE, 314790752, 0.1736842, 0.1862729, 0.1364659, 0, 0, 0
CTRL, 314790758, 0.008487501, 0.0004065597, 0.0003227167, 0.0004699286, 0.0003960625
PRX, 314791269, 2, 0.58, 0, 0.59, 0, 3.6, 0, 2.48, 0, 0, 0, 0.58
IMU, 314825659, 0.001104617, -0.0004540234, -0.004710821, 0.07767826, -0.1261757, -10.13482, 0, 0, 35.79906, 1, 1, 1000, 1000
RFND, 314838242, 0.2, 25, 0, 0
IMU, 314866135, 0.001189615, 0.007195498, 0.004924158, 0.1638853, -0.01337468, -10.04809, 0, 0, 35.79923, 1, 1, 1000, 1000
MAG, 314885627, 224, 649, 228, 0, 0, 0, 0, 0, 0, 1, 314885619
RFND, 314888189, 0.2, 25, 0, 0
BARO, 314888222, -0.5906534, 981.0464, 34.47, -0.570988, 314888, 0, 27.84
CTUN, 314888235, 0, 0, 0, 0.411675, 0.7964134, 0.7964134, -0.59, 0, 0.19, 0, 0, -2
ATT, 314890673, 0, 0.79, 0, 0.02, 189.53, 189.55, 0, 1
RATE, 314890680, -3.598958, -0.007050654, -0.009169457, -0.1084667, -0.2079753, 0.001453794, 0.0007327193, 0.1802336, 0.0004780584, 870.4162, 0.1135826, 0
NKF1, 314890688, 0.79, 0.02, 189.54, -0.0392791, 0.01200323, 0.02149176, 0, 0, 0, -0.7963474, 0, 0.03, 0.04
NKF2, 314890688, -30, 0, 0, 0, 0, 0, 0, 0, 0, 0, 0, 0, 0
NKF3, 314890688, 0, 0, 0, -0.14, 0, 0.02, 0, 0, 0, 0, 0
NKF4, 314890688, 0, 0, 0.01, 0, 0, 4.720604E-06, 0, 0, 0, 19, 229, 0, 0
NKF5, 314890688, 0, 0, 0, 0, 0.17, -0.62, 0, 0.19, 0.5, 3.923332E-05, 0.003445501, 0.006635851
NKQ1, 314890688, 0.08318451, 0.007276666, -0.001835094, -0.996506
AHR2, 314890796, 0.95, -0.07, 203.49, -0.59, 0, 0, -0.203623, -0.001049224, 0.008272107, 0.9790139
MOTB, 314890805, 1, 1, 0, 1
RCIN, 314890810, 0, 0, 0, 0, 0, 0, 0, 0, 0, 0, 0, 0, 0, 0
RCOU, 314890816, 1214, 1214, 1214, 1214, 0, 0, 0, 0, 0, 0, 0, 0, 0, 0
VIBE, 314890824, 0.4661123, 0.4056947, 0.2820596, 0, 0, 0
CTRL, 314890831, 0.008473783, 0.0005098082, 0.0004334045, 0.0006338739, 0.0006507555
PRX, 314890874, 2, 0.58, 0, 0.58, 0, 3.6, 0, 2.48, 0, 0, 0, 0.58
IMU, 314905701, -0.0005522281, -0.0006078773, -0.002927171, 0.2729387, -0.09418693, -10.10269, 0, 0, 35.79879, 1, 1, 1000, 1000
RFND, 314938492, 0.2, 25, 0, 0
IMU, 314945740, -0.002322129, -0.004514615, 0.003283866, 0.1827027, -0.05200509, -10.09334, 0, 0, 35.79739, 1, 1, 1000, 1000
MAG, 314985689, 225, 657, 220, 0, 0, 0, 0, 0, 0, 1, 314985681
IMU, 314985737, 0.001609342, 0.002369065, 0.004532441, 0.1583835, -0.09497385, -10.12217, 0, 0, 35.7953, 1, 1, 1000, 1000
RFND, 314988261, 0.2, 25, 0, 0
BARO, 314988299, -0.5630528, 981.0435, 34.47, -0.1345531, 314988, 0, 27.84
CTUN, 314988312, 0, 0, 0, 0.411675, 0.7962711, 0.7962711, -0.56, 0, 0.19, 0, 0, -2
ATT, 314990833, 0, 0.8, 0, 0.02, 189.53, 189.55, 0, 1
RATE, 314990843, -3.61414, -0.09980322, -0.007038106, -0.1147123, 0.06530307, 2.409864E-05, 0.0008025908, 0.01986037, -9.038098E-05, 904.0244, 0.1145363, 0
NKF1, 314990864, 0.8, 0.02, 189.54, -0.03844254, 0.01159478, 0.02232159, 0, 0, 0, -0.7962039, 0, 0.03, 0.04
NKF2, 314990864, -30, 0, 0, 0, 0, 0, 0, 0, 0, 0, 0, 0, 0
NKF3, 314990864, 0, 0, 0, -0.15, 0, 0.02, 0, 0, 0, 0, 0
NKF4, 314990864, 0, 0, 0.01, 0, 0, 5.075328E-06, 0, 0, 0, 19, 229, 0, 0
NKF5, 314990864, 0, 0, 0, 0, 0.17, -0.62, 0, 0.19, 0.5, 4.104018E-05, 0.003257354, 0.006004368
NKQ1, 314990864, 0.08320165, 0.007287017, -0.001864844, -0.9965044
AHR2, 314990908, 0.95, -0.07, 203.5, -0.56, 0, 0, -0.2036916, -0.001068676, 0.008327498, 0.9789991
MOTB, 314990972, 1, 1, 0, 1
RCIN, 314990977, 0, 0, 0, 0, 0, 0, 0, 0, 0, 0, 0, 0, 0, 0
RCOU, 314990983, 1233, 1221, 1221, 1233, 0, 0, 0, 0, 0, 0, 0, 0, 0, 0
VIBE, 314990992, 0.5928029, 0.4456725, 0.3437309, 0, 0, 0
CTRL, 314991058, 0.008527601, 0.0005563044, 0.0004604297, 0.000743676, 0.0005578104
PRX, 314991092, 2, 0.58, 0, 0.58, 0, 3.6, 0, 2.49, 0, 0, 0, 0.58
IMU, 315026090, -6.219734E-05, 0.003458389, 0.01313279, 0.2443279, -0.02892458, -10.13463, 0, 0, 35.79319, 1, 1, 1000, 1000
RFND, 315038209, 0.2, 25, 0, 0
IMU, 315065720, -0.004467654, 0.002174584, 0.002854543, 0.3334747, -0.05672687, -10.10763, 0, 0, 35.79025, 1, 1, 1000, 1000
MAG, 315085659, 220, 659, 227, 0, 0, 0, 0, 0, 0, 1, 315085652
RFND, 315088205, 0.2, 25, 0, 0
BARO, 315088240, -0.4581704, 981.0319, 34.47, 0.2501307, 315088, 0, 27.84
CTUN, 315088252, 0, 0, 0, 0.411675, 0.796238, 0.796238, -0.45, 0, 0.19, 0, 0, -2
ATT, 315090706, 0, 0.8, 0, 0.02, 189.54, 189.56, 0, 1
RATE, 315090715, -3.610258, -0.04010091, -0.007264496, -0.1322438, -0.2949424, 0.002779633, 0.0009268729, -0.3080068, -0.0004903976, 939.3332, -2.915001, 0
NKF1, 315090723, 0.8, 0.02, 189.55, -0.03963529, 0.01317215, 0.02319341, 0, 0, 0, -0.7961915, 0, 0.03, 0.04
NKF2, 315090723, -30, 0, 0, 0, 0, 0, 0, 0, 0, 0, 0, 0, 0
NKF3, 315090723, 0, 0, 0, -0.15, 0, 0.02, 0, 0, 0, 0, 0
NKF4, 315090723, 0, 0, 0.01, 0, 0, 5.479522E-06, 0, 0, 0, 19, 229, 0, 0
NKF5, 315090723, 0, 0, 0, 0, 0.17, -0.62, 0, 0.19, 0.5, 3.98983E-05, 0.003138618, 0.00595697
NKQ1, 315090723, 0.08326603, 0.007311477, -0.001854574, -0.9964988
AHR2, 315090786, 0.96, -0.07, 203.51, -0.45, 0, 0, -0.2038069, -0.001098243, 0.00834165, 0.9789749
MOTB, 315090795, 1, 1, 0, 1
RCIN, 315090799, 0, 0, 0, 0, 0, 0, 0, 0, 0, 0, 0, 0, 0, 0
RCOU, 315090804, 1238, 1221, 1226, 1234, 0, 0, 0, 0, 0, 0, 0, 0, 0, 0
VIBE, 315090813, 0.5774447, 0.4951152, 0.3356261, 0, 0, 0
CTRL, 315090819, 0.008521422, 0.0007277706, 0.0006276968, 0.0011477, 0.0005169917
PRX, 315090860, 2, 0.58, 0, 0.58, 0, 3.6, 0, 2.5, 0, 0, 0, 0.58
IMU, 315105834, -0.003112906, 0.003277165, -0.02480508, 0.1768195, -0.1120088, -10.04493, 0, 0, 35.78648, 1, 1, 1000, 1000
RFND, 315138176, 0.2, 25, 0, 0
IMU, 315145717, -0.000732453, 0.0006916401, 0.01348774, 0.117524, 0.002550077, -10.07879, 0, 0, 35.78133, 1, 1, 1000, 1000
MAG, 315185665, 222, 661, 225, 0, 0, 0, 0, 0, 0, 1, 315185657
IMU, 315185711, 0.003133682, 0.005037631, -0.005538578, 0.1058393, -0.110772, -10.06614, 0, 0, 35.7748, 1, 1, 1000, 1000
RFND, 315188130, 0.2, 25, 0, 0
BARO, 315188163, -0.5851333, 981.0458, 34.46, 0.3726085, 315188, 0, 27.84
CTUN, 315188176, 0, 0, 0, 0.411675, 0.7959893, 0.7959893, -0.58, 0, 0.19, 0, 0, -2
ATT, 315190756, 0, 0.8, 0, 0.04, 189.51, 189.53, 0, 1
RATE, 315190784, -3.600659, 0.4982067, -0.0131263, -0.2176483, 0.1626242, 1.909869E-05, 0.00146607, -0.9745086, 0.0003153309, 1063.9, 0.1684189, 0
NKF1, 315190793, 0.8, 0.04, 189.52, -0.03734561, 0.01478312, 0.02626913, 0, 0, 0, -0.7959383, 0, 0.03, 0.04
NKF2, 315190793, -30, 0, 0, 0, 0, 0, 0, 0, 0, 0, 0, 0, 0
NKF3, 315190793, 0, 0, 0, -0.15, 0, 0.02, 0, 0, 0, 0, 0
NKF4, 315190793, 0, 0, 0.01, 0, 0, 5.898175E-06, 0, 0, 0, 19, 229, 0, 0
NKF5, 315190793, 0, 0, 0, 0, 0.17, -0.62, 0, 0.19, 0.5, 4.220336E-05, 0.002919833, 0.005227344
NKQ1, 315190793, 0.08302666, 0.007456785, -0.001827834, -0.9965178
AHR2, 315190834, 0.96, -0.05, 203.49, -0.58, 0, 0, -0.2036236, -0.001228583, 0.008310376, 0.9790132
MOTB, 315190842, 1, 1, 0, 1
RCIN, 315190846, 0, 0, 0, 0, 0, 0, 0, 0, 0, 0, 0, 0, 0, 0
RCOU, 315190863, 1244, 1221, 1221, 1243, 0, 0, 0, 0, 0, 0, 0, 0, 0, 0
VIBE, 315190872, 0.467094, 0.4757398, 0.3873548, 0, 0, 0
CTRL, 315190932, 0.00845974, 0.001061025, 0.0007508484, 0.001292988, 0.0005219321
PRX, 315190965, 2, 0.57, 0, 0.58, 0, 3.6, 0, 2.47, 0, 0, 0, 0.57
IMU, 315225743, 0.00465919, 0.008475963, -0.004199641, 0.1969185, -0.038371, -10.01919, 0, 0, 35.76651, 1, 1, 1000, 1000
RFND, 315240138, 0.2, 25, 0, 0
IMU, 315265681, -0.007298855, 0.0006243729, 0.003322409, 0.1361569, -0.09064796, -10.01795, 0, 0, 35.75597, 1, 1, 1000, 1000
MAG, 315285648, 227, 661, 220, 0, 0, 0, 0, 0, 0, 1, 315285639
RFND, 315288147, 0.2, 25, 0, 0
BARO, 315288180, -0.7507371, 981.0642, 34.44, 0.2121798, 315288, 0, 27.84
CTUN, 315288193, 0, 0, 0, 0.411675, 0.7952981, 0.7952981, -0.75, 0, 0.19, 0, 0, -3
ATT, 315290727, 0, 0.78, 0, 0.06, 189.52, 189.54, 0, 1
RATE, 315290734, -3.540156, -0.4077858, -0.005841491, -0.3019893, 0.5465214, -0.00340379, 0.002203264, 0.5611318, 0.0002444946, 1236.691, -8.250427, 0
NKF1, 315290741, 0.78, 0.06, 189.53, -0.03597683, 0.01677338, 0.03053559, 0, 0, 0, -0.7952365, 0, 0.03, 0.04
NKF2, 315290741, -30, 0, 0, 0, 0, 0, 0, 0, 0, 0, 0, 0, 0
NKF3, 315290741, 0, 0, 0, -0.15, 0, 0.02, 0, 0, 0, 0, 0
NKF4, 315290741, 0, 0, 0.01, 0, 0, 6.308695E-06, 0, 0, 0, 19, 229, 0, 0
NKF5, 315290741, 0, 0, 0, 0, 0.17, -0.62, 0, 0.19, 0.5, 4.068425E-05, 0.002873549, 0.005388052
NKQ1, 315290741, 0.08310393, 0.007651135, -0.001690414, -0.9965101
AHR2, 315290803, 0.94, -0.03, 203.51, -0.75, 0, 0, -0.2037522, -0.001390809, 0.008161231, 0.9789875
MOTB, 315290810, 1, 1, 0, 1
RCIN, 315290815, 0, 0, 0, 0, 0, 0, 0, 0, 0, 0, 0, 0, 0, 0
RCOU, 315290820, 1231, 1227, 1221, 1237, 0, 0, 0, 0, 0, 0, 0, 0, 0, 0
VIBE, 315290829, 0.5332723, 0.5274596, 0.4268589, 0, 0, 0
CTRL, 315290835, 0.008394456, 0.001543257, 0.0009872011, 0.001425793, 0.0004694278
PRX, 315290925, 2, 0.58, 0, 0.58, 0, 3.6, 0, 2.46, 0, 0, 0, 0.58
IMU, 315305664, 0.005834294, -0.001048617, -0.00952643, 0.2445029, -0.02938304, -10.07069, 0, 0, 35.74313, 1, 1, 1000, 1000
RFND, 315338202, 0.2, 25, 0, 0
IMU, 315345723, -0.005843249, 0.0133201, 0.008630301, 0.03684393, -0.05089172, -10.00659, 0, 0, 35.72742, 1, 1, 1000, 1000
MAG, 315385680, 224, 659, 217, 0, 0, 0, 0, 0, 0, 1, 315385672
DU32, 315385707, 7, 33580536
IMU, 315385806, 0.000660906, -0.006578853, -0.006576376, 0.1790182, -0.1039525, -10.1102, 0, 0, 35.70938, 1, 1, 1000, 1000
RFND, 315388211, 0.2, 25, 0, 0
BARO, 315388245, -0.8114584, 981.0712, 34.41, -0.3001569, 315388, 0, 27.84
CTUN, 315388257, 0, 0, 0, 0.411675, 0.7943755, 0.7943755, -0.81, 0, 0.19, 0, 0, -3
ATT, 315390702, 0, 0.78, 0, 0.07, 189.5, 189.52, 0, 1
RATE, 315390709, -3.528302, 0.1545937, -0.0100025, -0.3341279, 0.2058447, -0.004459505, 0.002260676, -0.4732029, 0.0004155204, 1387.256, -0.6492615, 0
NKF1, 315390717, 0.78, 0.07, 189.51, -0.03933647, 0.01482922, 0.03425323, 0, 0, 0, -0.7943073, 0, 0.03, 0.04
NKF2, 315390717, -30, 0, 0, 0, 0, 0, 0, 0, 0, 0, 0, 0, 0
NKF3, 315390717, 0, 0, 0, -0.16, 0.01, 0.02, 0, 0, 0, 0, 0
NKF4, 315390717, 0, 0, 0.01, 0, 0, 6.791663E-06, 0, 0, 0, 19, 229, 0, 0
NKF5, 315390717, 0, 0, 0, 0, 0.17, -0.62, 0, 0.19, 0.5, 4.339496E-05, 0.002622227, 0.004503216
NKQ1, 315390717, 0.08294449, 0.007683689, -0.001667335, -0.9965231
AHR2, 315390757, 0.94, -0.03, 203.5, -0.81, 0, 0, -0.2036478, -0.001408182, 0.008158536, 0.9790092
MOTB, 315390784, 1, 1, 0, 1
RCIN, 315390789, 0, 0, 0, 0, 0, 0, 0, 0, 0, 0, 0, 0, 0, 0
RCOU, 315390794, 1239, 1229, 1221, 1245, 0, 0, 0, 0, 0, 0, 0, 0, 0, 0
VIBE, 315390803, 0.6219217, 0.5493432, 0.4867913, 0, 0, 0
CTRL, 315390809, 0.008356989, 0.001568443, 0.001019799, 0.001675728, 0.0004193185
PRX, 315390841, 2, 0.57, 0, 0.58, 0, 3.6, 0, 2.47, 0, 0, 0, 0.57
IMU, 315425836, -0.0007680822, -0.002872108, 0.003221052, 0.2564947, -0.1328422, -10.06604, 0, 0, 35.68906, 1, 1, 1000, 1000
RFND, 315438212, 0.2, 25, 0, 0
IMU, 315466140, 0.0020227, -0.002194274, -0.003314947, 0.05745235, -0.01471077, -10.07179, 0, 0, 35.66226, 1, 1, 1000, 1000
MAG, 315485825, 224, 656, 224, 0, 0, 0, 0, 0, 0, 1, 315485817
RFND, 315488292, 0.2, 25, 0, 0
BARO, 315488329, -0.8776999, 981.0783, 34.36, -0.8573445, 315488, 0, 27.84
CTUN, 315488342, 0, 0, 0, 0.411675, 0.7926446, 0.7926446, -0.87, 0, 0.19, 0, 0, -3
ATT, 315490956, 0, 0.77, 0, 0.05, 189.5, 189.52, 0, 1
