FMT, 128, 89, FMT, BBnNZ, Type,Length,Name,Format,Columns
FMT, 129, 31, PARM, QNf, TimeUS,Name,Value
FMT, 130, 46, GPS, QBIHBcLLefffB, TimeUS,Status,GMS,GWk,NSats,HDop,Lat,Lng,Alt,Spd,GCrs,VZ,U
FMT, 131, 46, GPS2, QBIHBcLLefffB, TimeUS,Status,GMS,GWk,NSats,HDop,Lat,Lng,Alt,Spd,GCrs,VZ,U
FMT, 132, 46, GPSB, QBIHBcLLefffB, TimeUS,Status,GMS,GWk,NSats,HDop,Lat,Lng,Alt,Spd,GCrs,VZ,U
FMT, 193, 24, GPA, QCCCCBI, TimeUS,VDop,HAcc,VAcc,SAcc,VV,SMS
FMT, 194, 24, GPA2, QCCCCBI, TimeUS,VDop,HAcc,VAcc,SAcc,VV,SMS
FMT, 195, 24, GPAB, QCCCCBI, TimeUS,VDop,HAcc,VAcc,SAcc,VV,SMS
FMT, 133, 53, IMU, QffffffIIfBBHH, TimeUS,GyrX,GyrY,GyrZ,AccX,AccY,AccZ,EG,EA,T,GH,AH,GHz,AHz
FMT, 134, 75, MSG, QZ, TimeUS,Message
FMT, 135, 39, RCIN, QHHHHHHHHHHHHHH, TimeUS,C1,C2,C3,C4,C5,C6,C7,C8,C9,C10,C11,C12,C13,C14
FMT, 136, 39, RCOU, QHHHHHHHHHHHHHH, TimeUS,C1,C2,C3,C4,C5,C6,C7,C8,C9,C10,C11,C12,C13,C14
FMT, 137, 15, RSSI, Qf, TimeUS,RXRSSI
FMT, 139, 37, BARO, QffcfIff, TimeUS,Alt,Press,Temp,CRt,SMS,Offset,GndTemp
FMT, 140, 22, POWR, QffHB, TimeUS,Vcc,VServo,Flags,Safety
FMT, 143, 45, CMD, QHHHfffffff, TimeUS,CTot,CNum,CId,Prm1,Prm2,Prm3,Prm4,Lat,Lng,Alt
FMT, 144, 20, RAD, QBBBBBHH, TimeUS,RSSI,RemRSSI,TxBuf,Noise,RemNoise,RxErrors,Fixed
FMT, 146, 43, CAM, QIHLLeeeccC, TimeUS,GPSTime,GPSWeek,Lat,Lng,Alt,RelAlt,GPSAlt,Roll,Pitch,Yaw
FMT, 232, 43, TRIG, QIHLLeeeccC, TimeUS,GPSTime,GPSWeek,Lat,Lng,Alt,RelAlt,GPSAlt,Roll,Pitch,Yaw
FMT, 162, 30, ARSP, QffcffB, TimeUS,Airspeed,DiffPress,Temp,RawPress,Offset,U
FMT, 164, 45, CURR, QfffcHHHHHHHHHH, TimeUS,Volt,Curr,CurrTot,Temp,V1,V2,V3,V4,V5,V6,V7,V8,V9,V10
FMT, 165, 45, CUR2, QfffcHHHHHHHHHH, TimeUS,Volt,Curr,CurrTot,Temp,V1,V2,V3,V4,V5,V6,V7,V8,V9,V10
FMT, 163, 27, ATT, QccccCCCC, TimeUS,DesRoll,Roll,DesPitch,Pitch,DesYaw,Yaw,ErrRP,ErrYaw
FMT, 166, 34, MAG, QhhhhhhhhhBI, TimeUS,MagX,MagY,MagZ,OfsX,OfsY,OfsZ,MOfsX,MOfsY,MOfsZ,Health,S
FMT, 169, 14, MODE, QMBB, TimeUS,Mode,ModeNum,Rsn
FMT, 196, 17, RFND, QCBCB, TimeUS,Dist1,Orient1,Dist2,Orient2
FMT, 223, 33, DMS, IIIIIBBBBBBBBBB, TimeMS,N,Dp,RT,RS,Er,Fa,Fmn,Fmx,Pa,Pmn,Pmx,Sa,Smn,Smx
FMT, 240, 41, BCN, QBBfffffff, TimeUS,Health,Cnt,D0,D1,D2,D3,PosX,PosY,PosZ
FMT, 138, 53, IMU2, QffffffIIfBBHH, TimeUS,GyrX,GyrY,GyrZ,AccX,AccY,AccZ,EG,EA,T,GH,AH,GHz,AHz
FMT, 147, 53, IMU3, QffffffIIfBBHH, TimeUS,GyrX,GyrY,GyrZ,AccX,AccY,AccZ,EG,EA,T,GH,AH,GHz,AHz
FMT, 141, 45, AHR2, QccCfLLffff, TimeUS,Roll,Pitch,Yaw,Alt,Lat,Lng,Q1,Q2,Q3,Q4
FMT, 180, 31, POS, QLLfff, TimeUS,Lat,Lng,Alt,RelHomeAlt,RelOriginAlt
FMT, 142, 45, SIM, QccCfLLffff, TimeUS,Roll,Pitch,Yaw,Alt,Lat,Lng,Q1,Q2,Q3,Q4
FMT, 198, 51, NKF1, QccCfffffffccc, TimeUS,Roll,Pitch,Yaw,VN,VE,VD,dPD,PN,PE,PD,GX,GY,GZ
FMT, 199, 35, NKF2, QbccccchhhhhhB, TimeUS,AZbias,GSX,GSY,GSZ,VWN,VWE,MN,ME,MD,MX,MY,MZ,MI
FMT, 200, 33, NKF3, Qcccccchhhcc, TimeUS,IVN,IVE,IVD,IPN,IPE,IPD,IMX,IMY,IMZ,IYAW,IVT
FMT, 201, 35, NKF4, QcccccfbbHBHHb, TimeUS,SV,SP,SH,SM,SVT,errRP,OFN,OFE,FS,TS,SS,GPS,PI
FMT, 202, 40, NKF5, QBhhhcccCCfff, TimeUS,NI,FIX,FIY,AFI,HAGL,offset,RI,rng,Herr,eAng,eVel,ePos
FMT, 203, 51, NKF6, QccCfffffffccc, TimeUS,Roll,Pitch,Yaw,VN,VE,VD,dPD,PN,PE,PD,GX,GY,GZ
FMT, 204, 35, NKF7, QbccccchhhhhhB, TimeUS,AZbias,GSX,GSY,GSZ,VWN,VWE,MN,ME,MD,MX,MY,MZ,MI
FMT, 205, 33, NKF8, Qcccccchhhcc, TimeUS,IVN,IVE,IVD,IPN,IPE,IPD,IMX,IMY,IMZ,IYAW,IVT
FMT, 206, 35, NKF9, QcccccfbbHBHHb, TimeUS,SV,SP,SH,SM,SVT,errRP,OFN,OFE,FS,TS,SS,GPS,PI
FMT, 207, 36, NKF0, QBccCCcccccccc, TimeUS,ID,rng,innov,SIV,TR,BPN,BPE,BPD,OFH,OFL,OFN,OFE,OFD
FMT, 208, 27, NKQ1, Qffff, TimeUS,Q1,Q2,Q3,Q4
FMT, 209, 27, NKQ2, Qffff, TimeUS,Q1,Q2,Q3,Q4
FMT, 210, 51, XKF1, QccCfffffffccc, TimeUS,Roll,Pitch,Yaw,VN,VE,VD,dPD,PN,PE,PD,GX,GY,GZ
FMT, 211, 34, XKF2, QccccchhhhhhB, TimeUS,AX,AY,AZ,VWN,VWE,MN,ME,MD,MX,MY,MZ,MI
FMT, 212, 33, XKF3, Qcccccchhhcc, TimeUS,IVN,IVE,IVD,IPN,IPE,IPD,IMX,IMY,IMZ,IYAW,IVT
FMT, 213, 35, XKF4, QcccccfbbHBHHb, TimeUS,SV,SP,SH,SM,SVT,errRP,OFN,OFE,FS,TS,SS,GPS,PI
FMT, 214, 40, XKF5, QBhhhcccCCfff, TimeUS,NI,FIX,FIY,AFI,HAGL,offset,RI,rng,Herr,eAng,eVel,ePos
FMT, 215, 51, XKF6, QccCfffffffccc, TimeUS,Roll,Pitch,Yaw,VN,VE,VD,dPD,PN,PE,PD,GX,GY,GZ
FMT, 216, 34, XKF7, QccccchhhhhhB, TimeUS,AX,AY,AZ,VWN,VWE,MN,ME,MD,MX,MY,MZ,MI
FMT, 217, 33, XKF8, Qcccccchhhcc, TimeUS,IVN,IVE,IVD,IPN,IPE,IPD,IMX,IMY,IMZ,IYAW,IVT
FMT, 218, 35, XKF9, QcccccfbbHBHHb, TimeUS,SV,SP,SH,SM,SVT,errRP,OFN,OFE,FS,TS,SS,GPS,PI
FMT, 219, 36, XKF0, QBccCCcccccccc, TimeUS,ID,rng,innov,SIV,TR,BPN,BPE,BPD,OFH,OFL,OFN,OFE,OFD
FMT, 220, 27, XKQ1, Qffff, TimeUS,Q1,Q2,Q3,Q4
FMT, 221, 27, XKQ2, Qffff, TimeUS,Q1,Q2,Q3,Q4
FMT, 222, 35, XKFD, Qffffff, TimeUS,IX,IY,IZ,IVX,IVY,IVZ
FMT, 148, 34, TERR, QBLLHffHH, TimeUS,Status,Lat,Lng,Spacing,TerrH,CHeight,Pending,Loaded
FMT, 149, 18, UBX1, QBHBBH, TimeUS,Instance,noisePerMS,jamInd,aPower,agcCnt
FMT, 150, 16, UBX2, QBbBbB, TimeUS,Instance,ofsI,magI,ofsQ,magQ
FMT, 151, 18, UBY1, QBHBBH, TimeUS,Instance,noisePerMS,jamInd,aPower,agcCnt
FMT, 152, 16, UBY2, QBbBbB, TimeUS,Instance,ofsI,magI,ofsQ,magQ
FMT, 170, 42, GRAW, QIHBBddfBbB, TimeUS,WkMS,Week,numSV,sv,cpMes,prMes,doMes,mesQI,cno,lli
FMT, 171, 24, GRXH, QdHbBB, TimeUS,rcvTime,week,leapS,numMeas,recStat
FMT, 172, 41, GRXS, QddfBBBHBBBBB, TimeUS,prMes,cpMes,doMes,gnss,sv,freq,lock,cno,prD,cpD,doD,trk
FMT, 173, 63, SBFE, QIHBBdddfffff, TimeUS,TOW,WN,Mode,Err,Lat,Lng,Height,Undul,Vn,Ve,Vu,COG
FMT, 153, 19, ESC1, Qcccc, TimeUS,RPM,Volt,Curr,Temp
FMT, 154, 19, ESC2, Qcccc, TimeUS,RPM,Volt,Curr,Temp
FMT, 155, 19, ESC3, Qcccc, TimeUS,RPM,Volt,Curr,Temp
FMT, 156, 19, ESC4, Qcccc, TimeUS,RPM,Volt,Curr,Temp
FMT, 157, 19, ESC5, Qcccc, TimeUS,RPM,Volt,Curr,Temp
FMT, 158, 19, ESC6, Qcccc, TimeUS,RPM,Volt,Curr,Temp
FMT, 159, 19, ESC7, Qcccc, TimeUS,RPM,Volt,Curr,Temp
FMT, 160, 19, ESC8, Qcccc, TimeUS,RPM,Volt,Curr,Temp
FMT, 167, 34, MAG2, QhhhhhhhhhBI, TimeUS,MagX,MagY,MagZ,OfsX,OfsY,OfsZ,MOfsX,MOfsY,MOfsZ,Health,S
FMT, 168, 34, MAG3, QhhhhhhhhhBI, TimeUS,MagX,MagY,MagZ,OfsX,OfsY,OfsZ,MOfsX,MOfsY,MOfsZ,Health,S
FMT, 174, 31, ACC1, QQfff, TimeUS,SampleUS,AccX,AccY,AccZ
FMT, 175, 31, ACC2, QQfff, TimeUS,SampleUS,AccX,AccY,AccZ
FMT, 176, 31, ACC3, QQfff, TimeUS,SampleUS,AccX,AccY,AccZ
FMT, 177, 31, GYR1, QQfff, TimeUS,SampleUS,GyrX,GyrY,GyrZ
FMT, 178, 31, GYR2, QQfff, TimeUS,SampleUS,GyrX,GyrY,GyrZ
FMT, 179, 31, GYR3, QQfff, TimeUS,SampleUS,GyrX,GyrY,GyrZ
FMT, 181, 35, PIDR, Qffffff, TimeUS,Des,P,I,D,FF,AFF
FMT, 182, 35, PIDP, Qffffff, TimeUS,Des,P,I,D,FF,AFF
FMT, 183, 35, PIDY, Qffffff, TimeUS,Des,P,I,D,FF,AFF
FMT, 184, 35, PIDA, Qffffff, TimeUS,Des,P,I,D,FF,AFF
FMT, 185, 35, PIDS, Qffffff, TimeUS,Des,P,I,D,FF,AFF
FMT, 186, 35, PIDL, Qffffff, TimeUS,Des,P,I,D,FF,AFF
FMT, 161, 37, BAR2, QffcfIff, TimeUS,Alt,Press,Temp,CRt,SMS,Offset,GndTemp
FMT, 197, 37, BAR3, QffcfIff, TimeUS,Alt,Press,Temp,CRt,SMS,Offset,GndTemp
FMT, 187, 35, VIBE, QfffIII, TimeUS,VibeX,VibeY,VibeZ,Clip0,Clip1,Clip2
FMT, 188, 47, IMT, Qfffffffff, TimeUS,DelT,DelvT,DelaT,DelAX,DelAY,DelAZ,DelVX,DelVY,DelVZ
FMT, 189, 47, IMT2, Qfffffffff, TimeUS,DelT,DelvT,DelaT,DelAX,DelAY,DelAZ,DelVX,DelVY,DelVZ
FMT, 190, 47, IMT3, Qfffffffff, TimeUS,DelT,DelvT,DelaT,DelAX,DelAY,DelAZ,DelVX,DelVY,DelVZ
FMT, 191, 24, ORGN, QBLLe, TimeUS,Type,Lat,Lng,Alt
FMT, 192, 19, RPM, Qff, TimeUS,rpm1,rpm2
FMT, 233, 47, GMB1, Iffffffffff, TimeMS,dt,dax,day,daz,dvx,dvy,dvz,jx,jy,jz
FMT, 234, 44, GMB2, IBfffffffff, TimeMS,es,ex,ey,ez,rx,ry,rz,tx,ty,tz
FMT, 235, 13, GMB3, Ihhh, TimeMS,rl_torque_cmd,el_torque_cmd,az_torque_cmd
FMT, 236, 59, RATE, Qffffffffffff, TimeUS,RDes,R,ROut,PDes,P,POut,YDes,Y,YOut,ADes,A,AOut
FMT, 237, 23, RALY, QBBLLh, TimeUS,Tot,Seq,Lat,Lng,Alt
FMT, 238, 43, VISO, Qffffffff, TimeUS,dt,AngDX,AngDY,AngDZ,PosDX,PosDY,PosDZ,conf
FMT, 224, 23, SBPH, QIII, TimeUS,CrcError,LastInject,IARhyp
FMT, 229, 80, SBR1, QHHBZ, TimeUS,msg_type,sender_id,msg_len,d1
FMT, 230, 205, SBR2, QHZZZ, TimeUS,msg_type,d2,d3,d4
FMT, 25, 41, ATUN, QBBfffffff, TimeUS,Axis,TuneStep,Targ,Min,Max,RP,RD,SP,ddt
FMT, 26, 19, ATDE, Qff, TimeUS,Angle,Rate
FMT, 31, 22, PTUN, QBfHHH, TimeUS,Param,TunVal,CtrlIn,TunLo,TunHi
FMT, 12, 28, OF, QBffff, TimeUS,Qual,flowX,flowY,bodyX,bodyY
FMT, 5, 51, NTUN, Qffffffffff, TimeUS,DPosX,DPosY,PosX,PosY,DVelX,DVelY,VelX,VelY,DAccX,DAccY
FMT, 4, 51, CTUN, Qffffffeccfhh, TimeUS,ThI,ABst,ThO,ThH,DAlt,Alt,BAlt,DSAlt,SAlt,TAlt,DCRt,CRt
FMT, 6, 32, PM, QHHIhBHII, TimeUS,NLon,NLoop,MaxT,PMT,I2CErr,INSErr,LogDrop,Mem
FMT, 30, 27, MOTB, Qffff, TimeUS,LiftMax,BatVolt,BatRes,ThLimit
FMT, 13, 12, EV, QB, TimeUS,Id
FMT, 20, 14, D16, QBh, TimeUS,Id,Value
FMT, 21, 14, DU16, QBH, TimeUS,Id,Value
FMT, 22, 16, D32, QBi, TimeUS,Id,Value
FMT, 23, 16, DU32, QBI, TimeUS,Id,Value
FMT, 24, 16, DFLT, QBf, TimeUS,Id,Value
FMT, 19, 13, ERR, QBB, TimeUS,Subsys,ECode
FMT, 32, 19, HELI, Qff, TimeUS,DRRPM,ERRPM
FMT, 33, 29, PL, QBBffff, TimeUS,Heal,TAcq,pX,pY,vX,vY
FMT, 34, 36, GUID, QBffffff, TimeUS,Type,pX,pY,pZ,vX,vY,vZ
FMT, 35, 32, THRO, QBffffbbbb, TimeUS,Stage,Vel,VelZ,Acc,AccEfZ,Throw,AttOk,HgtOk,PosOk
FMT, 36, 56, PRX, QBfffffffffff, TimeUS,Health,D0,D45,D90,D135,D180,D225,D270,D315,DUp,CAn,CDis
MODE, 169857237, 100, 100, 2
ATT, 169862790, 0, 0.71, 0, 0.16, 208.2, 208.22, 0, 1
RATE, 169862803, -3.199795, 0.03694449, -0.007632358, -0.7246597, 0.04777433, -0.002001264, 0.004318385, -0.06215541, 0.0002393219, 794.0229, -1.155281, 0
NKF1, 169862812, 0.71, 0.16, 208.21, 0.01463259, -0.007209419, 0.0196055, 0, 0, 0, -0.0388601, -0.02, 0, 0.05
NKF2, 169862812, -28, 0, 0, 0, 0, 0, 0, 0, 0, 0, 0, 0, 0
NKF3, 169862812, 0, 0, 0, 0.01, 0, 0.02, 0, 0, 0, 0, 0
NKF4, 169862812, 0, 0, 0.01, 0, 0, 2.566716E-05, 0, 0, 0, 19, 229, 0, 0
NKF5, 169862812, 0, 0, 0, 0, 0.17, 0.13, 0, 0.19, 0.5, 8.073562E-05, 0.002096426, 0.003710302
NKQ1, 169862812, 0.2436804, 0.008444346, 0.0004079968, -0.9698188
FMT, 254, 47, NKT1, QIffffffff, TimeUS,Cnt,IMUMin,IMUMax,EKFMin,EKFMax,AngMin,AngMax,VelMin,VelM
NKT1, 169862812, 16244, 0.0025, 0.0025, 0.009946994, 0.010888, 0.002000106, 0.03699125, 0.002000127, 0.03699125
AHR2, 169862914, 0.55, 0.13, 215.23, -0.27, 0, 0, -0.3026685, -0.002631494, 0.004256481, 0.9530828
MOTB, 169862924, 1, 1, 0, 1
RCIN, 169862929, 0, 0, 0, 0, 0, 0, 0, 0, 0, 0, 0, 0, 0, 0
RCOU, 169862934, 1101, 1101, 1101, 1101, 0, 0, 0, 0, 0, 0, 0, 0, 0, 0
VIBE, 169862943, 0.02010137, 0.02218447, 0.0317049, 0, 0, 0
FMT, 253, 31, CTRL, Qfffff, TimeUS,RMSRollP,RMSRollD,RMSPitchP,RMSPitchD,RMSYaw
CTRL, 169862949, 0.007541481, 0.0001235406, 0.001721862, 0.0001341644, 0.0001984644
PRX, 169862984, 2, 0.48, 0, 0.56, 0, 3.6, 0, 2.53, 0, 0, 0, 0.48
IMU, 169887212, -0.0008602605, 7.399281E-05, 0.001487999, 0.1569026, -0.0203154, -10.0862, 0, 0, 38.65958, 1, 1, 1000, 1000
MSG, 170007717, APM:Copter V3.5.7 (48b6d6f2)
MSG, 170007722, New mission
MSG, 170007732, Frame: QUAD
MODE, 170007737, Autonomous, 100, 2
IMU, 170009518, -0.0009377096, -0.0004689958, -0.0004668452, 0.1483348, -0.02013963, -10.08922, 0, 0, 38.65384, 1, 1, 1000, 1000
RFND, 170019592, 0.2, 25, 0, 0
IMU, 170049524, -0.0001810319, 0.0007613848, -0.0006261872, 0.1519611, -0.02407622, -10.10173, 0, 0, 38.65182, 1, 1, 1000, 1000
MAG, 170056809, 222, 614, 222, 0, 0, 0, 0, 0, 0, 1, 170056801
BARO, 170056854, -0.1978004, 980.7947, 37.43, 0.2473166, 170056, 0, 35
CTUN, 170056866, 0, 0, 0, 0.377023, 0.0393775, 0.0393775, -0.19, 0, 0.19, 0, 0, -1
ATT, 170064849, 0, 0.71, 0, 0.15, 208.18, 208.2, 0, 1
RATE, 170064860, -3.199297, 0.06651597, -0.00785061, -0.7158963, 0.04292559, -0.001717281, 0.00469329, -0.1120895, 0.0002274007, 732.1534, 1.176357, 0
NKF1, 170064869, 0.71, 0.15, 208.19, 0.01524464, -0.007490825, 0.01807786, 0, 0, 0, -0.03950324, -0.02, 0, 0.05
NKF2, 170064869, -28, 0, 0, 0, 0, 0, 0, 0, 0, 0, 0, 0, 0
NKF3, 170064869, 0, 0, 0, 0.01, 0, 0.02, 0, 0, 0, 0, 0
NKF4, 170064869, 0, 0, 0.01, 0, 0, 2.148427E-05, 0, 0, 0, 19, 229, 0, 0
NKF5, 170064869, 0, 0, 0, 0, 0.17, 0.13, 0, 0.19, 0.5, 5.598174E-05, 0.001146865, 0.001759551
NKQ1, 170064869, 0.2435879, 0.008426767, 0.0004030486, -0.9698422
AHR2, 170064915, 0.55, 0.13, 215.23, -0.19, 0, 0, -0.3026635, -0.002620064, 0.004260683, 0.9530844
MOTB, 170064923, 1, 1, 0, 1
RCIN, 170064928, 0, 0, 0, 0, 0, 0, 0, 0, 0, 0, 0, 0, 0, 0
RCOU, 170064934, 1101, 1101, 1101, 1101, 0, 0, 0, 0, 0, 0, 0, 0, 0, 0
VIBE, 170064942, 0.02103005, 0.02055815, 0.03533527, 0, 0, 0
CTRL, 170064949, 0.007539677, 0.0001275866, 0.001706262, 0.0001279787, 0.0001911842
PRX, 170064981, 2, 0.48, 0, 0.56, 0, 3.6, 0, 2.56, 0, 0, 0, 0.48
RFND, 170069494, 0.2, 25, 0, 0
IMU, 170089530, -0.0006411599, -0.0001305183, -0.0003872414, 0.164795, -0.04099903, -10.0718, 0, 0, 38.64837, 1, 1, 1000, 1000
RFND, 170119546, 0.2, 25, 0, 0
IMU, 170129496, -0.001273454, 0.0001262321, 7.562902E-05, 0.1686169, -0.02328883, -10.08937, 0, 0, 38.64494, 1, 1, 1000, 1000
MAG, 170156788, 225, 614, 223, 0, 0, 0, 0, 0, 0, 1, 170156780
BARO, 170156834, -0.2486633, 980.8002, 37.43, 0.192, 170156, 0, 35
CTUN, 170156846, 0, 0, 0, 0.377023, 0.03969827, 0.03969827, -0.24, 0, 0.19, 0, 0, -1
ATT, 170164767, 0, 0.71, 0, 0.16, 208.18, 208.2, 0, 1
RATE, 170164778, -3.209944, 0.07640774, -0.007581942, -0.7234952, 0.0333294, -0.001895906, 0.004196441, -0.07414583, 0.0002171871, 748.8368, 0.1721382, 0
NKF1, 170164786, 0.71, 0.16, 208.19, 0.01519029, -0.007896819, 0.0184898, 0, 0, 0, -0.03970436, -0.02, 0, 0.05
NKF2, 170164786, -28, 0, 0, 0, 0, 0, 0, 0, 0, 0, 0, 0, 0
NKF3, 170164786, 0, 0, 0, 0.01, 0, 0.02, 0, 0, 0, 0, 0
NKF4, 170164786, 0, 0, 0.01, 0, 0, 1.43129E-05, 0, 0, 0, 19, 229, 0, 0
NKF5, 170164786, 0, 0, 0, 0, 0.17, 0.13, 0, 0.19, 0.5, 4.530594E-05, 0.0008917497, 0.001813981
NKQ1, 170164786, 0.2435347, 0.008447118, 0.0003862014, -0.9698554
AHR2, 170164831, 0.55, 0.14, 215.23, -0.24, 0, 0, -0.3026539, -0.002640994, 0.004276061, 0.9530873
MOTB, 170164840, 1, 1, 0, 1
RCIN, 170164845, 0, 0, 0, 0, 0, 0, 0, 0, 0, 0, 0, 0, 0, 0
RCOU, 170164850, 1101, 1101, 1101, 1101, 0, 0, 0, 0, 0, 0, 0, 0, 0, 0
VIBE, 170164858, 0.02171396, 0.02055118, 0.03352404, 0, 0, 0
CTRL, 170164865, 0.007566052, 0.0001688801, 0.001716129, 0.0001464935, 0.0002053285
PRX, 170164897, 2, 0.48, 0, 0.56, 0, 3.6, 0, 2.56, 0, 0, 0, 0.48
RFND, 170169612, 0.2, 25, 0, 0
IMU, 170169668, 2.071373E-05, 0.0005147447, -0.0002952003, 0.154797, -0.03099057, -10.10055, 0, 0, 38.64191, 1, 1, 1000, 1000
IMU, 170209508, -0.000291154, 0.0002803377, 0.001210774, 0.1564153, -0.02753477, -10.08669, 0, 0, 38.64055, 1, 1, 1000, 1000
RFND, 170219500, 0.2, 25, 0, 0
IMU, 170249691, -0.0006989836, -0.0004115634, -0.001634884, 0.1556464, -0.03757114, -10.08491, 0, 0, 38.64068, 1, 1, 1000, 1000
MAG, 170256806, 224, 616, 227, 0, 0, 0, 0, 0, 0, 1, 170256798
BARO, 170256852, -0.2825719, 980.8038, 37.43, 0.1659755, 170256, 0, 35
CTUN, 170256864, 0, 0, 0, 0.377023, 0.04017948, 0.04017948, -0.28, 0, 0.19, 0, 0, -1
ATT, 170264492, 0, 0.71, 0, 0.16, 208.17, 208.19, 0, 1
RATE, 170264503, -3.208348, -0.08473748, -0.007198469, -0.7250966, 0.07324084, -0.002166355, 0.002723632, -0.07398806, 0.0002407165, 735.3447, -0.2184868, 0
NKF1, 170264511, 0.71, 0.16, 208.18, 0.01556793, -0.007964928, 0.01815666, 0, 0, 0, -0.0402598, -0.02, 0, 0.05
NKF2, 170264511, -28, 0, 0, 0, 0, 0, 0, 0, 0, 0, 0, 0, 0
NKF3, 170264511, 0, 0, 0, 0.01, 0, 0.02, 0, 0, 0, 0, 0
NKF4, 170264511, 0, 0, 0, 0, 0, 9.497472E-06, 0, 0, 0, 19, 229, 0, 0
NKF5, 170264511, 0, 0, 0, 0, 0.17, 0.13, 0, 0.19, 0.5, 3.832311E-05, 0.0008086522, 0.001284555
NKQ1, 170264511, 0.2434825, 0.008449121, 0.0003900627, -0.9698685
AHR2, 170264555, 0.55, 0.14, 215.23, -0.28, 0, 0, -0.3026452, -0.002642297, 0.004273212, 0.95309
MOTB, 170264562, 1, 1, 0, 1
RCIN, 170264567, 0, 0, 0, 0, 0, 0, 0, 0, 0, 0, 0, 0, 0, 0
RCOU, 170264572, 1101, 1101, 1101, 1101, 0, 0, 0, 0, 0, 0, 0, 0, 0, 0
VIBE, 170264581, 0.02038235, 0.02323885, 0.03329289, 0, 0, 0
CTRL, 170264588, 0.00756589, 0.0001842168, 0.00171714, 0.0001522028, 0.0002094038
PRX, 170264618, 2, 0.48, 0, 0.56, 0, 3.6, 0, 2.53, 0, 0, 0, 0.48
RFND, 170269489, 0.2, 25, 0, 0
IMU, 170289539, -0.0003403628, -0.001086723, 0.0001775304, 0.1522176, -0.03259329, -10.05799, 0, 0, 38.63976, 1, 1, 1000, 1000
RFND, 170319418, 0.2, 25, 0, 0
IMU, 170329497, 0.0006909897, -4.046807E-05, -0.0004937423, 0.1625383, -0.03302944, -10.07386, 0, 0, 38.63778, 1, 1, 1000, 1000
DU32, 170354763, 7, 50389208
MAG, 170356924, 221, 615, 222, 0, 0, 0, 0, 0, 0, 1, 170356916
BARO, 170356969, -0.2656176, 980.8021, 37.43, 0.02450621, 170356, 0, 35
CTUN, 170356982, 0, 0, 0, 0.377023, 0.04037966, 0.04037966, -0.26, 0, 0.19, 0, 0, -1
ATT, 170364848, 0, 0.71, 0, 0.16, 208.17, 208.18, 0, 1
RATE, 170364858, -3.225033, 0.0780153, -0.007759237, -0.7220802, 0.05488282, -0.002164927, 0.007246718, -0.1043589, 0.0002384899, 740.5746, 1.230335, 0
NKF1, 170364866, 0.71, 0.16, 208.17, 0.01653084, -0.008094115, 0.01828579, 0, 0, 0, -0.04049524, -0.02, 0, 0.05
NKF2, 170364866, -28, 0, 0, 0, 0, 0, 0, 0, 0, 0, 0, 0, 0
NKF3, 170364866, 0, 0, 0, 0.01, 0, 0.02, 0, 0, 0, 0, 0
NKF4, 170364866, 0, 0, 0, 0, 0, 6.395679E-06, 0, 0, 0, 19, 229, 0, 0
NKF5, 170364866, 0, 0, 0, 0, 0.17, 0.13, 0, 0.19, 0.5, 3.561317E-05, 0.000978084, 0.002008292
NKQ1, 170364866, 0.2434217, 0.00845132, 0.000355071, -0.9698837
AHR2, 170364909, 0.56, 0.13, 215.23, -0.26, 0, 0, -0.3026278, -0.002648009, 0.004313164, 0.9530954
MOTB, 170364916, 1, 1, 0, 1
RCIN, 170364921, 0, 0, 0, 0, 0, 0, 0, 0, 0, 0, 0, 0, 0, 0
RCOU, 170364926, 1101, 1101, 1101, 1101, 0, 0, 0, 0, 0, 0, 0, 0, 0, 0
VIBE, 170364934, 0.02299745, 0.02123427, 0.03652557, 0, 0, 0
CTRL, 170364941, 0.007589857, 0.0001698877, 0.001703979, 0.0001688947, 0.0002079819
PRX, 170364972, 2, 0.48, 0, 0.56, 0, 3.6, 0, 2.56, 0, 0, 0, 0.48
RFND, 170369461, 0.2, 25, 0, 0
IMU, 170369518, 0.001142433, 0.001229017, -0.0008082205, 0.1521026, -0.01742494, -10.10303, 0, 0, 38.63568, 1, 1, 1000, 1000
IMU, 170409855, -0.000322651, 0.0003994556, 8.953724E-05, 0.1521813, -0.01361313, -10.08633, 0, 0, 38.63323, 1, 1, 1000, 1000
RFND, 170419681, 0.2, 25, 0, 0
IMU, 170449720, -0.0009136221, -0.0005801804, 0.0002244676, 0.1613865, -0.03208188, -10.08494, 0, 0, 38.63069, 1, 1, 1000, 1000
MAG, 170456677, 219, 615, 220, 0, 0, 0, 0, 0, 0, 1, 170456669
BARO, 170456719, -0.231709, 980.7988, 37.43, -0.1184437, 170456, 0, 35
CTUN, 170456731, 0, 0, 0, 0.377023, 0.0408926, 0.0408926, -0.23, 0, 0.19, 0, 0, -1
ATT, 170464528, 0, 0.71, 0, 0.16, 208.16, 208.18, 0, 1
RATE, 170464538, -3.224302, -0.06994129, -0.007244784, -0.7307546, 0.03414285, -0.001953705, 0.004681436, -0.1015597, 0.0002027532, 749.8521, -0.6373405, 0
NKF1, 170464547, 0.71, 0.16, 208.17, 0.01799355, -0.008447316, 0.01851487, 0, 0, 0, -0.04097666, -0.02, 0, 0.05
NKF2, 170464547, -28, 0, 0, 0, 0, 0, 0, 0, 0, 0, 0, 0, 0
NKF3, 170464547, 0, 0, 0, 0.01, 0, 0.02, 0, 0, 0, 0, 0
NKF4, 170464547, 0, 0, 0, 0, 0, 4.324635E-06, 0, 0, 0, 19, 229, 0, 0
NKF5, 170464547, 0, 0, 0, 0, 0.17, 0.13, 0, 0.19, 0.5, 3.555292E-05, 0.0008616732, 0.001667385
NKQ1, 170464547, 0.2433715, 0.008466526, 0.0003618057, -0.9698961
AHR2, 170464592, 0.56, 0.14, 215.23, -0.23, 0, 0, -0.3026206, -0.002661315, 0.004308955, 0.9530977
MOTB, 170464598, 1, 1, 0, 1
RCIN, 170464603, 0, 0, 0, 0, 0, 0, 0, 0, 0, 0, 0, 0, 0, 0
RCOU, 170464609, 1101, 1101, 1101, 1101, 0, 0, 0, 0, 0, 0, 0, 0, 0, 0
VIBE, 170464617, 0.01983782, 0.02108818, 0.03622454, 0, 0, 0
CTRL, 170464624, 0.007601683, 0.0001610202, 0.00173019, 0.0001706726, 0.0002143987
PRX, 170464655, 2, 0.48, 0, 0.56, 0, 3.6, 0, 2.53, 0, 0, 0, 0.48
RFND, 170469325, 0.2, 25, 0, 0
IMU, 170489434, -0.0009661772, -0.0006909582, 0.001208867, 0.1472143, -0.01933862, -10.07204, 0, 0, 38.62889, 1, 1, 1000, 1000
RFND, 170519272, 0.2, 25, 0, 0
IMU, 170529421, -0.0004505498, 0.0001958434, 0.0006157109, 0.1673366, -0.04414811, -10.07136, 0, 0, 38.62753, 1, 1, 1000, 1000
MAG, 170556861, 222, 617, 222, 0, 0, 0, 0, 0, 0, 1, 170556852
BARO, 170556906, -0.3560407, 980.8121, 37.43, -0.09704024, 170556, 0, 35
CTUN, 170556918, 0, 0, 0, 0.377023, 0.04107882, 0.04107882, -0.35, 0, 0.19, 0, 0, -1
ATT, 170564390, 0, 0.71, 0, 0.16, 208.15, 208.17, 0, 1
RATE, 170564400, -3.224889, -0.01154593, -0.00743498, -0.7227243, 0.007315096, -0.001527634, 0.005297454, -0.1382302, 0.0002080535, 732.8272, 1.255131, 0
NKF1, 170564408, 0.71, 0.16, 208.16, 0.01859227, -0.009017138, 0.0180945, 0, 0, 0, -0.04118347, -0.02, 0, 0.05
NKF2, 170564408, -28, 0, 0, 0, 0, 0, 0, 0, 0, 0, 0, 0, 0
NKF3, 170564408, 0, 0, 0, 0.01, 0, 0.02, 0, 0, 0, 0, 0
NKF4, 170564408, 0, 0, 0, 0, 0, 2.96145E-06, 0, 0, 0, 19, 229, 0, 0
NKF5, 170564408, 0, 0, 0, 0, 0.17, 0.13, 0, 0.19, 0.5, 3.630123E-05, 0.0008229482, 0.001721426
NKQ1, 170564408, 0.2433256, 0.008451477, 0.0003549622, -0.9699078
AHR2, 170564454, 0.56, 0.13, 215.23, -0.35, 0, 0, -0.3026188, -0.002638689, 0.004315582, 0.9530983
MOTB, 170564461, 1, 1, 0, 1
RCIN, 170564466, 0, 0, 0, 0, 0, 0, 0, 0, 0, 0, 0, 0, 0, 0
RCOU, 170564472, 1101, 1101, 1101, 1101, 0, 0, 0, 0, 0, 0, 0, 0, 0, 0
VIBE, 170564480, 0.01852561, 0.02118848, 0.03730123, 0, 0, 0
CTRL, 170564487, 0.007601449, 0.0001891669, 0.001716481, 0.0001820146, 0.0002038109
PRX, 170564518, 2, 0.48, 0, 0.56, 0, 3.6, 0, 2.53, 0, 0, 0, 0.48
RFND, 170569327, 0.2, 25, 0, 0
IMU, 170569375, -0.0009369213, 2.313467E-05, -0.001298991, 0.1606045, -0.01666475, -10.09589, 0, 0, 38.62601, 1, 1, 1000, 1000
IMU, 170609410, -0.0008349687, -0.0004008837, -0.001085637, 0.1651399, -0.02817112, -10.0773, 0, 0, 38.62479, 1, 1, 1000, 1000
RFND, 170619384, 0.2, 25, 0, 0
IMU, 170649318, 0.0006301146, 0.001471254, -0.0002702929, 0.1596155, -0.03132544, -10.0577, 0, 0, 38.62457, 1, 1, 1000, 1000
MAG, 170657450, 222, 611, 220, 0, 0, 0, 0, 0, 0, 1, 170657442
BARO, 170657495, -0.2825719, 980.8038, 37.43, -0.08119536, 170657, 0, 35
CTUN, 170657507, 0, 0, 0, 0.377023, 0.04133612, 0.04133612, -0.28, 0, 0.19, 0, 0, -1
ATT, 170664356, 0, 0.71, 0, 0.16, 208.15, 208.16, 0, 1
RATE, 170664367, -3.230746, -0.01460888, -0.007294379, -0.7347936, 0.06832992, -0.001717318, 0.00665263, -0.04113143, 0.0002469338, 773.7479, -3.460407, 0
NKF1, 170664375, 0.71, 0.16, 208.15, 0.01850929, -0.009494436, 0.01910488, 0, 0, 0, -0.04137188, -0.02, 0, 0.05
NKF2, 170664375, -28, 0, 0, 0, 0, 0, 0, 0, 0, 0, 0, 0, 0
NKF3, 170664375, 0, 0, 0, 0.01, 0, 0.02, 0, 0, 0, 0, 0
NKF4, 170664375, 0, 0, 0, 0, 0, 2.053135E-06, 0, 0, 0, 19, 229, 0, 0
NKF5, 170664375, 0, 0, 0, 0, 0.17, 0.13, 0, 0.19, 0.5, 3.714866E-05, 0.0009874002, 0.002104245
NKQ1, 170664375, 0.2432532, 0.008478551, 0.0003512208, -0.9699257
AHR2, 170664418, 0.56, 0.14, 215.22, -0.28, 0, 0, -0.3025903, -0.00265985, 0.004316566, 0.9531072
MOTB, 170664425, 1, 1, 0, 1
RCIN, 170664430, 0, 0, 0, 0, 0, 0, 0, 0, 0, 0, 0, 0, 0, 0
RCOU, 170664435, 1101, 1101, 1101, 1101, 0, 0, 0, 0, 0, 0, 0, 0, 0, 0
VIBE, 170664444, 0.0193018, 0.01965029, 0.03598923, 0, 0, 0
CTRL, 170664450, 0.007610983, 0.0001747189, 0.001741178, 0.0001775332, 0.000230469
PRX, 170664481, 2, 0.48, 0, 0.56, 0, 3.6, 0, 2.54, 0, 0, 0, 0.48
RFND, 170669334, 0.2, 25, 0, 0
IMU, 170689466, -0.0003589923, -0.0003585616, -0.000285852, 0.1706911, -0.02634456, -10.10372, 0, 0, 38.62536, 1, 1, 1000, 1000
RFND, 170719411, 0.2, 25, 0, 0
IMU, 170729304, -0.001811539, -0.0008151305, 0.0003709588, 0.1597145, -0.01328601, -10.08456, 0, 0, 38.62621, 1, 1, 1000, 1000
MAG, 170756756, 221, 619, 218, 0, 0, 0, 0, 0, 0, 1, 170756748
BARO, 170756799, -0.3447378, 980.8105, 37.43, -0.1713092, 170756, 0, 35
CTUN, 170756811, 0, 0, 0, 0.377023, 0.04146213, 0.04146213, -0.34, 0, 0.19, 0, 0, -1
ATT, 170764629, 0, 0.71, 0, 0.16, 208.14, 208.16, 0, 1
RATE, 170764639, -3.216309, -0.02416228, -0.007615112, -0.7334529, -0.01026232, -0.00145296, 0.005176183, -0.02298736, 0.0001852496, 777.112, -0.5239487, 0
NKF1, 170764647, 0.71, 0.16, 208.15, 0.01862896, -0.01008674, 0.01918795, 0, 0, 0, -0.04155011, -0.02, 0, 0.05
NKF2, 170764647, -28, 0, 0, 0, 0, 0, 0, 0, 0, 0, 0, 0, 0
NKF3, 170764647, 0, 0, 0, 0.02, 0, 0.02, 0, 0, 0, 0, 0
NKF4, 170764647, 0, 0, 0, 0, 0, 1.467977E-06, 0, 0, 0, 19, 229, 0, 0
NKF5, 170764647, 0, 0, 0, 0, 0.17, 0.13, 0, 0.19, 0.5, 3.735729E-05, 0.0007955498, 0.001678701
NKQ1, 170764647, 0.2432145, 0.008470192, 0.0003765356, -0.9699355
AHR2, 170764692, 0.56, 0.14, 215.22, -0.34, 0, 0, -0.3025953, -0.002651062, 0.00429138, 0.9531058
MOTB, 170764700, 1, 1, 0, 1
RCIN, 170764705, 0, 0, 0, 0, 0, 0, 0, 0, 0, 0, 0, 0, 0, 0
RCOU, 170764710, 1101, 1101, 1101, 1101, 0, 0, 0, 0, 0, 0, 0, 0, 0, 0
VIBE, 170764718, 0.02058635, 0.02245404, 0.03587241, 0, 0, 0
CTRL, 170764726, 0.007582526, 0.0001795622, 0.001744738, 0.0001861629, 0.0002261753
PRX, 170764758, 2, 0.48, 0, 0.56, 0, 3.6, 0, 2.51, 0, 0, 0, 0.48
RFND, 170769379, 0.2, 25, 0, 0
IMU, 170769430, -0.001384475, -0.0003405675, 0.0001849296, 0.1675746, -0.03387193, -10.09011, 0, 0, 38.62691, 1, 1, 1000, 1000
IMU, 170809345, 4.884314E-05, 5.248879E-05, -0.001124395, 0.1595571, -0.02999505, -10.08276, 0, 0, 38.62636, 1, 1, 1000, 1000
RFND, 170819995, 0.2, 25, 0, 0
IMU, 170849375, 0.0002425681, 0.0005714007, -0.0006832771, 0.1598925, -0.01155756, -10.08863, 0, 0, 38.6253, 1, 1, 1000, 1000
MAG, 170857206, 221, 621, 218, 0, 0, 0, 0, 0, 0, 1, 170857198
BARO, 170857250, -0.3108292, 980.8071, 37.43, -0.1867938, 170857, 0, 35
CTUN, 170857263, 0, 0, 0, 0.377023, 0.0414221, 0.0414221, -0.31, 0, 0.19, 0, 0, -1
ATT, 170864341, 0, 0.71, 0, 0.16, 208.13, 208.15, 0, 1
RATE, 170864350, -3.216768, 0.009880073, -0.007575502, -0.7421663, 0.01497354, -0.001820916, 0.00676939, -0.07286823, 0.0002380296, 779.7407, -0.2714157, 0
NKF1, 170864358, 0.71, 0.16, 208.14, 0.01946982, -0.01082939, 0.01925286, 0, 0, 0, -0.04141862, -0.02, 0, 0.05
NKF2, 170864358, -28, 0, 0, 0, 0, 0, 0, 0, 0, 0, 0, 0, 0
NKF3, 170864358, 0, 0, 0, 0.02, 0, 0.02, 0, 0, 0, 0, 0
NKF4, 170864358, 0, 0, 0, 0, 0, 1.083625E-06, 0, 0, 0, 19, 229, 0, 0
NKF5, 170864358, 0, 0, 0, 0, 0.17, 0.13, 0, 0.19, 0.5, 3.752115E-05, 0.00105315, 0.002405312
NKQ1, 170864358, 0.2431507, 0.008485836, 0.0003784308, -0.9699513
AHR2, 170864401, 0.56, 0.14, 215.22, -0.31, 0, 0, -0.3025759, -0.002667473, 0.004287429, 0.9531119
MOTB, 170864408, 1, 1, 0, 1
RCIN, 170864413, 0, 0, 0, 0, 0, 0, 0, 0, 0, 0, 0, 0, 0, 0
RCOU, 170864418, 1101, 1101, 1101, 1101, 0, 0, 0, 0, 0, 0, 0, 0, 0, 0
VIBE, 170864427, 0.0226751, 0.02294961, 0.03246449, 0, 0, 0
CTRL, 170864434, 0.007576023, 0.0001737329, 0.001754549, 0.0001727869, 0.000218905
PRX, 170864465, 2, 0.48, 0, 0.56, 0, 3.6, 0, 2.54, 0, 0, 0, 0.48
RFND, 170869345, 0.2, 25, 0, 0
IMU, 170889464, 0.0007400282, 0.0002150724, -0.001069054, 0.155618, -0.02466165, -10.08366, 0, 0, 38.62503, 1, 1, 1000, 1000
RFND, 170919393, 0.2, 25, 0, 0
IMU, 170929388, -0.0003120711, 0.0002966953, 0.0006718171, 0.1611584, -0.02717084, -10.1047, 0, 0, 38.62492, 1, 1, 1000, 1000
MAG, 170956750, 219, 614, 222, 0, 0, 0, 0, 0, 0, 1, 170956742
BARO, 170956794, -0.3334349, 980.8097, 37.44, -0.1021857, 170956, 0, 35
CTUN, 170956805, 0, 0, 0, 0.377023, 0.0416242, 0.0416242, -0.33, 0, 0.19, 0, 0, -1
ATT, 170964531, 0, 0.71, 0, 0.16, 208.13, 208.15, 0, 1
RATE, 170964541, -3.219928, -0.01936357, -0.007783702, -0.7444625, 0.02718685, -0.001840755, 0.005048777, -0.04942266, 0.0002173149, 751.75, -1.566219, 0
NKF1, 170964549, 0.71, 0.16, 208.14, 0.02027283, -0.01139354, 0.01856173, 0, 0, 0, -0.04167768, -0.02, 0, 0.05
NKF2, 170964549, -28, 0, 0, 0, 0, 0, 0, 0, 0, 0, 0, 0, 0
NKF3, 170964549, 0, 0, 0, 0.02, -0.01, 0.02, 0, 0, 0, 0, 0
NKF4, 170964549, 0, 0, 0, 0, 0, 8.55826E-07, 0, 0, 0, 19, 229, 0, 0
NKF5, 170964549, 0, 0, 0, 0, 0.17, 0.13, 0, 0.19, 0.5, 3.719097E-05, 0.0007832929, 0.001709536
NKQ1, 170964549, 0.2430953, 0.008491476, 0.0003747296, -0.9699652
AHR2, 170964593, 0.56, 0.14, 215.22, -0.33, 0, 0, -0.3025638, -0.002675036, 0.004289047, 0.9531158
MOTB, 170964601, 1, 1, 0, 1
RCIN, 170964605, 0, 0, 0, 0, 0, 0, 0, 0, 0, 0, 0, 0, 0, 0
RCOU, 170964611, 1101, 1101, 1101, 1101, 0, 0, 0, 0, 0, 0, 0, 0, 0, 0
VIBE, 170964619, 0.02047895, 0.0189392, 0.03242378, 0, 0, 0
CTRL, 170964626, 0.0075772, 0.0001689641, 0.001758463, 0.0001572663, 0.0002307239
PRX, 170964657, 2, 0.48, 0, 0.57, 0, 3.6, 0, 2.53, 0, 0, 0, 0.48
RFND, 170969449, 0.2, 25, 0, 0
IMU, 170969503, -0.000373815, 0.0003214931, 0.0004922025, 0.1562481, -0.02742773, -10.07574, 0, 0, 38.62521, 1, 1, 1000, 1000
IMU, 171009483, -0.001476801, -2.606632E-05, 0.0005256212, 0.145738, -0.01827225, -10.07365, 0, 0, 38.62492, 1, 1, 1000, 1000
RFND, 171019297, 0.2, 25, 0, 0
IMU, 171049446, -0.0006377525, -0.001103479, -0.001363006, 0.1486408, -0.02274675, -10.10343, 0, 0, 38.62503, 1, 1, 1000, 1000
MAG, 171056694, 220, 616, 223, 0, 0, 0, 0, 0, 0, 1, 171056686
BARO, 171056735, -0.2882234, 980.8047, 37.44, -0.03355547, 171056, 0, 35
CTUN, 171056748, 0, 0, 0, 0.377023, 0.04146349, 0.04146349, -0.28, 0, 0.19, 0, 0, -1
ATT, 171064342, 0, 0.71, 0, 0.16, 208.12, 208.14, 0, 1
RATE, 171064351, -3.22324, 0.06588455, -0.008012884, -0.7407669, -0.02323679, -0.001700472, 0.005184955, -0.02359062, 0.0001974037, 742.5218, -0.4530907, 0
NKF1, 171064359, 0.71, 0.16, 208.13, 0.02155187, -0.01190314, 0.01833387, 0, 0, 0, -0.04147201, -0.02, 0, 0.05
NKF2, 171064359, -28, 0, 0, 0, 0, 0, 0, 0, 0, 0, 0, 0, 0
NKF3, 171064359, 0, 0, 0, 0.02, -0.01, 0.02, 0, 0, 0, 0, 0
NKF4, 171064359, 0, 0, 0, 0, 0, 7.093893E-07, 0, 0, 0, 19, 229, 0, 0
NKF5, 171064359, 0, 0, 0, 0, 0.17, 0.13, 0, 0.19, 0.5, 3.709449E-05, 0.001087439, 0.00259762
NKQ1, 171064359, 0.2430588, 0.008486963, 0.0003661615, -0.9699744
AHR2, 171064403, 0.56, 0.14, 215.22, -0.28, 0, 0, -0.3025709, -0.002671356, 0.004296114, 0.9531134
MOTB, 171064410, 1, 1, 0, 1
RCIN, 171064414, 0, 0, 0, 0, 0, 0, 0, 0, 0, 0, 0, 0, 0, 0
RCOU, 171064420, 1101, 1101, 1101, 1101, 0, 0, 0, 0, 0, 0, 0, 0, 0, 0
VIBE, 171064429, 0.01905876, 0.01986842, 0.03624241, 0, 0, 0
CTRL, 171064436, 0.007578767, 0.0001875194, 0.0017489, 0.0001571852, 0.0002138518
PRX, 171064467, 2, 0.48, 0, 0.56, 0, 3.6, 0, 2.54, 0, 0, 0, 0.48
RFND, 171069556, 0.2, 25, 0, 0
IMU, 171089353, -0.000240174, 0.0005251787, 0.0004470283, 0.156425, -0.02356234, -10.08345, 0, 0, 38.62435, 1, 1, 1000, 1000
RFND, 171119299, 0.2, 25, 0, 0
IMU, 171129303, 2.826747E-05, 0.0001171897, -0.0006167367, 0.154729, -0.02154513, -10.07384, 0, 0, 38.62368, 1, 1, 1000, 1000
MAG, 171156741, 221, 616, 218, 0, 0, 0, 0, 0, 0, 1, 171156733
BARO, 171156784, -0.3786464, 980.8147, 37.44, 0.003514457, 171156, 0, 35
CTUN, 171156795, 0, 0, 0, 0.377023, 0.04175118, 0.04175118, -0.37, 0, 0.19, 0, 0, -1
ATT, 171164336, 0, 0.71, 0, 0.16, 208.12, 208.13, 0, 1
RATE, 171164346, -3.2353, 0.054724, -0.00776491, -0.7469659, -0.003841868, -0.00176847, 0.006028508, -0.05563449, 0.0002236658, 770.5395, -1.481438, 0
NKF1, 171164353, 0.71, 0.16, 208.12, 0.02245416, -0.01272774, 0.01902567, 0, 0, 0, -0.04180296, -0.02, 0, 0.05
NKF2, 171164353, -28, 0, 0, 0, 0, 0, 0, 0, 0, 0, 0, 0, 0
NKF3, 171164353, 0, 0, 0, 0.02, -0.01, 0.02, 0, 0, 0, 0, 0
NKF4, 171164353, 0, 0, 0, 0, 0, 6.535663E-07, 0, 0, 0, 19, 229, 0, 0
NKF5, 171164353, 0, 0, 0, 0, 0.17, 0.13, 0, 0.19, 0.5, 3.655865E-05, 0.0007723465, 0.001756779
NKQ1, 171164353, 0.242998, 0.008504041, 0.0003446502, -0.9699895
AHR2, 171164396, 0.56, 0.14, 215.22, -0.37, 0, 0, -0.302554, -0.00268482, 0.0043148, 0.9531187
MOTB, 171164403, 1, 1, 0, 1
RCIN, 171164408, 0, 0, 0, 0, 0, 0, 0, 0, 0, 0, 0, 0, 0, 0
RCOU, 171164413, 1101, 1101, 1101, 1101, 0, 0, 0, 0, 0, 0, 0, 0, 0, 0
VIBE, 171164421, 0.01993586, 0.02250924, 0.03963932, 0, 0, 0
CTRL, 171164428, 0.007610076, 0.0001644954, 0.001762758, 0.0001423051, 0.0002110189
PRX, 171164460, 2, 0.48, 0, 0.56, 0, 3.6, 0, 2.54, 0, 0, 0, 0.48
RFND, 171169287, 0.2, 25, 0, 0
IMU, 171169333, -0.0001513591, 0.0006159592, -0.0007120362, 0.1598772, -0.01929594, -10.084, 0, 0, 38.62409, 1, 1, 1000, 1000
IMU, 171209383, -0.0009473346, -0.0004376549, -0.0008542661, 0.1571429, -0.03367216, -10.10776, 0, 0, 38.62378, 1, 1, 1000, 1000
RFND, 171219312, 0.2, 25, 0, 0
IMU, 171249437, 0.0005561032, 1.442698E-05, -0.0003904087, 0.1520555, -0.03161754, -10.07069, 0, 0, 38.6248, 1, 1, 1000, 1000
MAG, 171256707, 219, 620, 220, 0, 0, 0, 0, 0, 0, 1, 171256699
BARO, 171256749, -0.4464637, 980.8219, 37.44, -0.0581884, 171256, 0, 35
CTUN, 171256761, 0, 0, 0, 0.377023, 0.041537, 0.041537, -0.44, 0, 0.19, 0, 0, -1
ATT, 171264646, 0, 0.71, 0, 0.17, 208.11, 208.13, 0, 1
RATE, 171264657, -3.229743, -0.01000471, -0.007413723, -0.7654447, 0.04609878, -0.002009986, 0.004644804, -0.0470539, 0.0002415392, 790.5325, -2.595425, 0
NKF1, 171264665, 0.71, 0.17, 208.12, 0.02327392, -0.01307588, 0.01951932, 0, 0, 0, -0.04165003, -0.02, 0, 0.05
NKF2, 171264665, -28, 0, 0, 0, 0, 0, 0, 0, 0, 0, 0, 0, 0
NKF3, 171264665, 0, 0, 0, 0.03, -0.01, 0.02, 0, 0, 0, 0, 0
NKF4, 171264665, 0, 0, 0, 0, 0, 6.266777E-07, 0, 0, 0, 19, 229, 0, 0
NKF5, 171264665, 0, 0, 0, 0, 0.17, 0.13, 0, 0.19, 0.5, 3.600648E-05, 0.0007430301, 0.001699984
NKQ1, 171264665, 0.2429367, 0.008536595, 0.0003630005, -0.9700045
AHR2, 171264709, 0.56, 0.14, 215.22, -0.44, 0, 0, -0.3025366, -0.00271169, 0.004292649, 0.9531242
MOTB, 171264717, 1, 1, 0, 1
RCIN, 171264721, 0, 0, 0, 0, 0, 0, 0, 0, 0, 0, 0, 0, 0, 0
RCOU, 171264726, 1101, 1101, 1101, 1101, 0, 0, 0, 0, 0, 0, 0, 0, 0, 0
VIBE, 171264735, 0.02310866, 0.02068258, 0.03934377, 0, 0, 0
CTRL, 171264743, 0.007604909, 0.0001688073, 0.001804459, 0.0001776285, 0.0002258767
PRX, 171264773, 2, 0.48, 0, 0.56, 0, 3.6, 0, 2.54, 0, 0, 0, 0.48
RFND, 171269495, 0.2, 25, 0, 0
IMU, 171289391, -0.001162816, 0.001107506, -0.0006825546, 0.1572547, -0.02748729, -10.0859, 0, 0, 38.6258, 1, 1, 1000, 1000
RFND, 171319734, 0.2, 25, 0, 0
IMU, 171329354, -0.0001486544, -0.0007070757, 0.0007678237, 0.1493609, -0.006520758, -10.08419, 0, 0, 38.62531, 1, 1, 1000, 1000
DU32, 171354702, 7, 50389208
MAG, 171356926, 220, 611, 221, 0, 0, 0, 0, 0, 0, 1, 171356917
BARO, 171356971, -0.4182065, 980.8186, 37.44, -0.26357, 171356, 0, 35
CTUN, 171356982, 0, 0, 0, 0.377023, 0.04171191, 0.04171191, -0.41, 0, 0.19, 0, 0, -1
ATT, 171364412, 0, 0.71, 0, 0.17, 208.1, 208.12, 0, 1
RATE, 171364420, -3.229365, -0.03912011, -0.007239016, -0.782334, 0.08326011, -0.002089407, 0.005430134, -0.105357, 0.0002121968, 769.1086, 0.321579, 0
NKF1, 171364428, 0.71, 0.17, 208.11, 0.02429987, -0.01397629, 0.01899034, 0, 0, 0, -0.04174843, -0.02, 0, 0.05
NKF2, 171364428, -28, 0, 0, 0, 0, 0, 0, 0, 0, 0, 0, 0, 0
NKF3, 171364428, 0, 0, 0, 0.03, -0.01, 0.02, 0, 0, 0, 0, 0
NKF4, 171364428, 0, 0, 0, 0, 0, 6.513685E-07, 0, 0, 0, 19, 229, 0, 0
NKF5, 171364428, 0, 0, 0, 0, 0.17, 0.13, 0, 0.19, 0.5, 3.596045E-05, 0.0007735349, 0.001814733
NKQ1, 171364428, 0.2428854, 0.008566252, 0.0003718085, -0.9700171
AHR2, 171364472, 0.56, 0.15, 215.22, -0.41, 0, 0, -0.302529, -0.002737693, 0.0042798, 0.9531267
MOTB, 171364480, 1, 1, 0, 1
RCIN, 171364484, 0, 0, 0, 0, 0, 0, 0, 0, 0, 0, 0, 0, 0, 0
RCOU, 171364490, 1101, 1101, 1101, 1101, 0, 0, 0, 0, 0, 0, 0, 0, 0, 0
VIBE, 171364498, 0.02229327, 0.02058441, 0.03806295, 0, 0, 0
CTRL, 171364505, 0.007610723, 0.0001775505, 0.00184123, 0.0001842274, 0.0002177167
PRX, 171364536, 2, 0.48, 0, 0.56, 0, 3.6, 0, 2.5, 0, 0, 0, 0.48
RFND, 171369372, 0.2, 25, 0, 0
IMU, 171369420, -0.001478834, 0.0007398438, -0.001195381, 0.1648573, -0.02813677, -10.08896, 0, 0, 38.62543, 1, 1, 1000, 1000
IMU, 171409646, -0.001318306, -0.0005039385, 0.0002802027, 0.16318, -0.02667449, -10.08249, 0, 0, 38.62543, 1, 1, 1000, 1000
RFND, 171419807, 0.2, 25, 0, 0
IMU, 171449688, -0.0005942412, 0.001047894, -0.0003938519, 0.1537344, -0.01219985, -10.09208, 0, 0, 38.62576, 1, 1, 1000, 1000
MAG, 171457708, 222, 620, 221, 0, 0, 0, 0, 0, 0, 1, 171457700
BARO, 171457755, -0.3956007, 980.8164, 37.44, -0.379706, 171457, 0, 35
CTUN, 171457766, 0, 0, 0, 0.377023, 0.04159932, 0.04159932, -0.39, 0, 0.19, 0, 0, -1
ATT, 171464733, 0, 0.71, 0, 0.17, 208.09, 208.11, 0, 1
RATE, 171464744, -3.226263, -0.01967409, -0.007564228, -0.7900151, 0.0254452, -0.001787505, 0.007381717, -0.07556004, 0.0002629844, 768.443, -0.3391266, 0
NKF1, 171464753, 0.71, 0.17, 208.1, 0.02533575, -0.01473492, 0.0189739, 0, 0, 0, -0.04169695, -0.02, 0, 0.05
NKF2, 171464753, -28, 0, 0, 0, 0, 0, 0, 0, 0, 0, 0, 0, 0
NKF3, 171464753, 0, 0, 0, 0.03, -0.01, 0.02, 0, 0, 0, 0, 0
NKF4, 171464753, 0, 0, 0, 0, 0, 6.921816E-07, 0, 0, 0, 19, 229, 0, 0
NKF5, 171464753, 0, 0, 0, 0, 0.17, 0.13, 0, 0.19, 0.5, 3.566372E-05, 0.0006097385, 0.001397244
NKQ1, 171464753, 0.2428124, 0.008580448, 0.0003799826, -0.9700353
AHR2, 171464797, 0.56, 0.15, 215.21, -0.39, 0, 0, -0.3025002, -0.002748225, 0.004267486, 0.9531358
MOTB, 171464804, 1, 1, 0, 1
RCIN, 171464809, 0, 0, 0, 0, 0, 0, 0, 0, 0, 0, 0, 0, 0, 0
RCOU, 171464814, 1101, 1101, 1101, 1101, 0, 0, 0, 0, 0, 0, 0, 0, 0, 0
VIBE, 171464823, 0.02152585, 0.02286885, 0.03868072, 0, 0, 0
CTRL, 171464831, 0.007598368, 0.0001770773, 0.001864585, 0.0001697006, 0.0002323944
PRX, 171464862, 2, 0.48, 0, 0.56, 0, 3.6, 0, 2.54, 0, 0, 0, 0.48
RFND, 171469786, 0.2, 25, 0, 0
IMU, 171489934, -7.793064E-05, -0.0006961597, -0.00120013, 0.1608517, -0.02172971, -10.08361, 0, 0, 38.62625, 1, 1, 1000, 1000
RFND, 171519489, 0.2, 25, 0, 0
IMU, 171529478, -8.263937E-05, 0.001038156, 0.0001239156, 0.1454444, -0.02860686, -10.08435, 0, 0, 38.62556, 1, 1, 1000, 1000
MAG, 171557270, 225, 616, 224, 0, 0, 0, 0, 0, 0, 1, 171557262
BARO, 171557315, -0.3956007, 980.8164, 37.44, -0.2150941, 171557, 0, 35
CTUN, 171557328, 0, 0, 0, 0.377023, 0.04169723, 0.04169723, -0.39, 0, 0.19, 0, 0, -1
ATT, 171564679, 0, 0.71, 0, 0.17, 208.09, 208.11, 0, 1
RATE, 171564689, -3.22444, -0.04290472, -0.007631874, -0.8023491, 0.06381041, -0.002049284, 0.004407198, -0.01931737, 0.0001868248, 775.3148, -1.071835, 0
NKF1, 171564697, 0.71, 0.17, 208.1, 0.02688215, -0.01445833, 0.01914358, 0, 0, 0, -0.04168156, -0.02, 0, 0.05
NKF2, 171564697, -28, 0, 0, 0, 0, 0, 0, 0, 0, 0, 0, 0, 0
NKF3, 171564697, 0, 0, 0, 0.03, -0.01, 0.02, 0, 0, 0, 0, 0
NKF4, 171564697, 0, 0, 0, 0, 0, 7.581556E-07, 0, 0, 0, 19, 229, 0, 0
NKF5, 171564697, 0, 0, 0, 0, 0.17, 0.13, 0, 0.19, 0.5, 3.582972E-05, 0.0008153869, 0.001893549
NKQ1, 171564697, 0.2427633, 0.008604151, 0.0003892651, -0.9700474
AHR2, 171564739, 0.56, 0.15, 215.21, -0.39, 0, 0, -0.3024949, -0.00276861, 0.004250233, 0.9531375
MOTB, 171564747, 1, 1, 0, 1
RCIN, 171564752, 0, 0, 0, 0, 0, 0, 0, 0, 0, 0, 0, 0, 0, 0
RCOU, 171564757, 1101, 1101, 1101, 1101, 0, 0, 0, 0, 0, 0, 0, 0, 0, 0
VIBE, 171564765, 0.02048843, 0.02234978, 0.03526753, 0, 0, 0
CTRL, 171564772, 0.007589639, 0.0001726121, 0.001888289, 0.0001683098, 0.0002472218
PRX, 171564804, 2, 0.48, 0, 0.56, 0, 3.6, 0, 2.55, 0, 0, 0, 0.48
RFND, 171569473, 0.2, 25, 0, 0
IMU, 171569526, -0.0003136961, 0.0009334401, 0.0002096103, 0.1472112, -0.02850309, -10.07826, 0, 0, 38.62571, 1, 1, 1000, 1000
IMU, 171609564, -0.0007542032, -0.0004158388, -0.00028155, 0.1558505, -0.02958516, -10.08288, 0, 0, 38.627, 1, 1, 1000, 1000
RFND, 171619890, 0.2, 25, 0, 0
IMU, 171649493, -0.0002069664, -0.0004018329, -0.0004665711, 0.141604, -0.02703525, -10.07446, 0, 0, 38.62897, 1, 1, 1000, 1000
MAG, 171656867, 225, 615, 224, 0, 0, 0, 0, 0, 0, 1, 171656859
BARO, 171656913, -0.3786464, 980.8147, 37.44, 0.02968069, 171656, 0, 35
CTUN, 171656926, 0, 0, 0, 0.377023, 0.04167534, 0.04167534, -0.37, 0, 0.19, 0, 0, -1
ATT, 171664816, 0, 0.71, 0, 0.17, 208.08, 208.1, 0, 1
RATE, 171664827, -3.235785, 0.05531047, -0.007966517, -0.8011003, -0.001412596, -0.001910405, 0.00530085, -0.04301835, 0.0001912524, 805.2554, -1.772785, 0
NKF1, 171664835, 0.71, 0.17, 208.09, 0.02845811, -0.01467478, 0.01988285, 0, 0, 0, -0.04171076, -0.02, 0, 0.05
NKF2, 171664835, -28, 0, 0, 0, 0, 0, 0, 0, 0, 0, 0, 0, 0
NKF3, 171664835, 0, 0, 0, 0.03, -0.01, 0.02, 0, 0, 0, 0, 0
NKF4, 171664835, 0, 0, 0, 0, 0, 8.46956E-07, 0, 0, 0, 19, 229, 0, 0
NKF5, 171664835, 0, 0, 0, 0, 0.17, 0.13, 0, 0.19, 0.5, 3.535456E-05, 0.0005306666, 0.001176613
NKQ1, 171664835, 0.2427145, 0.00860634, 0.0003671664, -0.9700596
AHR2, 171664881, 0.56, 0.15, 215.21, -0.37, 0, 0, -0.3024901, -0.002767614, 0.004267836, 0.953139
MOTB, 171664888, 1, 1, 0, 1
RCIN, 171664893, 0, 0, 0, 0, 0, 0, 0, 0, 0, 0, 0, 0, 0, 0
RCOU, 171664898, 1101, 1101, 1101, 1101, 0, 0, 0, 0, 0, 0, 0, 0, 0, 0
VIBE, 171664907, 0.0220264, 0.02174645, 0.0326587, 0, 0, 0
CTRL, 171664913, 0.007606217, 0.0001710345, 0.001892099, 0.0001541969, 0.0002305343
PRX, 171664945, 2, 0.48, 0, 0.56, 0, 3.6, 0, 2.55, 0, 0, 0, 0.48
RFND, 171669614, 0.2, 25, 0, 0
IMU, 171689497, -0.0003155157, -0.0006759034, -0.0002014685, 0.1541098, -0.02839822, -10.10103, 0, 0, 38.63105, 1, 1, 1000, 1000
RFND, 171719459, 0.2, 25, 0, 0
IMU, 171729461, -0.0004690835, -0.0003064524, -0.0002451181, 0.1368618, -0.02900259, -10.08173, 0, 0, 38.63243, 1, 1, 1000, 1000
MAG, 171757161, 221, 621, 222, 0, 0, 0, 0, 0, 0, 1, 171757153
BARO, 171757250, -0.3334349, 980.8097, 37.44, 0.1340224, 171757, 0, 35
CTUN, 171757264, 0, 0, 0, 0.377023, 0.04152618, 0.04152618, -0.33, 0, 0.19, 0, 0, -1
ATT, 171764491, 0, 0.71, 0, 0.17, 208.07, 208.09, 0, 1
RATE, 171764503, -3.237636, -0.004842145, -0.007524555, -0.7886078, -0.04991814, -0.001796885, 0.006614921, -0.08090831, 0.0002374829, 795.2659, -1.311398, 0
NKF1, 171764511, 0.71, 0.17, 208.08, 0.03019788, -0.01417892, 0.01963619, 0, 0, 0, -0.04149439, -0.02, 0, 0.05
NKF2, 171764511, -28, 0, 0, 0, 0, 0, 0, 0, 0, 0, 0, 0, 0
NKF3, 171764511, 0, 0, 0, 0.03, -0.01, 0.02, 0, 0, 0, 0, 0
NKF4, 171764511, 0, 0, 0, 0, 0, 9.358699E-07, 0, 0, 0, 19, 229, 0, 0
NKF5, 171764511, 0, 0, 0, 0, 0.17, 0.13, 0, 0.19, 0.5, 3.539751E-05, 0.0008067632, 0.002001461
NKQ1, 171764511, 0.2426494, 0.008583338, 0.0003559362, -0.970076
AHR2, 171764554, 0.56, 0.15, 215.21, -0.33, 0, 0, -0.3024691, -0.002734082, 0.00428347, 0.9531456
MOTB, 171764562, 1, 1, 0, 1
RCIN, 171764566, 0, 0, 0, 0, 0, 0, 0, 0, 0, 0, 0, 0, 0, 0
RCOU, 171764572, 1101, 1101, 1101, 1101, 0, 0, 0, 0, 0, 0, 0, 0, 0, 0
VIBE, 171764580, 0.02235052, 0.01983849, 0.03173045, 0, 0, 0
CTRL, 171764587, 0.007625566, 0.0001529167, 0.0018688, 0.0001737799, 0.0002253677
PRX, 171764618, 2, 0.48, 0, 0.56, 0, 3.6, 0, 2.52, 0, 0, 0, 0.48
RFND, 171769487, 0.2, 25, 0, 0
IMU, 171769545, -0.0007517843, -0.0008313546, -0.0007920326, 0.1477466, -0.02722907, -10.08393, 0, 0, 38.63194, 1, 1, 1000, 1000
IMU, 171810269, -0.0003529048, -0.0004521522, 0.001089648, 0.1559279, -0.01358173, -10.09191, 0, 0, 38.63036, 1, 1, 1000, 1000
RFND, 171819321, 0.2, 25, 0, 0
IMU, 171849475, -0.0002935758, -0.0007850557, 0.0001284441, 0.1562847, -0.03015248, -10.09826, 0, 0, 38.62894, 1, 1, 1000, 1000
MAG, 171856736, 224, 616, 226, 0, 0, 0, 0, 0, 0, 1, 171856728
BARO, 171856778, -0.372995, 980.8135, 37.44, 0.1552835, 171856, 0, 35
CTUN, 171856790, 0, 0, 0, 0.377023, 0.04157304, 0.04157304, -0.37, 0, 0.19, 0, 0, -1
EV, 171858980, 57
ATT, 171864333, 0, 0.72, 0, 0.17, 208.07, 208.09, 0, 1
RATE, 171864343, -3.242599, -0.003600113, -0.00755992, -0.7832735, -0.03496339, -0.001783626, 0.005050625, -0.03441931, 0.0002093795, 779.5364, -0.02222061, 0
NKF1, 171864351, 0.72, 0.17, 208.08, 0.03201832, -0.01467506, 0.01924781, 0, 0, 0, -0.04161919, -0.02, 0, 0.05
NKF2, 171864351, -28, 0, 0, 0, 0, 0, 0, 0, 0, 0, 0, 0, 0
NKF3, 171864351, 0, 0, 0, 0.04, -0.02, 0.02, 0, 0, 0, 0, 0
NKF4, 171864351, 0, 0, 0, 0, 0, 1.066493E-06, 0, 0, 0, 19, 229, 0, 0
NKF5, 171864351, 0, 0, 0, 0, 0.17, 0.13, 0, 0.19, 0.5, 3.498725E-05, 0.0004763449, 0.001061884
NKQ1, 171864351, 0.2426074, 0.00857629, 0.0003450059, -0.9700866
AHR2, 171864394, 0.56, 0.14, 215.21, -0.37, 0, 0, -0.3024714, -0.002716335, 0.004297695, 0.9531449
MOTB, 171864401, 1, 1, 0, 1
RCIN, 171864406, 0, 0, 0, 0, 0, 0, 0, 0, 0, 0, 0, 0, 0, 0
RCOU, 171864411, 1101, 1101, 1101, 1101, 0, 0, 0, 0, 0, 0, 0, 0, 0, 0
VIBE, 171864420, 0.02207907, 0.02169985, 0.03610875, 0, 0, 0
CTRL, 171864427, 0.007634375, 0.0001340149, 0.001856695, 0.0001686162, 0.0002237089
PRX, 171864458, 2, 0.48, 0, 0.56, 0, 3.6, 0, 2.52, 0, 0, 0, 0.48
RFND, 171869318, 0.2, 25, 0, 0
IMU, 171889574, -0.000460625, -0.0005592639, 2.68336E-06, 0.1575984, -0.03481693, -10.08059, 0, 0, 38.62814, 1, 1, 1000, 1000
RFND, 171920156, 0.2, 25, 0, 0
IMU, 171929281, 0.0002360165, -0.0003348399, 0.0007153239, 0.1528414, -0.02810934, -10.10111, 0, 0, 38.6291, 1, 1, 1000, 1000
MAG, 171956730, 223, 620, 224, 0, 0, 0, 0, 0, 0, 1, 171956723
BARO, 171956773, -0.4012522, 980.8169, 37.44, 0.1307603, 171956, 0, 35
CTUN, 171956785, 0, 0, 0, 0.377023, 0.04135685, 0.04135685, -0.4, 0, 0.19, 0, 0, -1
ATT, 171964738, 0, 0.72, 0, 0.17, 208.06, 208.08, 0, 1
RATE, 171964750, -3.256361, 0.007452983, -0.007613295, -0.7716289, -0.005504053, -0.001776042, 0.004924736, -0.1003353, 0.0001661246, 775.4179, -2.072239, 0
NKF1, 171964758, 0.72, 0.17, 208.07, 0.0328875, -0.01492519, 0.01914612, 0, 0, 0, -0.0413576, -0.02, 0, 0.05
NKF2, 171964758, -28, 0, 0, 0, 0, 0, 0, 0, 0, 0, 0, 0, 0
NKF3, 171964758, 0, 0, 0, 0.04, -0.02, 0.02, 0, 0, 0, 0, 0
NKF4, 171964758, 0, 0, 0, 0, 0, 1.174069E-06, 0, 0, 0, 19, 229, 0, 0
NKF5, 171964758, 0, 0, 0, 0, 0.17, 0.13, 0, 0.19, 0.5, 3.516056E-05, 0.0007918743, 0.002113619
NKQ1, 171964758, 0.2425655, 0.008559426, 0.0003124296, -0.9700972
AHR2, 171964802, 0.56, 0.14, 215.21, -0.4, 0, 0, -0.3024726, -0.002689377, 0.00433404, 0.9531444
MOTB, 171964811, 1, 1, 0, 1
RCIN, 171964816, 0, 0, 0, 0, 0, 0, 0, 0, 0, 0, 0, 0, 0, 0
RCOU, 171964821, 1125, 1125, 1125, 1125, 0, 0, 0, 0, 0, 0, 0, 0, 0, 0
VIBE, 171964829, 0.02140332, 0.02096384, 0.03325079, 0, 0, 0
CTRL, 171964836, 0.007663527, 0.0001239574, 0.001831666, 0.0001512841, 0.0002038587
PRX, 171964868, 2, 0.48, 0, 0.56, 0, 3.6, 0, 2.55, 0, 0, 0, 0.48
RFND, 171969430, 0.2, 25, 0, 0
IMU, 171969922, 6.601471E-05, -0.0007499261, -0.001281289, 0.1493401, -0.02157975, -10.07543, 0, 0, 38.62872, 1, 1, 1000, 1000
IMU, 172009289, -0.0009547047, -0.000225916, 0.0003803238, 0.1615884, -0.0246724, -10.09458, 0, 0, 38.6291, 1, 1, 1000, 1000
RFND, 172020101, 0.2, 25, 0, 0
IMU, 172049387, -0.0006293362, -0.0003132923, -0.0003725345, 0.1670119, -0.03475758, -10.08484, 0, 0, 38.62895, 1, 1, 1000, 1000
MAG, 172056794, 222, 617, 224, 0, 0, 0, 0, 0, 0, 1, 172056786
BARO, 172056836, -0.322132, 980.8085, 37.44, 0.02474563, 172056, 0, 35
CTUN, 172056847, 0, 0, 0, 0.377023, 0.04157916, 0.04157916, -0.32, 0, 0.19, 0, 0, -1
ATT, 172064343, 0, 0.72, 0, 0.16, 208.06, 208.08, 0, 1
RATE, 172064353, -3.247547, -0.03779338, -0.007433773, -0.7625506, -0.03629065, -0.001611541, 0.004939011, -0.07459552, 0.0002134753, 779.1927, 0.435257, 0
NKF1, 172064362, 0.72, 0.16, 208.07, 0.03373721, -0.01553145, 0.01923933, 0, 0, 0, -0.04161092, -0.02, 0, 0.05
NKF2, 172064362, -28, 0, 0, 0, 0, 0, 0, 0, 0, 0, 0, 0, 0
NKF3, 172064362, 0, 0, 0, 0.04, -0.02, 0.02, 0, 0, 0, 0, 0
NKF4, 172064362, 0, 0, 0, 0, 0, 1.347225E-06, 0, 0, 0, 19, 229, 0, 0
NKF5, 172064362, 0, 0, 0, 0, 0.17, 0.13, 0, 0.19, 0.5, 3.458575E-05, 0.0004459361, 0.001053947
NKQ1, 172064362, 0.2425148, 0.008538419, 0.0003253395, -0.9701101
AHR2, 172064406, 0.56, 0.14, 215.21, -0.32, 0, 0, -0.3024665, -0.002657156, 0.004324157, 0.9531465
MOTB, 172064413, 1, 1, 0, 1
RCIN, 172064418, 0, 0, 0, 0, 0, 0, 0, 0, 0, 0, 0, 0, 0, 0
RCOU, 172064423, 1149, 1149, 1149, 1149, 0, 0, 0, 0, 0, 0, 0, 0, 0, 0
VIBE, 172064432, 0.0221078, 0.02223207, 0.03669382, 0, 0, 0
CTRL, 172064438, 0.007648673, 0.0001334339, 0.00180941, 0.0001346665, 0.0002035258
PRX, 172064470, 2, 0.48, 0, 0.56, 0, 3.6, 0, 2.55, 0, 0, 0, 0.48
RFND, 172069253, 0.2, 25, 0, 0
IMU, 172089371, -0.0003303376, 0.0001439747, 0.0001197046, 0.1591639, -0.01419165, -10.07032, 0, 0, 38.62925, 1, 1, 1000, 1000
RFND, 172119275, 0.2, 25, 0, 0
IMU, 172129323, -0.0001881488, 0.000162511, 0.0008845173, 0.1610786, -0.02220446, -10.09731, 0, 0, 38.63128, 1, 1, 1000, 1000
MAG, 172157090, 226, 618, 217, 0, 0, 0, 0, 0, 0, 1, 172157081
BARO, 172157136, -0.3390864, 980.8102, 37.44, -0.01819325, 172157, 0, 35
CTUN, 172157147, 0, 0, 0, 0.377023, 0.04134005, 0.04134005, -0.33, 0, 0.19, 0, 0, -1
ATT, 172164716, 0, 0.72, 0, 0.17, 208.06, 208.08, 0, 1
RATE, 172164727, -3.253495, -0.02573839, -0.007325108, -0.773449, 0.0156479, -0.001730796, 0.005011529, 0.273778, -8.084823E-06, 780.1334, -1.798725, 0
NKF1, 172164736, 0.72, 0.17, 208.07, 0.03490339, -0.01676756, 0.01926255, 0, 0, 0, -0.04145531, -0.02, 0, 0.05
NKF2, 172164736, -28, 0, 0, 0, 0, 0, 0, 0, 0, 0, 0, 0, 0
NKF3, 172164736, 0, 0, 0, 0.05, -0.02, 0.02, 0, 0, 0, 0, 0
NKF4, 172164736, 0, 0, 0, 0, 0, 1.492332E-06, 0, 0, 0, 19, 229, 0, 0
NKF5, 172164736, 0, 0, 0, 0, 0.17, 0.13, 0, 0.19, 0.5, 3.416904E-05, 0.0005740261, 0.001255441
NKQ1, 172164736, 0.2425537, 0.008570154, 0.0003223606, -0.9701
AHR2, 172164781, 0.56, 0.14, 215.22, -0.33, 0, 0, -0.302547, -0.002687111, 0.004325229, 0.9531209
MOTB, 172164788, 1, 1, 0, 1
RCIN, 172164793, 0, 0, 0, 0, 0, 0, 0, 0, 0, 0, 0, 0, 0, 0
RCOU, 172164798, 1173, 1173, 1173, 1173, 0, 0, 0, 0, 0, 0, 0, 0, 0, 0
VIBE, 172164807, 0.03653559, 0.06212086, 0.05196037, 0, 0, 0
CTRL, 172164814, 0.007655493, 0.0001704945, 0.001837132, 0.0001372885, 0.000188244
PRX, 172164846, 2, 0.48, 0, 0.56, 0, 3.6, 0, 2.53, 0, 0, 0, 0.48
RFND, 172169642, 0.2, 25, 0, 0
IMU, 172169771, -0.0009243913, -0.0001714313, 0.006142895, 0.1444728, -0.01926735, -10.06171, 0, 0, 38.63414, 1, 1, 1000, 1000
IMU, 172209536, 0.001480962, -0.003041442, -0.02009795, 0.1348281, -0.04511165, -10.05285, 0, 0, 38.63749, 1, 1, 1000, 1000
RFND, 172219449, 0.2, 25, 0, 0
IMU, 172249395, -0.004844043, 0.003516124, -0.03132137, 0.1945671, 0.03993809, -10.15829, 0, 0, 38.64013, 1, 1, 1000, 1000
MAG, 172256775, 223, 617, 220, 0, 0, 0, 0, 0, 0, 1, 172256767
BARO, 172256819, -0.2938748, 980.8052, 37.44, 0.09890019, 172256, 0, 35
CTUN, 172256832, 0, 0, 0, 0.377023, 0.04155764, 0.04155764, -0.29, 0, 0.19, 0, 0, -1
ATT, 172264326, 0, 0.72, 0, 0.16, 208, 208.02, 0, 1
RATE, 172264336, -3.265659, 0.2592787, -0.01026893, -0.7422298, -0.1640337, -0.0007048968, 0.004680534, -1.071027, 0.00172533, 782.795, -6.452847, 0
NKF1, 172264344, 0.72, 0.16, 208.01, 0.03536026, -0.0193295, 0.01932827, 0, 0, 0, -0.04156955, -0.02, 0, 0.05
NKF2, 172264344, -28, 0, 0, 0, 0, 0, 0, 0, 0, 0, 0, 0, 0
NKF3, 172264344, 0, 0, 0, 0.05, -0.02, 0.02, 0, 0, 0, 0, 0
NKF4, 172264344, 0, 0, 0, 0, 0, 1.692954E-06, 0, 0, 0, 19, 229, 0, 0
NKF5, 172264344, 0, 0, 0, 0, 0.17, 0.13, 0, 0.19, 0.5, 3.451353E-05, 0.0004875601, 0.001136547
NKQ1, 172264344, 0.2420476, 0.008486108, 0.0002669011, -0.9702273
AHR2, 172264389, 0.56, 0.13, 215.16, -0.29, 0, 0, -0.3020933, -0.002600906, 0.004382352, 0.9532648
MOTB, 172264396, 1, 1, 0, 1
RCIN, 172264400, 0, 0, 0, 0, 0, 0, 0, 0, 0, 0, 0, 0, 0, 0
RCOU, 172264406, 1197, 1197, 1197, 1197, 0, 0, 0, 0, 0, 0, 0, 0, 0, 0
VIBE, 172264415, 0.2044433, 0.233706, 0.2160354, 0, 0, 0
CTRL, 172264421, 0.007639036, 0.0004568011, 0.001767774, 0.0005063702, 0.0005608869
PRX, 172264452, 2, 0.48, 0, 0.56, 0, 3.6, 0, 2.53, 0, 0, 0, 0.48
RFND, 172269286, 0.2, 25, 0, 0
IMU, 172289316, -0.003653909, -0.002282711, 0.009169659, 0.2099092, -0.009170257, -10.1133, 0, 0, 38.6424, 1, 1, 1000, 1000
RFND, 172319242, 0.2, 25, 0, 0
IMU, 172329381, 0.002396234, -0.004381799, 0.03090592, 0.2020974, -0.06697558, -10.06853, 0, 0, 38.64445, 1, 1, 1000, 1000
DU32, 172354251, 7, 33611992
MAG, 172356782, 222, 623, 224, 0, 0, 0, 0, 0, 0, 1, 172356774
BARO, 172356825, -0.3164806, 980.8074, 37.44, 0.2008581, 172356, 0, 35
CTUN, 172356838, 0, 0, 0, 0.377023, 0.04141745, 0.04141745, -0.31, 0, 0.19, 0, 0, -1
ATT, 172364954, 0, 0.72, 0, 0.16, 207.98, 208, 0, 1
RATE, 172364964, -3.241627, -0.06050329, -0.008443172, -0.7569354, 0.2756278, -0.004007407, 0.004647115, -1.829135, 0.0007082995, 756.6133, 1.586342, 0
NKF1, 172364972, 0.72, 0.16, 207.99, 0.03694898, -0.01776356, 0.01868181, 0, 0, 0, -0.04149621, -0.02, 0, 0.05
NKF2, 172364972, -28, 0, 0, 0, 0, 0, 0, 0, 0, 0, 0, 0, 0
NKF3, 172364972, 0, 0, 0, 0.05, -0.03, 0.02, 0, 0, 0, 0, 0
NKF4, 172364972, 0, 0, 0, 0, 0, 1.87901E-06, 0, 0, 0, 19, 229, 0, 0
NKF5, 172364972, 0, 0, 0, 0, 0.17, 0.13, 0, 0.19, 0.5, 3.374695E-05, 0.0004044475, 0.0008109482
NKQ1, 172364972, 0.2418856, 0.008486652, 0.0003073185, -0.9702677
AHR2, 172365018, 0.56, 0.13, 215.15, -0.31, 0, 0, -0.3019773, -0.002598607, 0.00433678, 0.9533017
MOTB, 172365026, 1, 1, 0, 1
RCIN, 172365031, 0, 0, 0, 0, 0, 0, 0, 0, 0, 0, 0, 0, 0, 0
RCOU, 172365036, 1221, 1221, 1221, 1221, 0, 0, 0, 0, 0, 0, 0, 0, 0, 0
VIBE, 172365044, 0.4365941, 0.4247121, 0.3426551, 0, 0, 0
CTRL, 172365051, 0.007634928, 0.0007899518, 0.00176487, 0.001010333, 0.0006781386
PRX, 172365083, 2, 0.48, 0, 0.56, 0, 3.6, 0, 2.51, 0, 0, 0, 0.48
RFND, 172369345, 0.2, 25, 0, 0
IMU, 172369394, 0.001331662, 0.006310816, -0.02834158, 0.1484043, -0.002279466, -10.11021, 0, 0, 38.64665, 1, 1, 1000, 1000
IMU, 172409346, -0.009092845, -0.003499589, 0.00168909, 0.2059614, -0.02581639, -10.09417, 0, 0, 38.64885, 1, 1, 1000, 1000
RFND, 172419384, 0.2, 25, 0, 0
IMU, 172449278, 0.0003200307, -0.01072871, 0.03435851, 0.2021261, -0.1393978, -10.12189, 0, 0, 38.65076, 1, 1, 1000, 1000
MAG, 172456750, 219, 621, 225, 0, 0, 0, 0, 0, 0, 1, 172456742
BARO, 172456792, -0.2995263, 980.8056, 37.44, 0.1730753, 172456, 0, 35
CTUN, 172456805, 0, 0, 0, 0.377023, 0.04143613, 0.04143613, -0.29, 0, 0.19, 0, 0, -1
ATT, 172465217, 0, 0.7, 0, 0.14, 208.01, 208.03, 0, 1
RATE, 172465228, -3.190258, -0.8462101, -0.002407846, -0.6601517, -0.626876, -0.0004887425, 0.004144427, -0.08361132, -0.0005488158, 801.7087, -3.229523, 0
NKF1, 172465237, 0.7, 0.14, 208.02, 0.03808217, -0.01748565, 0.01979528, 0, 0, 0, -0.041455, -0.02, 0, 0.05
NKF2, 172465237, -28, 0, 0, 0, 0, 0, 0, 0, 0, 0, 0, 0, 0
NKF3, 172465237, 0, 0, 0, 0.05, -0.03, 0.02, 0, 0, 0, 0, 0
NKF4, 172465237, 0, 0, 0, 0, 0, 2.098766E-06, 0, 0, 0, 19, 229, 0, 0
NKF5, 172465237, 0, 0, 0, 0, 0.17, 0.13, 0, 0.19, 0.5, 3.419213E-05, 0.0005320598, 0.001301456
NKQ1, 172465237, 0.2420726, 0.008319462, 0.0003798897, -0.9702225
AHR2, 172465288, 0.55, 0.11, 215.18, -0.29, 0, 0, -0.302205, -0.002428623, 0.004273629, 0.9532303
MOTB, 172465296, 1, 1, 0, 1
RCIN, 172465301, 0, 0, 0, 0, 0, 0, 0, 0, 0, 0, 0, 0, 0, 0
RCOU, 172465306, 1224, 1221, 1221, 1226, 0, 0, 0, 0, 0, 0, 0, 0, 0, 0
VIBE, 172465314, 0.4067372, 0.419683, 0.403919, 0, 0, 0
CTRL, 172465321, 0.007631469, 0.001532765, 0.001791205, 0.001508123, 0.0006715166
PRX, 172465353, 2, 0.48, 0, 0.56, 0, 3.6, 0, 2.51, 0, 0, 0, 0.48
RFND, 172469310, 0.2, 25, 0, 0
IMU, 172489397, 0.006404125, 0.01668783, 0.005709901, 0.2138765, -0.006268482, -10.11569, 0, 0, 38.65184, 1, 1, 1000, 1000
RFND, 172519405, 0.2, 25, 0, 0
IMU, 172529487, -0.006106221, 0.005027015, -0.00313891, 0.08517197, -0.04081216, -10.09219, 0, 0, 38.65278, 1, 1, 1000, 1000
MAG, 172556818, 221, 621, 224, 0, 0, 0, 0, 0, 0, 1, 172556811
BARO, 172556863, -0.2599662, 980.8015, 37.45, 0.1079081, 172556, 0, 35
CTUN, 172556875, 0, 0, 0, 0.377023, 0.04145062, 0.04145062, -0.25, 0, 0.19, 0, 0, -1
ATT, 172564476, 0, 0.72, 0, 0.13, 208.03, 208.05, 0, 1
RATE, 172564488, -3.266288, 0.3492716, -0.008465298, -0.6296922, -0.6343223, 0.004024624, 0.004062833, -0.3345121, -0.0003201166, 793.1633, -6.095314, 0
NKF1, 172564496, 0.72, 0.13, 208.04, 0.04147115, -0.01803044, 0.01958428, 0, 0, 0, -0.04152832, -0.02, 0, 0.05
NKF2, 172564496, -28, 0, 0, 0, 0, 0, 0, 0, 0, 0, 0, 0, 0
NKF3, 172564496, 0, 0, 0, 0.06, -0.03, 0.02, 0, 0, 0, 0, 0
NKF4, 172564496, 0, 0, 0, 0, 0, 2.345483E-06, 0, 0, 0, 19, 229, 0, 0
NKF5, 172564496, 0, 0, 0, 0, 0.17, 0.13, 0, 0.19, 0.5, 3.358705E-05, 0.0002691231, 0.0003840229
NKQ1, 172564496, 0.2422563, 0.008291746, 0.0002220289, -0.9701769
AHR2, 172564540, 0.56, 0.1, 215.2, -0.25, 0, 0, -0.3024275, -0.002406528, 0.004441813, 0.953159
MOTB, 172564548, 1, 1, 0, 1
RCIN, 172564553, 0, 0, 0, 0, 0, 0, 0, 0, 0, 0, 0, 0, 0, 0
RCOU, 172564558, 1242, 1221, 1228, 1236, 0, 0, 0, 0, 0, 0, 0, 0, 0, 0
VIBE, 172564567, 0.41939, 0.4571508, 0.33434, 0, 0, 0
CTRL, 172564574, 0.00770008, 0.001582315, 0.001929847, 0.002200363, 0.000630829
PRX, 172564605, 2, 0.48, 0, 0.56, 0, 3.6, 0, 2.54, 0, 0, 0, 0.48
RFND, 172569423, 0.2, 25, 0, 0
IMU, 172569480, 0.0002503737, -0.01910599, 0.003521048, 0.03833554, -0.03889904, -10.06591, 0, 0, 38.65379, 1, 1, 1000, 1000
IMU, 172609545, -0.001761535, 0.009971514, 0.01063124, 0.2070044, -0.006006035, -10.11815, 0, 0, 38.65457, 1, 1, 1000, 1000
RFND, 172619352, 0.2, 25, 0, 0
IMU, 172649275, 0.003212572, 0.009041802, -0.007672523, -0.08835126, -0.01751446, -10.02981, 0, 0, 38.65265, 1, 1, 1000, 1000
MAG, 172656742, 217, 621, 224, 0, 0, 0, 0, 0, 0, 1, 172656735
BARO, 172656784, -0.2204061, 980.7972, 37.44, 0.122107, 172656, 0, 35
CTUN, 172656796, 0, 0, 0, 0.377023, 0.0413425, 0.0413425, -0.22, 0, 0.19, 0, 0, -1
ATT, 172664572, 0, 0.72, 0, 0.14, 208, 208.02, 0, 1
RATE, 172664582, -3.241776, 0.4956206, -0.009681656, -0.6671337, 0.1438266, -0.001954279, 0.004201449, -0.6582288, 0.0003810286, 785.1376, 1.054573, 0
NKF1, 172664590, 0.72, 0.14, 208.01, 0.03818421, -0.02092619, 0.01938611, 0, 0, 0, -0.0413324, -0.02, 0, 0.05
NKF2, 172664590, -28, 0, 0, 0, 0, 0, 0, 0, 0, 0, 0, 0, 0
NKF3, 172664590, 0, 0, 0, 0.06, -0.03, 0.02, 0, 0, 0, 0, 0
NKF4, 172664590, 0, 0, 0, 0, 0, 2.576059E-06, 0, 0, 0, 19, 229, 0, 0
NKF5, 172664590, 0, 0, 0, 0, 0.17, 0.13, 0, 0.19, 0.5, 3.394703E-05, 0.0006085576, 0.001510257
NKQ1, 172664590, 0.2420451, 0.008343183, 0.0002811522, -0.9702291
AHR2, 172664638, 0.56, 0.11, 215.18, -0.22, 0, 0, -0.3022635, -0.002444086, 0.004386475, 0.9532112
MOTB, 172664714, 1, 1, 0, 1
RCIN, 172664722, 0, 0, 0, 0, 0, 0, 0, 0, 0, 0, 0, 0, 0, 0
RCOU, 172664728, 1238, 1225, 1221, 1241, 0, 0, 0, 0, 0, 0, 0, 0, 0, 0
VIBE, 172664736, 0.5057162, 0.4691878, 0.3975346, 0, 0, 0
CTRL, 172664742, 0.007632608, 0.001691303, 0.002019284, 0.002757068, 0.000547873
PRX, 172664774, 2, 0.48, 0, 0.56, 0, 3.6, 0, 2.49, 0, 0, 0, 0.48
RFND, 172669353, 0.2, 25, 0, 0
IMU, 172689485, -0.00792726, -0.02264419, 0.01709328, 0.08189277, -0.02691748, -10.02006, 0, 0, 38.64845, 1, 1, 1000, 1000
RFND, 172719269, 0.2, 25, 0, 0
IMU, 172729324, -0.006571101, -0.005804035, -0.001311795, 0.07099067, -0.1258001, -10.07114, 0, 0, 38.64252, 1, 1, 1000, 1000
MAG, 172757144, 223, 620, 216, 0, 0, 0, 0, 0, 0, 1, 172756788
BARO, 172757191, -0.2034518, 980.7953, 37.43, 0.2225254, 172757, 0, 35
CTUN, 172757206, 0, 0, 0, 0.377023, 0.04131098, 0.04131098, -0.2, 0, 0.19, 0, 0, -2
ATT, 172764353, 0, 0.72, 0, 0.15, 207.99, 208.01, 0, 1
RATE, 172764361, -3.239039, 0.551964, -0.0122348, -0.6860751, 0.5181085, -0.005984462, 0.004309858, -0.7854788, 0.000507261, 883.0712, -0.2319336, 0
NKF1, 172764369, 0.72, 0.15, 208, 0.04018544, -0.02039848, 0.02180423, 0, 0, 0, -0.04136109, -0.02, 0, 0.05
NKF2, 172764369, -28, 0, 0, 0, 0, 0, 0, 0, 0, 0, 0, 0, 0
NKF3, 172764369, 0, 0, 0, 0.07, -0.03, 0.02, 0, 0, 0, 0, 0
NKF4, 172764369, 0, 0, 0, 0, 0, 2.880704E-06, 0, 0, 0, 19, 229, 0, 0
NKF5, 172764369, 0, 0, 0, 0, 0.17, 0.13, 0, 0.19, 0.5, 3.337102E-05, 0.000210026, 0.0001739838
NKQ1, 172764369, 0.2419752, 0.008375108, 0.0002923566, -0.9702463
AHR2, 172764413, 0.56, 0.11, 215.18, -0.2, 0, 0, -0.3022375, -0.00245213, 0.004381296, 0.9532195
MOTB, 172764420, 1, 1, 0, 1
RCIN, 172764424, 0, 0, 0, 0, 0, 0, 0, 0, 0, 0, 0, 0, 0, 0
RCOU, 172764430, 1242, 1232, 1221, 1251, 0, 0, 0, 0, 0, 0, 0, 0, 0, 0
VIBE, 172764438, 0.484295, 0.4385612, 0.4146877, 0, 0, 0
CTRL, 172764444, 0.007599816, 0.001840624, 0.002052463, 0.003064007, 0.0005272554
PRX, 172764475, 2, 0.48, 0, 0.56, 0, 3.6, 0, 2.54, 0, 0, 0, 0.48
RFND, 172769284, 0.2, 25, 0, 0
IMU, 172769331, 0.008886795, 0.01256492, -0.007550142, 0.2605333, -0.024767, -10.06917, 0, 0, 38.63606, 1, 1, 1000, 1000
IMU, 172809371, -0.0009459738, 0.006537705, 0.004266264, 0.1488539, -0.0244209, -10.07166, 0, 0, 38.62934, 1, 1, 1000, 1000
RFND, 172819433, 0.2, 25, 0, 0
IMU, 172849475, -0.007488921, -0.009865419, -0.000784818, 0.1106304, -0.02832948, -10.02439, 0, 0, 38.62189, 1, 1, 1000, 1000
MAG, 172856825, 218, 620, 231, 0, 0, 0, 0, 0, 0, 1, 172856817
BARO, 172856870, -0.3108292, 980.807, 37.41, 0.2592606, 172856, 0, 35
CTUN, 172856882, 0, 0, 0, 0.377023, 0.04071428, 0.04071428, -0.31, 0, 0.19, 0, 0, -2
ATT, 172864823, 0, 0.71, 0, 0.13, 208, 208.02, 0, 1
RATE, 172864835, -3.22627, 0.1556208, -0.01017704, -0.6221324, -0.08637733, -0.002960311, 0.00407186, 0.3037407, 0.0002457148, 1035.138, -6.591129, 0
NKF1, 172864844, 0.71, 0.13, 208.01, 0.04605222, -0.02043849, 0.02555897, 0, 0, 0, -0.04065357, -0.02, 0, 0.05
NKF2, 172864844, -28, 0, 0, 0, 0, 0, 0, 0, 0, 0, 0, 0, 0
NKF3, 172864844, 0, 0, 0, 0.07, -0.03, 0.02, 0, 0, 0, 0, 0
NKF4, 172864844, 0, 0, 0, 0, 0, 3.123293E-06, 0, 0, 0, 19, 229, 0, 0
