FMT, 128, 89, FMT, BBnNZ, Type,Length,Name,Format,Columns
FMT, 129, 31, PARM, QNf, TimeUS,Name,Value
FMT, 130, 46, GPS, QBIHBcLLefffB, TimeUS,Status,GMS,GWk,NSats,HDop,Lat,Lng,Alt,Spd,GCrs,VZ,U
FMT, 131, 46, GPS2, QBIHBcLLefffB, TimeUS,Status,GMS,GWk,NSats,HDop,Lat,Lng,Alt,Spd,GCrs,VZ,U
FMT, 132, 46, GPSB, QBIHBcLLefffB, TimeUS,Status,GMS,GWk,NSats,HDop,Lat,Lng,Alt,Spd,GCrs,VZ,U
FMT, 193, 24, GPA, QCCCCBI, TimeUS,VDop,HAcc,VAcc,SAcc,VV,SMS
FMT, 194, 24, GPA2, QCCCCBI, TimeUS,VDop,HAcc,VAcc,SAcc,VV,SMS
FMT, 195, 24, GPAB, QCCCCBI, TimeUS,VDop,HAcc,VAcc,SAcc,VV,SMS
FMT, 133, 53, IMU, QffffffIIfBBHH, TimeUS,GyrX,GyrY,GyrZ,AccX,AccY,AccZ,EG,EA,T,GH,AH,GHz,AHz
FMT, 134, 75, MSG, QZ, TimeUS,Message
FMT, 135, 39, RCIN, QHHHHHHHHHHHHHH, TimeUS,C1,C2,C3,C4,C5,C6,C7,C8,C9,C10,C11,C12,C13,C14
FMT, 136, 39, RCOU, QHHHHHHHHHHHHHH, TimeUS,C1,C2,C3,C4,C5,C6,C7,C8,C9,C10,C11,C12,C13,C14
FMT, 137, 15, RSSI, Qf, TimeUS,RXRSSI
FMT, 139, 37, BARO, QffcfIff, TimeUS,Alt,Press,Temp,CRt,SMS,Offset,GndTemp
FMT, 140, 22, POWR, QffHB, TimeUS,Vcc,VServo,Flags,Safety
FMT, 143, 45, CMD, QHHHfffffff, TimeUS,CTot,CNum,CId,Prm1,Prm2,Prm3,Prm4,Lat,Lng,Alt
FMT, 144, 20, RAD, QBBBBBHH, TimeUS,RSSI,RemRSSI,TxBuf,Noise,RemNoise,RxErrors,Fixed
FMT, 146, 43, CAM, QIHLLeeeccC, TimeUS,GPSTime,GPSWeek,Lat,Lng,Alt,RelAlt,GPSAlt,Roll,Pitch,Yaw
FMT, 232, 43, TRIG, QIHLLeeeccC, TimeUS,GPSTime,GPSWeek,Lat,Lng,Alt,RelAlt,GPSAlt,Roll,Pitch,Yaw
FMT, 162, 30, ARSP, QffcffB, TimeUS,Airspeed,DiffPress,Temp,RawPress,Offset,U
FMT, 164, 45, CURR, QfffcHHHHHHHHHH, TimeUS,Volt,Curr,CurrTot,Temp,V1,V2,V3,V4,V5,V6,V7,V8,V9,V10
FMT, 165, 45, CUR2, QfffcHHHHHHHHHH, TimeUS,Volt,Curr,CurrTot,Temp,V1,V2,V3,V4,V5,V6,V7,V8,V9,V10
FMT, 163, 27, ATT, QccccCCCC, TimeUS,DesRoll,Roll,DesPitch,Pitch,DesYaw,Yaw,ErrRP,ErrYaw
FMT, 166, 34, MAG, QhhhhhhhhhBI, TimeUS,MagX,MagY,MagZ,OfsX,OfsY,OfsZ,MOfsX,MOfsY,MOfsZ,Health,S
FMT, 169, 14, MODE, QMBB, TimeUS,Mode,ModeNum,Rsn
FMT, 196, 17, RFND, QCBCB, TimeUS,Dist1,Orient1,Dist2,Orient2
FMT, 223, 33, DMS, IIIIIBBBBBBBBBB, TimeMS,N,Dp,RT,RS,Er,Fa,Fmn,Fmx,Pa,Pmn,Pmx,Sa,Smn,Smx
FMT, 240, 41, BCN, QBBfffffff, TimeUS,Health,Cnt,D0,D1,D2,D3,PosX,PosY,PosZ
FMT, 138, 53, IMU2, QffffffIIfBBHH, TimeUS,GyrX,GyrY,GyrZ,AccX,AccY,AccZ,EG,EA,T,GH,AH,GHz,AHz
FMT, 147, 53, IMU3, QffffffIIfBBHH, TimeUS,GyrX,GyrY,GyrZ,AccX,AccY,AccZ,EG,EA,T,GH,AH,GHz,AHz
FMT, 141, 45, AHR2, QccCfLLffff, TimeUS,Roll,Pitch,Yaw,Alt,Lat,Lng,Q1,Q2,Q3,Q4
FMT, 180, 31, POS, QLLfff, TimeUS,Lat,Lng,Alt,RelHomeAlt,RelOriginAlt
FMT, 142, 45, SIM, QccCfLLffff, TimeUS,Roll,Pitch,Yaw,Alt,Lat,Lng,Q1,Q2,Q3,Q4
FMT, 198, 51, NKF1, QccCfffffffccc, TimeUS,Roll,Pitch,Yaw,VN,VE,VD,dPD,PN,PE,PD,GX,GY,GZ
FMT, 199, 35, NKF2, QbccccchhhhhhB, TimeUS,AZbias,GSX,GSY,GSZ,VWN,VWE,MN,ME,MD,MX,MY,MZ,MI
FMT, 200, 33, NKF3, Qcccccchhhcc, TimeUS,IVN,IVE,IVD,IPN,IPE,IPD,IMX,IMY,IMZ,IYAW,IVT
FMT, 201, 35, NKF4, QcccccfbbHBHHb, TimeUS,SV,SP,SH,SM,SVT,errRP,OFN,OFE,FS,TS,SS,GPS,PI
FMT, 202, 40, NKF5, QBhhhcccCCfff, TimeUS,NI,FIX,FIY,AFI,HAGL,offset,RI,rng,Herr,eAng,eVel,ePos
FMT, 203, 51, NKF6, QccCfffffffccc, TimeUS,Roll,Pitch,Yaw,VN,VE,VD,dPD,PN,PE,PD,GX,GY,GZ
FMT, 204, 35, NKF7, QbccccchhhhhhB, TimeUS,AZbias,GSX,GSY,GSZ,VWN,VWE,MN,ME,MD,MX,MY,MZ,MI
FMT, 205, 33, NKF8, Qcccccchhhcc, TimeUS,IVN,IVE,IVD,IPN,IPE,IPD,IMX,IMY,IMZ,IYAW,IVT
FMT, 206, 35, NKF9, QcccccfbbHBHHb, TimeUS,SV,SP,SH,SM,SVT,errRP,OFN,OFE,FS,TS,SS,GPS,PI
FMT, 207, 36, NKF0, QBccCCcccccccc, TimeUS,ID,rng,innov,SIV,TR,BPN,BPE,BPD,OFH,OFL,OFN,OFE,OFD
FMT, 208, 27, NKQ1, Qffff, TimeUS,Q1,Q2,Q3,Q4
FMT, 209, 27, NKQ2, Qffff, TimeUS,Q1,Q2,Q3,Q4
FMT, 210, 51, XKF1, QccCfffffffccc, TimeUS,Roll,Pitch,Yaw,VN,VE,VD,dPD,PN,PE,PD,GX,GY,GZ
FMT, 211, 34, XKF2, QccccchhhhhhB, TimeUS,AX,AY,AZ,VWN,VWE,MN,ME,MD,MX,MY,MZ,MI
FMT, 212, 33, XKF3, Qcccccchhhcc, TimeUS,IVN,IVE,IVD,IPN,IPE,IPD,IMX,IMY,IMZ,IYAW,IVT
FMT, 213, 35, XKF4, QcccccfbbHBHHb, TimeUS,SV,SP,SH,SM,SVT,errRP,OFN,OFE,FS,TS,SS,GPS,PI
FMT, 214, 40, XKF5, QBhhhcccCCfff, TimeUS,NI,FIX,FIY,AFI,HAGL,offset,RI,rng,Herr,eAng,eVel,ePos
FMT, 215, 51, XKF6, QccCfffffffccc, TimeUS,Roll,Pitch,Yaw,VN,VE,VD,dPD,PN,PE,PD,GX,GY,GZ
FMT, 216, 34, XKF7, QccccchhhhhhB, TimeUS,AX,AY,AZ,VWN,VWE,MN,ME,MD,MX,MY,MZ,MI
FMT, 217, 33, XKF8, Qcccccchhhcc, TimeUS,IVN,IVE,IVD,IPN,IPE,IPD,IMX,IMY,IMZ,IYAW,IVT
FMT, 218, 35, XKF9, QcccccfbbHBHHb, TimeUS,SV,SP,SH,SM,SVT,errRP,OFN,OFE,FS,TS,SS,GPS,PI
FMT, 219, 36, XKF0, QBccCCcccccccc, TimeUS,ID,rng,innov,SIV,TR,BPN,BPE,BPD,OFH,OFL,OFN,OFE,OFD
FMT, 220, 27, XKQ1, Qffff, TimeUS,Q1,Q2,Q3,Q4
FMT, 221, 27, XKQ2, Qffff, TimeUS,Q1,Q2,Q3,Q4
FMT, 222, 35, XKFD, Qffffff, TimeUS,IX,IY,IZ,IVX,IVY,IVZ
FMT, 148, 34, TERR, QBLLHffHH, TimeUS,Status,Lat,Lng,Spacing,TerrH,CHeight,Pending,Loaded
FMT, 149, 18, UBX1, QBHBBH, TimeUS,Instance,noisePerMS,jamInd,aPower,agcCnt
FMT, 150, 16, UBX2, QBbBbB, TimeUS,Instance,ofsI,magI,ofsQ,magQ
FMT, 151, 18, UBY1, QBHBBH, TimeUS,Instance,noisePerMS,jamInd,aPower,agcCnt
FMT, 152, 16, UBY2, QBbBbB, TimeUS,Instance,ofsI,magI,ofsQ,magQ
FMT, 170, 42, GRAW, QIHBBddfBbB, TimeUS,WkMS,Week,numSV,sv,cpMes,prMes,doMes,mesQI,cno,lli
FMT, 171, 24, GRXH, QdHbBB, TimeUS,rcvTime,week,leapS,numMeas,recStat
FMT, 172, 41, GRXS, QddfBBBHBBBBB, TimeUS,prMes,cpMes,doMes,gnss,sv,freq,lock,cno,prD,cpD,doD,trk
FMT, 173, 63, SBFE, QIHBBdddfffff, TimeUS,TOW,WN,Mode,Err,Lat,Lng,Height,Undul,Vn,Ve,Vu,COG
FMT, 153, 19, ESC1, Qcccc, TimeUS,RPM,Volt,Curr,Temp
FMT, 154, 19, ESC2, Qcccc, TimeUS,RPM,Volt,Curr,Temp
FMT, 155, 19, ESC3, Qcccc, TimeUS,RPM,Volt,Curr,Temp
FMT, 156, 19, ESC4, Qcccc, TimeUS,RPM,Volt,Curr,Temp
FMT, 157, 19, ESC5, Qcccc, TimeUS,RPM,Volt,Curr,Temp
FMT, 158, 19, ESC6, Qcccc, TimeUS,RPM,Volt,Curr,Temp
FMT, 159, 19, ESC7, Qcccc, TimeUS,RPM,Volt,Curr,Temp
FMT, 160, 19, ESC8, Qcccc, TimeUS,RPM,Volt,Curr,Temp
FMT, 167, 34, MAG2, QhhhhhhhhhBI, TimeUS,MagX,MagY,MagZ,OfsX,OfsY,OfsZ,MOfsX,MOfsY,MOfsZ,Health,S
FMT, 168, 34, MAG3, QhhhhhhhhhBI, TimeUS,MagX,MagY,MagZ,OfsX,OfsY,OfsZ,MOfsX,MOfsY,MOfsZ,Health,S
FMT, 174, 31, ACC1, QQfff, TimeUS,SampleUS,AccX,AccY,AccZ
FMT, 175, 31, ACC2, QQfff, TimeUS,SampleUS,AccX,AccY,AccZ
FMT, 176, 31, ACC3, QQfff, TimeUS,SampleUS,AccX,AccY,AccZ
FMT, 177, 31, GYR1, QQfff, TimeUS,SampleUS,GyrX,GyrY,GyrZ
FMT, 178, 31, GYR2, QQfff, TimeUS,SampleUS,GyrX,GyrY,GyrZ
FMT, 179, 31, GYR3, QQfff, TimeUS,SampleUS,GyrX,GyrY,GyrZ
FMT, 181, 35, PIDR, Qffffff, TimeUS,Des,P,I,D,FF,AFF
FMT, 182, 35, PIDP, Qffffff, TimeUS,Des,P,I,D,FF,AFF
FMT, 183, 35, PIDY, Qffffff, TimeUS,Des,P,I,D,FF,AFF
FMT, 184, 35, PIDA, Qffffff, TimeUS,Des,P,I,D,FF,AFF
FMT, 185, 35, PIDS, Qffffff, TimeUS,Des,P,I,D,FF,AFF
FMT, 186, 35, PIDL, Qffffff, TimeUS,Des,P,I,D,FF,AFF
FMT, 161, 37, BAR2, QffcfIff, TimeUS,Alt,Press,Temp,CRt,SMS,Offset,GndTemp
FMT, 197, 37, BAR3, QffcfIff, TimeUS,Alt,Press,Temp,CRt,SMS,Offset,GndTemp
FMT, 187, 35, VIBE, QfffIII, TimeUS,VibeX,VibeY,VibeZ,Clip0,Clip1,Clip2
FMT, 188, 47, IMT, Qfffffffff, TimeUS,DelT,DelvT,DelaT,DelAX,DelAY,DelAZ,DelVX,DelVY,DelVZ
FMT, 189, 47, IMT2, Qfffffffff, TimeUS,DelT,DelvT,DelaT,DelAX,DelAY,DelAZ,DelVX,DelVY,DelVZ
FMT, 190, 47, IMT3, Qfffffffff, TimeUS,DelT,DelvT,DelaT,DelAX,DelAY,DelAZ,DelVX,DelVY,DelVZ
FMT, 191, 24, ORGN, QBLLe, TimeUS,Type,Lat,Lng,Alt
FMT, 192, 19, RPM, Qff, TimeUS,rpm1,rpm2
FMT, 233, 47, GMB1, Iffffffffff, TimeMS,dt,dax,day,daz,dvx,dvy,dvz,jx,jy,jz
FMT, 234, 44, GMB2, IBfffffffff, TimeMS,es,ex,ey,ez,rx,ry,rz,tx,ty,tz
FMT, 235, 13, GMB3, Ihhh, TimeMS,rl_torque_cmd,el_torque_cmd,az_torque_cmd
FMT, 236, 59, RATE, Qffffffffffff, TimeUS,RDes,R,ROut,PDes,P,POut,YDes,Y,YOut,ADes,A,AOut
FMT, 237, 23, RALY, QBBLLh, TimeUS,Tot,Seq,Lat,Lng,Alt
FMT, 238, 43, VISO, Qffffffff, TimeUS,dt,AngDX,AngDY,AngDZ,PosDX,PosDY,PosDZ,conf
FMT, 224, 23, SBPH, QIII, TimeUS,CrcError,LastInject,IARhyp
FMT, 229, 80, SBR1, QHHBZ, TimeUS,msg_type,sender_id,msg_len,d1
FMT, 230, 205, SBR2, QHZZZ, TimeUS,msg_type,d2,d3,d4
FMT, 25, 41, ATUN, QBBfffffff, TimeUS,Axis,TuneStep,Targ,Min,Max,RP,RD,SP,ddt
FMT, 26, 19, ATDE, Qff, TimeUS,Angle,Rate
FMT, 31, 22, PTUN, QBfHHH, TimeUS,Param,TunVal,CtrlIn,TunLo,TunHi
FMT, 12, 28, OF, QBffff, TimeUS,Qual,flowX,flowY,bodyX,bodyY
FMT, 5, 51, NTUN, Qffffffffff, TimeUS,DPosX,DPosY,PosX,PosY,DVelX,DVelY,VelX,VelY,DAccX,DAccY
FMT, 4, 51, CTUN, Qffffffeccfhh, TimeUS,ThI,ABst,ThO,ThH,DAlt,Alt,BAlt,DSAlt,SAlt,TAlt,DCRt,CRt
FMT, 6, 32, PM, QHHIhBHII, TimeUS,NLon,NLoop,MaxT,PMT,I2CErr,INSErr,LogDrop,Mem
FMT, 30, 27, MOTB, Qffff, TimeUS,LiftMax,BatVolt,BatRes,ThLimit
FMT, 13, 12, EV, QB, TimeUS,Id
FMT, 20, 14, D16, QBh, TimeUS,Id,Value
FMT, 21, 14, DU16, QBH, TimeUS,Id,Value
FMT, 22, 16, D32, QBi, TimeUS,Id,Value
FMT, 23, 16, DU32, QBI, TimeUS,Id,Value
FMT, 24, 16, DFLT, QBf, TimeUS,Id,Value
FMT, 19, 13, ERR, QBB, TimeUS,Subsys,ECode
FMT, 32, 19, HELI, Qff, TimeUS,DRRPM,ERRPM
FMT, 33, 29, PL, QBBffff, TimeUS,Heal,TAcq,pX,pY,vX,vY
FMT, 34, 36, GUID, QBffffff, TimeUS,Type,pX,pY,pZ,vX,vY,vZ
FMT, 35, 32, THRO, QBffffbbbb, TimeUS,Stage,Vel,VelZ,Acc,AccEfZ,Throw,AttOk,HgtOk,PosOk
FMT, 36, 56, PRX, QBfffffffffff, TimeUS,Health,D0,D45,D90,D135,D180,D225,D270,D315,DUp,CAn,CDis
MODE, 309494574, 100, 100, 2
FMT, 254, 47, NKT1, QIffffffff, TimeUS,Cnt,IMUMin,IMUMax,EKFMin,EKFMax,AngMin,AngMax,VelMin,VelM
FMT, 253, 31, CTRL, Qfffff, TimeUS,RMSRollP,RMSRollD,RMSPitchP,RMSPitchD,RMSYaw
IMU, 309540114, -0.001001656, 5.138363E-05, -0.0002874307, 0.1077485, -0.00592551, -10.10685, 0, 0, 38.71564, 1, 1, 1000, 1000
MSG, 309669838, APM:Copter V3.5.7 (48b6d6f2)
MSG, 309669843, New mission
MSG, 309669855, Frame: QUAD
MODE, 309669859, Autonomous, 100, 2
MAG, 309701941, 214, 639, 245, 0, 0, 0, 0, 0, 0, 1, 309701933
RFND, 309701972, 0.2, 25, 0, 0
BARO, 309702082, -0.1864975, 980.7701, 37.49, 0.01739758, 309702, 0, 35
CTUN, 309702097, 0, 0, 0, 0.3590944, 0.0727684, 0.0727684, -0.18, 0, 0.19, 0, 0, 0
ATT, 309702214, 0, 0.51, 0, -0.03, 175.45, 175.46, 0, 1
RATE, 309702221, -2.334095, 0.03831697, -0.005695531, 0.1785509, 0.06007117, 0.0003563948, -0.0007866822, -0.01820738, 8.125897E-05, -146.7177, 0.4622459, 0
NKF1, 309702229, 0.51, -0.03, 175.46, 0.03099617, -0.001022009, -0.003622658, 0, 0, 0, -0.0727684, -0.01, 0, 0
NKF2, 309702229, -28, 0, 0, 0, 0, 0, 0, 0, 0, 0, 0, 0, 0
NKF3, 309702229, 0, 0, 0, 0.01, 0, 0, 0, 0, 0, 0, 0
NKF4, 309702229, 0, 0, 0, 0, 0, 3.66928E-05, 0, 0, 0, 19, 229, 0, 0
NKF5, 309702229, 0, 0, 0, 0, 0.2, 0.13, 0, 0.19, 0.5, 9.598049E-05, 0.002222912, 0.004799577
NKQ1, 309702229, -0.03958243, 0.006532592, -0.0002408381, -0.999195
AHR2, 309702274, 0.22, -0.08, 175.13, -0.18, 0, 0, 0.0424439, 0.000804759, 0.001951969, 0.9990966
MOTB, 309702281, 1, 1, 0, 1
RCIN, 309702286, 0, 0, 0, 0, 0, 0, 0, 0, 0, 0, 0, 0, 0, 0
RCOU, 309702291, 1101, 1101, 1101, 1101, 0, 0, 0, 0, 0, 0, 0, 0, 0, 0
VIBE, 309702300, 0.02105032, 0.02156886, 0.03142966, 0, 0, 0
CTRL, 309702307, 0.005479257, 0.0001704454, 0.0004144713, 0.0001406155, 5.745413E-05
PRX, 309702339, 2, 0.59, 0, 0.51, 0, 3.6, 0, 2.59, 0, 0, 90, 0.51
IMU, 309702345, 0.0004701824, 0.001139667, -0.0003843962, 0.120496, 0.002756843, -10.10018, 0, 0, 38.71592, 1, 1, 1000, 1000
IMU, 309742161, -0.0004855191, 0.0008431896, -0.001177606, 0.1251969, -0.001708962, -10.10757, 0, 0, 38.71679, 1, 1, 1000, 1000
RFND, 309752106, 0.2, 25, 0, 0
IMU, 309782122, -0.000575184, 0.0006488865, -2.98438E-05, 0.1110484, -0.001297593, -10.11346, 0, 0, 38.71786, 1, 1, 1000, 1000
MAG, 309802004, 214, 640, 250, 0, 0, 0, 0, 0, 0, 1, 309801996
RFND, 309802034, 0.2, 25, 0, 0
BARO, 309802073, -0.1864975, 980.7701, 37.49, -0.08069574, 309802, 0, 35
CTUN, 309802087, 0, 0, 0, 0.3590944, 0.07285263, 0.07285263, -0.18, 0, 0.19, 0, 0, 0
ATT, 309802206, 0, 0.51, 0, -0.03, 175.45, 175.46, 0, 1
RATE, 309802213, -2.326, -0.009444924, -0.005422964, 0.1733031, 0.005423553, 0.0004333367, -0.0005062351, -0.0415925, 4.871539E-05, -181.0085, -0.203228, 0
NKF1, 309802221, 0.51, -0.03, 175.46, 0.03142839, -0.001041658, -0.004469346, 0, 0, 0, -0.07285263, -0.01, 0, 0
NKF2, 309802221, -29, 0, 0, 0, 0, 0, 0, 0, 0, 0, 0, 0, 0
NKF3, 309802221, 0, 0, 0, 0.01, 0, 0, 0, 0, 0, 0, 0
NKF4, 309802221, 0, 0, 0, 0, 0, 2.447285E-05, 0, 0, 0, 19, 229, 0, 0
NKF5, 309802221, 0, 0, 0, 0, 0.2, 0.13, 0, 0.19, 0.5, 7.45759E-05, 0.001621167, 0.003601061
NKQ1, 309802221, -0.03959587, 0.006542658, -0.00022831, -0.9991943
AHR2, 309802268, 0.22, -0.08, 175.13, -0.18, 0, 0, 0.04246152, 0.0007969268, 0.001930562, 0.9990959
MOTB, 309802274, 1, 1, 0, 1
RCIN, 309802278, 0, 0, 0, 0, 0, 0, 0, 0, 0, 0, 0, 0, 0, 0
RCOU, 309802284, 1101, 1101, 1101, 1101, 0, 0, 0, 0, 0, 0, 0, 0, 0, 0
VIBE, 309802293, 0.02015405, 0.02027692, 0.03718636, 0, 0, 0
CTRL, 309802299, 0.005474023, 0.0001563432, 0.0003993487, 0.0001307796, 5.579613E-05
PRX, 309802331, 2, 0.59, 0, 0.51, 0, 3.6, 0, 2.55, 0, 0, 90, 0.51
IMU, 309822630, -0.0001402915, 0.0004877353, -0.000157231, 0.1110668, -0.001690386, -10.10372, 0, 0, 38.71886, 1, 1, 1000, 1000
RFND, 309851977, 0.2, 25, 0, 0
IMU, 309861817, -0.0001776734, -0.0004853016, -0.0003389126, 0.1213456, -0.002830477, -10.11229, 0, 0, 38.71924, 1, 1, 1000, 1000
MAG, 309901747, 214, 640, 244, 0, 0, 0, 0, 0, 0, 1, 309901738
RFND, 309901775, 0.2, 25, 0, 0
BARO, 309901813, -0.1751946, 980.7689, 37.49, -0.1959811, 309901, 0, 35
CTUN, 309901917, 0, 0, 0, 0.3590944, 0.0729972, 0.0729972, -0.17, 0, 0.19, 0, 0, 0
DU32, 309901953, 7, 50389208
ATT, 309902078, 0, 0.51, 0, -0.03, 175.45, 175.45, 0, 1
RATE, 309902084, -2.324264, -0.06376237, -0.005086469, 0.1737626, 0.02280439, 0.0002294637, -0.001885491, -0.01833604, 7.792033E-05, -194.6157, -2.063465, 0
NKF1, 309902114, 0.51, -0.03, 175.45, 0.03275906, -0.0012253, -0.004805326, 0, 0, 0, -0.0729972, -0.01, 0, 0
NKF2, 309902114, -29, 0, 0, 0, 0, 0, 0, 0, 0, 0, 0, 0, 0
NKF3, 309902114, 0, 0, 0, 0.02, 0, 0, 0, 0, 0, 0, 0
NKF4, 309902114, 0, 0, 0, 0, 0, 1.628914E-05, 0, 0, 0, 19, 229, 0, 0
NKF5, 309902114, 0, 0, 0, 0, 0.2, 0.13, 0, 0.19, 0.5, 5.596393E-05, 0.001155092, 0.00262825
NKQ1, 309902114, -0.03962171, 0.006542601, -0.0002225257, -0.9991933
AHR2, 309902159, 0.22, -0.08, 175.12, -0.17, 0, 0, 0.04249136, 0.0007980675, 0.001918186, 0.9990947
MOTB, 309902183, 1, 1, 0, 1
RCIN, 309902188, 0, 0, 0, 0, 0, 0, 0, 0, 0, 0, 0, 0, 0, 0
RCOU, 309902193, 1101, 1101, 1101, 1101, 0, 0, 0, 0, 0, 0, 0, 0, 0, 0
VIBE, 309902201, 0.01984937, 0.02004197, 0.03892824, 0, 0, 0
CTRL, 309902208, 0.005470367, 0.0001690751, 0.0004046323, 0.0001455933, 6.667923E-05
PRX, 309902240, 2, 0.59, 0, 0.51, 0, 3.6, 0, 2.57, 0, 0, 90, 0.51
IMU, 309902247, -0.001312054, 0.000489523, -0.0003868483, 0.1052629, 0.001702235, -10.07602, 0, 0, 38.71908, 1, 1, 1000, 1000
IMU, 309942117, 7.3435E-05, 8.730979E-05, 0.001033869, 0.115665, -0.005137468, -10.11002, 0, 0, 38.71923, 1, 1, 1000, 1000
RFND, 309952346, 0.2, 25, 0, 0
IMU, 309982006, -0.0004994808, -0.0007553301, -0.0003765892, 0.1193645, 0.006199089, -10.0899, 0, 0, 38.71911, 1, 1, 1000, 1000
MAG, 310001969, 209, 637, 243, 0, 0, 0, 0, 0, 0, 1, 310001961
RFND, 310002000, 0.2, 25, 0, 0
BARO, 310002039, -0.2204061, 980.7739, 37.49, -0.1652916, 310002, 0, 35
CTUN, 310002052, 0, 0, 0, 0.3590944, 0.07324078, 0.07324078, -0.22, 0, 0.19, 0, 0, 0
ATT, 310002258, 0, 0.51, 0, -0.03, 175.45, 175.46, 0, 1
RATE, 310002265, -2.331101, 0.01442696, -0.005511941, 0.1733033, 0.05725247, 0.0001283531, -0.001074876, 0.04880922, -3.130053E-05, -222.0268, 2.452755, 0
NKF1, 310002274, 0.51, -0.03, 175.46, 0.03361754, -0.001444047, -0.005482142, 0, 0, 0, -0.07324078, -0.01, 0, 0
NKF2, 310002274, -29, 0, 0, 0, 0, 0, 0, 0, 0, 0, 0, 0, 0
NKF3, 310002274, 0, 0, 0, 0.02, 0, 0, 0, 0, 0, 0, 0
NKF4, 310002274, 0, 0, 0, 0, 0, 1.101071E-05, 0, 0, 0, 19, 229, 0, 0
NKF5, 310002274, 0, 0, 0, 0, 0.2, 0.13, 0, 0.19, 0.5, 4.384528E-05, 0.000863025, 0.002020732
NKQ1, 310002274, -0.03960234, 0.006544025, -0.0002368338, -0.9991941
AHR2, 310002317, 0.22, -0.08, 175.13, -0.22, 0, 0, 0.04247603, 0.000798978, 0.00192646, 0.9990953
MOTB, 310002325, 1, 1, 0, 1
RCIN, 310002330, 0, 0, 0, 0, 0, 0, 0, 0, 0, 0, 0, 0, 0, 0
RCOU, 310002335, 1101, 1101, 1101, 1101, 0, 0, 0, 0, 0, 0, 0, 0, 0, 0
VIBE, 310002344, 0.0214748, 0.02105205, 0.03349559, 0, 0, 0
CTRL, 310002350, 0.005480512, 0.0001536645, 0.0004067866, 0.0001840421, 5.837087E-05
PRX, 310002380, 2, 0.59, 0, 0.51, 0, 3.6, 0, 2.57, 0, 0, 90, 0.51
IMU, 310022116, -0.001080088, 0.001441447, -2.549359E-05, 0.1112056, 0.009060333, -10.10642, 0, 0, 38.71915, 1, 1, 1000, 1000
RFND, 310052062, 0.2, 25, 0, 0
IMU, 310062289, -0.0004286996, 0.0008377706, -0.0006640126, 0.1245248, 0.002815633, -10.10645, 0, 0, 38.71978, 1, 1, 1000, 1000
MAG, 310101966, 213, 639, 249, 0, 0, 0, 0, 0, 0, 1, 310101959
RFND, 310101997, 0.2, 25, 0, 0
BARO, 310102037, -0.2543148, 980.7773, 37.49, -0.1053483, 310102, 0, 35
CTUN, 310102050, 0, 0, 0, 0.3590944, 0.07342298, 0.07342298, -0.25, 0, 0.19, 0, 0, 0
ATT, 310102143, 0, 0.51, 0, -0.03, 175.45, 175.46, 0, 1
RATE, 310102149, -2.32368, -0.01504754, -0.005374568, 0.1581856, -0.05240425, 0.0006631854, -0.002123845, 0.02077486, -3.605254E-05, -215.6561, -0.04262924, 0
NKF1, 310102156, 0.51, -0.03, 175.46, 0.03443918, -0.001892989, -0.005324843, 0, 0, 0, -0.07342298, -0.01, 0, 0
NKF2, 310102156, -29, 0, 0, 0, 0, 0, 0, 0, 0, 0, 0, 0, 0
NKF3, 310102156, 0, 0, 0, 0.02, 0, 0, 0, 0, 0, 0, 0
NKF4, 310102156, 0, 0, 0, 0, 0, 7.470808E-06, 0, 0, 0, 19, 229, 0, 0
NKF5, 310102156, 0, 0, 0, 0, 0.2, 0.13, 0, 0.19, 0.5, 3.829208E-05, 0.0006349728, 0.001479535
NKQ1, 310102156, -0.0395948, 0.006573406, -0.0002234368, -0.9991943
AHR2, 310102226, 0.22, -0.07, 175.13, -0.25, 0, 0, 0.04247244, 0.0007779591, 0.001904055, 0.9990956
MOTB, 310102234, 1, 1, 0, 1
RCIN, 310102238, 0, 0, 0, 0, 0, 0, 0, 0, 0, 0, 0, 0, 0, 0
RCOU, 310102244, 1101, 1101, 1101, 1101, 0, 0, 0, 0, 0, 0, 0, 0, 0, 0
VIBE, 310102252, 0.02002321, 0.02146676, 0.03455355, 0, 0, 0
CTRL, 310102259, 0.005470679, 0.000141039, 0.0003740313, 0.000179067, 4.964713E-05
PRX, 310102291, 2, 0.59, 0, 0.51, 0, 3.6, 0, 2.61, 0, 0, 90, 0.51
IMU, 310102297, -0.0004619946, -0.0008230337, 0.0002957066, 0.1276299, -0.0007760591, -10.0962, 0, 0, 38.72042, 1, 1, 1000, 1000
IMU, 310142122, -0.0002787755, 0.00064546, -0.0006501267, 0.1095573, 0.005729239, -10.09928, 0, 0, 38.72113, 1, 1, 1000, 1000
RFND, 310151959, 0.2, 25, 0, 0
IMU, 310181838, 0.0004554784, -4.359908E-05, 0.0001493626, 0.1174115, -0.003279336, -10.10208, 0, 0, 38.72188, 1, 1, 1000, 1000
MAG, 310201927, 216, 637, 251, 0, 0, 0, 0, 0, 0, 1, 310201851
RFND, 310201957, 0.2, 25, 0, 0
BARO, 310201995, -0.2995263, 980.7827, 37.5, -0.1800691, 310201, 0, 35
CTUN, 310202008, 0, 0, 0, 0.3590944, 0.07367541, 0.07367541, -0.29, 0, 0.19, 0, 0, 0
ATT, 310202210, 0, 0.51, 0, -0.03, 175.45, 175.46, 0, 1
RATE, 310202217, -2.337624, 0.01077854, -0.005422901, 0.1528696, 0.02253651, 0.0002782989, 0.0006614835, -0.04324503, -1.132121E-05, -205.2152, -2.290916, 0
NKF1, 310202224, 0.51, -0.03, 175.46, 0.03589787, -0.002214641, -0.005067042, 0, 0, 0, -0.07367541, -0.01, 0, 0
NKF2, 310202224, -29, 0, 0, 0, 0, 0, 0, 0, 0, 0, 0, 0, 0
NKF3, 310202224, 0, 0, 0, 0.03, 0, 0, 0, 0, 0, 0, 0
NKF4, 310202224, 0, 0, 0, 0, 0, 5.103657E-06, 0, 0, 0, 19, 229, 0, 0
NKF5, 310202224, 0, 0, 0, 0, 0.2, 0.13, 0, 0.19, 0.5, 3.688303E-05, 0.0004891896, 0.001078872
NKQ1, 310202224, -0.03960698, 0.00658153, -0.0002506047, -0.9991937
AHR2, 310202270, 0.22, -0.07, 175.12, -0.29, 0, 0, 0.04248865, 0.0007801841, 0.001921552, 0.9990948
MOTB, 310202277, 1, 1, 0, 1
RCIN, 310202282, 0, 0, 0, 0, 0, 0, 0, 0, 0, 0, 0, 0, 0, 0
RCOU, 310202288, 1101, 1101, 1101, 1101, 0, 0, 0, 0, 0, 0, 0, 0, 0, 0
VIBE, 310202296, 0.02139992, 0.01983761, 0.03481781, 0, 0, 0
CTRL, 310202303, 0.005495104, 0.0001433591, 0.0003698512, 0.0001729483, 4.406719E-05
PRX, 310202333, 2, 0.59, 0, 0.51, 0, 3.6, 0, 2.58, 0, 0, 90, 0.51
IMU, 310222035, 0.0003093954, 0.001222022, -0.000575794, 0.1142522, 0.01081848, -10.09483, 0, 0, 38.72172, 1, 1, 1000, 1000
RFND, 310251805, 0.2, 25, 0, 0
IMU, 310262020, -0.001060462, 0.0003670997, 0.0001896481, 0.1191412, 0.007160994, -10.12222, 0, 0, 38.72171, 1, 1, 1000, 1000
MAG, 310301954, 210, 637, 245, 0, 0, 0, 0, 0, 0, 1, 310301945
RFND, 310301984, 0.2, 25, 0, 0
BARO, 310302025, -0.1356345, 980.7644, 37.5, -0.2487556, 310302, 0, 35
CTUN, 310302038, 0, 0, 0, 0.3590944, 0.0738466, 0.0738466, -0.13, 0, 0.19, 0, 0, 0
ATT, 310302155, 0, 0.51, 0, -0.03, 175.45, 175.46, 0, 1
RATE, 310302179, -2.337007, -0.06364742, -0.005067284, 0.1355299, 0.001208735, 0.0004851531, -0.000646877, -0.00215197, -1.830129E-05, -203.4206, -1.499939, 0
NKF1, 310302187, 0.51, -0.03, 175.46, 0.03711315, -0.003352578, -0.00502273, 0, 0, 0, -0.0738466, -0.01, 0, 0
NKF2, 310302187, -29, 0, 0, 0, 0, 0, 0, 0, 0, 0, 0, 0, 0
NKF3, 310302187, 0, 0, 0, 0.03, 0, 0, 0, 0, 0, 0, 0
NKF4, 310302187, 0, 0, 0, 0, 0, 3.53758E-06, 0, 0, 0, 19, 229, 0, 0
NKF5, 310302187, 0, 0, 0, 0, 0.2, 0.13, 0, 0.19, 0.5, 3.706024E-05, 0.0004393044, 0.001046448
NKQ1, 310302187, -0.03959988, 0.006615925, -0.0002504518, -0.9991937
AHR2, 310302233, 0.22, -0.07, 175.12, -0.13, 0, 0, 0.04248552, 0.0007549165, 0.001912213, 0.999095
MOTB, 310302240, 1, 1, 0, 1
RCIN, 310302244, 0, 0, 0, 0, 0, 0, 0, 0, 0, 0, 0, 0, 0, 0
RCOU, 310302250, 1101, 1101, 1101, 1101, 0, 0, 0, 0, 0, 0, 0, 0, 0, 0
VIBE, 310302258, 0.02213458, 0.01965208, 0.03825571, 0, 0, 0
CTRL, 310302265, 0.005501615, 0.0001702276, 0.0003333525, 0.0001594455, 3.734338E-05
PRX, 310302296, 2, 0.59, 0, 0.51, 0, 3.6, 0, 2.6, 0, 0, 90, 0.51
IMU, 310302303, -0.001309932, 0.0001125576, -0.0001043448, 0.1060052, 0.01179274, -10.08149, 0, 0, 38.7217, 1, 1, 1000, 1000
IMU, 310342210, -0.0007916322, -0.0005803604, -0.0005047737, 0.1111854, -0.003597331, -10.09364, 0, 0, 38.72172, 1, 1, 1000, 1000
RFND, 310352378, 0.2, 25, 0, 0
IMU, 310382432, 0.0002661569, -0.0002066648, 0.0002126307, 0.1099415, -0.01080342, -10.08983, 0, 0, 38.72172, 1, 1, 1000, 1000
MAG, 310402055, 216, 640, 243, 0, 0, 0, 0, 0, 0, 1, 310402047
RFND, 310402107, 0.2, 25, 0, 0
BARO, 310402149, -0.06781727, 980.7572, 37.49, -0.03783213, 310402, 0, 35
CTUN, 310402163, 0, 0, 0, 0.3590944, 0.07401121, 0.07401121, -0.06, 0, 0.19, 0, 0, 0
ATT, 310402358, 0, 0.51, 0, -0.03, 175.45, 175.45, 0, 1
RATE, 310402365, -2.335218, 0.009138244, -0.005419455, 0.1371308, -0.01490483, 0.0003637215, -0.001966573, -0.02631876, 3.991621E-05, -183.042, -0.8629799, 0
NKF1, 310402373, 0.51, -0.03, 175.45, 0.03864632, -0.003003134, -0.004519556, 0, 0, 0, -0.07401121, -0.01, 0, 0
NKF2, 310402373, -29, 0, 0, 0, 0, 0, 0, 0, 0, 0, 0, 0, 0
NKF3, 310402373, 0, 0, 0, 0.04, 0, 0, 0, 0, 0, 0, 0
NKF4, 310402373, 0, 0, 0, 0, 0, 2.530947E-06, 0, 0, 0, 19, 229, 0, 0
NKF5, 310402373, 0, 0, 0, 0, 0.2, 0.13, 0, 0.19, 0.5, 3.72496E-05, 0.000378449, 0.0008368489
NKQ1, 310402373, -0.03961641, 0.00661247, -0.0002475748, -0.9991931
AHR2, 310402420, 0.22, -0.07, 175.12, -0.06, 0, 0, 0.04250576, 0.0007677234, 0.001899924, 0.9990941
MOTB, 310402427, 1, 1, 0, 1
RCIN, 310402432, 0, 0, 0, 0, 0, 0, 0, 0, 0, 0, 0, 0, 0, 0
RCOU, 310402437, 1101, 1101, 1101, 1101, 0, 0, 0, 0, 0, 0, 0, 0, 0, 0
VIBE, 310402446, 0.02090166, 0.02142916, 0.03666884, 0, 0, 0
CTRL, 310402451, 0.005491984, 0.0001521498, 0.0003384916, 0.0001604694, 3.543936E-05
PRX, 310402481, 2, 0.59, 0, 0.51, 0, 0.67, 0, 2.58, 0, 0, 90, 0.51
IMU, 310422113, -0.0007237857, 0.0004016479, -0.000176245, 0.1147412, 0.00272744, -10.08989, 0, 0, 38.72177, 1, 1, 1000, 1000
RFND, 310452106, 0.2, 25, 0, 0
IMU, 310462181, -0.0009953107, 0.0002797509, 0.001612572, 0.1123572, -0.002678161, -10.10417, 0, 0, 38.72182, 1, 1, 1000, 1000
MAG, 310502020, 209, 642, 248, 0, 0, 0, 0, 0, 0, 1, 310502012
RFND, 310502051, 0.2, 25, 0, 0
BARO, 310502090, -0.2091032, 980.7726, 37.5, 0.3655951, 310502, 0, 35
CTUN, 310502104, 0, 0, 0, 0.3590944, 0.07412639, 0.07412639, -0.2, 0, 0.19, 0, 0, 0
ATT, 310502219, 0, 0.51, 0, -0.02, 175.45, 175.45, 0, 1
RATE, 310502227, -2.330919, 0.04412525, -0.005670897, 0.1230716, 0.07409115, 2.048281E-05, 0.0001214308, -0.1019005, 2.390762E-05, -214.3911, 2.52924, 0
NKF1, 310502235, 0.51, -0.02, 175.45, 0.04042891, -0.003220969, -0.005293608, 0, 0, 0, -0.07412639, -0.01, 0, 0
NKF2, 310502235, -29, 0, 0, 0, 0, 0, 0, 0, 0, 0, 0, 0, 0
NKF3, 310502235, 0, 0, 0, 0.04, 0, 0, 0, 0, 0, 0, 0
NKF4, 310502235, 0, 0, 0, 0, 0, 1.876136E-06, 0, 0, 0, 19, 229, 0, 0
NKF5, 310502235, 0, 0, 0, 0, 0.2, 0.13, 0, 0.19, 0.5, 3.732254E-05, 0.0003945733, 0.0009680204
NKQ1, 310502235, -0.03963133, 0.006638544, -0.0002421427, -0.9991923
AHR2, 310502281, 0.21, -0.07, 175.12, -0.2, 0, 0, 0.04252458, 0.0007518867, 0.001886607, 0.9990934
MOTB, 310502289, 1, 1, 0, 1
RCIN, 310502293, 0, 0, 0, 0, 0, 0, 0, 0, 0, 0, 0, 0, 0, 0
RCOU, 310502298, 1101, 1101, 1101, 1101, 0, 0, 0, 0, 0, 0, 0, 0, 0, 0
VIBE, 310502307, 0.02073051, 0.02003284, 0.03509317, 0, 0, 0
CTRL, 310502313, 0.005479002, 0.0001495621, 0.0003167549, 0.0001609764, 3.492296E-05
PRX, 310502345, 2, 0.59, 0, 0.51, 0, 0.67, 0, 2.61, 0, 0, 90, 0.51
IMU, 310502351, 0.000570569, 0.001384822, -0.001845449, 0.1215871, 0.002158953, -10.12229, 0, 0, 38.72189, 1, 1, 1000, 1000
IMU, 310542193, -0.002035012, -0.0001496629, 0.001144114, 0.1186408, 0.001192439, -10.09258, 0, 0, 38.72191, 1, 1, 1000, 1000
RFND, 310552039, 0.2, 25, 0, 0
IMU, 310582197, -0.001062781, 0.0006553511, -0.0009350971, 0.1076366, 0.007950637, -10.11219, 0, 0, 38.7219, 1, 1, 1000, 1000
MAG, 310602015, 210, 641, 246, 0, 0, 0, 0, 0, 0, 1, 310602008
RFND, 310602045, 0.2, 25, 0, 0
BARO, 310602105, -0.1751946, 980.7689, 37.49, 0.4308871, 310602, 0, 35
CTUN, 310602121, 0, 0, 0, 0.3590944, 0.07431456, 0.07431456, -0.17, 0, 0.19, 0, 0, 0
ATT, 310602290, 0, 0.51, 0, -0.02, 175.44, 175.45, 0, 1
RATE, 310602298, -2.327655, 0.03768177, -0.005846701, 0.1205364, -0.02949135, 0.0005342297, 0.001093438, -0.007379392, 5.891301E-05, -226.0321, -1.263428, 0
NKF1, 310602306, 0.51, -0.02, 175.45, 0.0424846, -0.003709491, -0.005581039, 0, 0, 0, -0.07431456, -0.01, 0, 0
NKF2, 310602306, -29, 0, 0, 0, 0, 0, 0, 0, 0, 0, 0, 0, 0
NKF3, 310602306, 0, 0, 0, 0.04, 0, 0, 0, 0, 0, 0, 0
NKF4, 310602306, 0, 0, 0, 0, 0, 1.474472E-06, 0, 0, 0, 19, 229, 0, 0
NKF5, 310602306, 0, 0, 0, 0, 0.2, 0.13, 0, 0.19, 0.5, 3.720579E-05, 0.0003461142, 0.0008166431
NKQ1, 310602306, -0.03964943, 0.00664554, -0.0002343314, -0.9991916
AHR2, 310602352, 0.21, -0.07, 175.12, -0.17, 0, 0, 0.04254642, 0.0007552616, 0.001871088, 0.9990925
MOTB, 310602360, 1, 1, 0, 1
RCIN, 310602365, 0, 0, 0, 0, 0, 0, 0, 0, 0, 0, 0, 0, 0, 0
RCOU, 310602370, 1101, 1101, 1101, 1101, 0, 0, 0, 0, 0, 0, 0, 0, 0, 0
VIBE, 310602379, 0.01951777, 0.02239992, 0.03613748, 0, 0, 0
CTRL, 310602385, 0.005468365, 0.0001700198, 0.0002979277, 0.0001491751, 5.031373E-05
PRX, 310602416, 2, 0.59, 0, 0.51, 0, 3.6, 0, 2.61, 0, 0, 90, 0.51
IMU, 310622063, -6.890854E-05, 0.0011958, -0.0002517033, 0.1061174, 0.01344402, -10.09144, 0, 0, 38.72181, 1, 1, 1000, 1000
RFND, 310652052, 0.2, 25, 0, 0
IMU, 310662262, 9.633983E-05, 0.001421488, -0.001280074, 0.1182334, 0.005398476, -10.09786, 0, 0, 38.72176, 1, 1, 1000, 1000
MAG, 310701988, 210, 641, 244, 0, 0, 0, 0, 0, 0, 1, 310701980
RFND, 310702018, 0.2, 25, 0, 0
BARO, 310702058, -0.1808461, 980.7693, 37.5, 0.06319115, 310702, 0, 35
CTUN, 310702071, 0, 0, 0, 0.3590944, 0.07455407, 0.07455407, -0.18, 0, 0.19, 0, 0, 0
ATT, 310702190, 0, 0.51, 0, -0.02, 175.44, 175.45, 0, 1
RATE, 310702197, -2.326915, -0.01101619, -0.005150069, 0.1004772, 0.03419484, 0.0001964483, -0.0003109945, 0.01392987, 7.596534E-05, -232.8026, -0.3452301, 0
NKF1, 310702206, 0.51, -0.02, 175.45, 0.04416, -0.004109906, -0.005748212, 0, 0, 0, -0.07455407, -0.01, 0, 0
NKF2, 310702206, -29, 0, 0, 0, 0, 0, 0, 0, 0, 0, 0, 0, 0
NKF3, 310702206, 0, 0, 0, 0.04, 0, 0, 0, 0, 0, 0, 0
NKF4, 310702206, 0, 0, 0, 0, 0, 1.233217E-06, 0, 0, 0, 19, 229, 0, 0
NKF5, 310702206, 0, 0, 0, 0, 0.2, 0.13, 0, 0.19, 0.5, 3.694696E-05, 0.0003805699, 0.0009668009
NKQ1, 310702206, -0.03965799, 0.006684921, -0.0002334516, -0.9991909
AHR2, 310702252, 0.21, -0.07, 175.12, -0.18, 0, 0, 0.04255899, 0.0007303006, 0.001861708, 0.999092
MOTB, 310702259, 1, 1, 0, 1
RCIN, 310702264, 0, 0, 0, 0, 0, 0, 0, 0, 0, 0, 0, 0, 0, 0
RCOU, 310702269, 1101, 1101, 1101, 1101, 0, 0, 0, 0, 0, 0, 0, 0, 0, 0
VIBE, 310702277, 0.01846885, 0.02035705, 0.03076728, 0, 0, 0
CTRL, 310702284, 0.005478647, 0.0001692826, 0.0002640391, 0.000158009, 5.194507E-05
PRX, 310702315, 2, 0.59, 0, 0.51, 0, 0.64, 0, 2.54, 0, 0, 90, 0.51
IMU, 310702322, -0.0003915177, 0.0006883593, 0.0001762771, 0.1130807, -0.005744491, -10.0932, 0, 0, 38.72186, 1, 1, 1000, 1000
IMU, 310742466, 0.0001096948, 0.0003613275, -0.0001182011, 0.1114655, 0.002000195, -10.09731, 0, 0, 38.72174, 1, 1, 1000, 1000
RFND, 310752033, 0.2, 25, 0, 0
IMU, 310782236, -1.089399E-05, 0.0001023814, -6.497973E-05, 0.1171241, 0.003875692, -10.10166, 0, 0, 38.72179, 1, 1, 1000, 1000
MAG, 310802362, 214, 637, 247, 0, 0, 0, 0, 0, 0, 1, 310802354
RFND, 310802392, 0.2, 25, 0, 0
BARO, 310802431, -0.1978004, 980.7711, 37.5, -0.192555, 310802, 0, 35
CTUN, 310802444, 0, 0, 0, 0.3590944, 0.07468393, 0.07468393, -0.19, 0, 0.19, 0, 0, 0
ATT, 310802606, 0, 0.51, 0, -0.02, 175.44, 175.45, 0, 1
RATE, 310802614, -2.32541, -0.01835966, -0.005361605, 0.09585316, 0.02678571, 0.0001049295, -2.673165E-05, 0.01686509, -1.680551E-05, -216.6836, -0.6931305, 0
NKF1, 310802622, 0.51, -0.02, 175.45, 0.04591798, -0.004054634, -0.005350213, 0, 0, 0, -0.07468393, -0.01, 0, 0
NKF2, 310802622, -29, 0, 0, 0, 0, 0, 0, 0, 0, 0, 0, 0, 0
NKF3, 310802622, 0, 0, 0, 0.05, 0, 0, 0, 0, 0, 0, 0
NKF4, 310802622, 0, 0, 0, 0, 0, 1.129019E-06, 0, 0, 0, 19, 229, 0, 0
NKF5, 310802622, 0, 0, 0, 0, 0.2, 0.13, 0, 0.19, 0.5, 3.680101E-05, 0.0003269452, 0.0008096707
NKQ1, 310802622, -0.03965195, 0.006693816, -0.0002336838, -0.9991911
AHR2, 310802668, 0.21, -0.07, 175.12, -0.19, 0, 0, 0.04255672, 0.0007366029, 0.001853376, 0.9990921
MOTB, 310802675, 1, 1, 0, 1
RCIN, 310802680, 0, 0, 0, 0, 0, 0, 0, 0, 0, 0, 0, 0, 0, 0
RCOU, 310802685, 1101, 1101, 1101, 1101, 0, 0, 0, 0, 0, 0, 0, 0, 0, 0
VIBE, 310802693, 0.02113078, 0.02086183, 0.0333814, 0, 0, 0
CTRL, 310802700, 0.005479154, 0.0001636159, 0.0002465873, 0.0001354912, 4.451923E-05
PRX, 310802731, 2, 0.59, 0, 0.51, 0, 0.64, 0, 2.59, 0, 0, 90, 0.51
IMU, 310822128, -0.0007284033, -0.0005293646, -0.001567098, 0.09809445, -0.0154979, -10.08976, 0, 0, 38.72182, 1, 1, 1000, 1000
RFND, 310852062, 0.2, 25, 0, 0
IMU, 310862141, 0.0003754515, 0.0004951372, -0.001587927, 0.1042927, 0.001147525, -10.11312, 0, 0, 38.7218, 1, 1, 1000, 1000
MAG, 310901989, 208, 637, 243, 0, 0, 0, 0, 0, 0, 1, 310901981
RFND, 310902019, 0.2, 25, 0, 0
BARO, 310902057, -0.2373604, 980.7756, 37.49, -0.1501164, 310902, 0, 35
CTUN, 310902071, 0, 0, 0, 0.3590944, 0.07488877, 0.07488877, -0.23, 0, 0.19, 0, 0, 0
DU32, 310902107, 7, 50389208
ATT, 310902326, 0, 0.52, 0, -0.02, 175.44, 175.45, 0, 1
RATE, 310902333, -2.33877, 0.03608896, -0.005708216, 0.100954, -0.03270086, 0.0004190677, -0.002631604, 0.01635255, 0.0001000489, -215.3724, -0.6016731, 0
NKF1, 310902341, 0.52, -0.02, 175.45, 0.04825234, -0.004554003, -0.005317836, 0, 0, 0, -0.07488877, -0.01, 0, 0
NKF2, 310902341, -29, 0, 0, 0, 0, 0, 0, 0, 0, 0, 0, 0, 0
NKF3, 310902341, 0, 0, 0, 0.05, 0, 0, 0, 0, 0, 0, 0
NKF4, 310902341, 0, 0, 0, 0, 0, 1.074327E-06, 0, 0, 0, 19, 229, 0, 0
NKF5, 310902341, 0, 0, 0, 0, 0.2, 0.13, 0, 0.19, 0.5, 3.669313E-05, 0.0003568701, 0.0009514905
NKQ1, 310902341, -0.03968382, 0.006682927, -0.0002588757, -0.99919
AHR2, 310902384, 0.21, -0.07, 175.11, -0.23, 0, 0, 0.04259243, 0.0007611742, 0.001874682, 0.9990906
MOTB, 310902392, 1, 1, 0, 1
RCIN, 310902396, 0, 0, 0, 0, 0, 0, 0, 0, 0, 0, 0, 0, 0, 0
RCOU, 310902401, 1101, 1101, 1101, 1101, 0, 0, 0, 0, 0, 0, 0, 0, 0, 0
VIBE, 310902410, 0.02052859, 0.02244947, 0.03476241, 0, 0, 0
CTRL, 310902417, 0.005496535, 0.0001541093, 0.0002528834, 0.0001526823, 6.392224E-05
PRX, 310902447, 2, 0.59, 0, 0.51, 0, 3.6, 0, 2.57, 0, 0, 90, 0.51
IMU, 310902454, 0.0004301479, -0.0004789689, 0.0002184011, 0.1182747, 0.01068199, -10.09126, 0, 0, 38.7218, 1, 1, 1000, 1000
IMU, 310942197, 0.0008044724, -9.785371E-05, -0.001451196, 0.1124634, -0.005587565, -10.08672, 0, 0, 38.72182, 1, 1, 1000, 1000
RFND, 310951995, 0.2, 25, 0, 0
IMU, 310982075, -0.0002931707, 0.0003437921, 0.0003458547, 0.1086031, 0.01224105, -10.11197, 0, 0, 38.72182, 1, 1, 1000, 1000
MAG, 311002057, 213, 643, 245, 0, 0, 0, 0, 0, 0, 1, 311002049
RFND, 311002115, 0.2, 25, 0, 0
BARO, 311002155, -0.2543148, 980.7777, 37.5, -0.1289235, 311002, 0, 35
CTUN, 311002184, 0, 0, 0, 0.3590944, 0.07494909, 0.07494909, -0.25, 0, 0.19, 0, 0, 0
ATT, 311002277, 0, 0.52, 0, -0.02, 175.44, 175.44, 0, 1
RATE, 311002284, -2.342407, 0.0379194, -0.005628091, 0.09495431, 0.06751054, -0.0002604709, 0.0002171547, -0.0146825, 6.994967E-05, -210.0769, -0.8185387, 0
NKF1, 311002292, 0.52, -0.02, 175.44, 0.04951992, -0.004906206, -0.005187084, 0, 0, 0, -0.07494909, -0.01, 0, 0
NKF2, 311002292, -29, 0, 0, 0, 0, 0, 0, 0, 0, 0, 0, 0, 0
NKF3, 311002292, 0, 0, 0, 0.06, 0, 0, 0, 0, 0, 0, 0
NKF4, 311002292, 0, 0, 0, 0, 0, 1.127501E-06, 0, 0, 0, 19, 229, 0, 0
NKF5, 311002292, 0, 0, 0, 0, 0.2, 0.13, 0, 0.19, 0.5, 3.664518E-05, 0.0002992314, 0.0007703835
NKQ1, 311002292, -0.03971796, 0.006693756, -0.0002661006, -0.9991885
AHR2, 311002336, 0.21, -0.07, 175.11, -0.25, 0, 0, 0.04263051, 0.0007634751, 0.001879043, 0.9990889
MOTB, 311002343, 1, 1, 0, 1
RCIN, 311002348, 0, 0, 0, 0, 0, 0, 0, 0, 0, 0, 0, 0, 0, 0
RCOU, 311002353, 1101, 1101, 1101, 1101, 0, 0, 0, 0, 0, 0, 0, 0, 0, 0
VIBE, 311002362, 0.02199806, 0.021283, 0.0354709, 0, 0, 0
CTRL, 311002368, 0.005509822, 0.0001873702, 0.0002528466, 0.0001552188, 8.256424E-05
PRX, 311002400, 2, 0.59, 0, 0.51, 0, 3.6, 0, 2.57, 0, 0, 90, 0.51
IMU, 311022654, 0.0001877164, -5.073842E-05, -0.0005493565, 0.1271124, 0.001969528, -10.09848, 0, 0, 38.72177, 1, 1, 1000, 1000
RFND, 311052901, 0.2, 25, 0, 0
IMU, 311062041, -4.909313E-05, 0.001729381, 0.0001961629, 0.1252428, 0.002265625, -10.09372, 0, 0, 38.72185, 1, 1, 1000, 1000
MAG, 311102060, 213, 641, 253, 0, 0, 0, 0, 0, 0, 1, 311102052
RFND, 311102118, 0.2, 25, 0, 0
BARO, 311102157, -0.2543148, 980.7773, 37.49, -0.2013325, 311102, 0, 35
CTUN, 311102186, 0, 0, 0, 0.3590944, 0.07506888, 0.07506888, -0.25, 0, 0.19, 0, 0, 0
ATT, 311102397, 0, 0.52, 0, -0.01, 175.43, 175.44, 0, 1
RATE, 311102404, -2.347978, 0.003399621, -0.005527148, 0.08162513, 0.04959852, -5.622393E-05, -0.002001746, 0.01373642, 4.834206E-05, -172.4362, -1.59235, 0
NKF1, 311102412, 0.52, -0.01, 175.44, 0.05059286, -0.005208035, -0.004257683, 0, 0, 0, -0.07506888, -0.01, 0, 0
NKF2, 311102412, -29, 0, 0, 0, 0, 0, 0, 0, 0, 0, 0, 0, 0
NKF3, 311102412, 0, 0, 0, 0.06, 0, 0, 0, 0, 0, 0, 0
NKF4, 311102412, 0, 0, 0, 0, 0, 1.187734E-06, 0, 0, 0, 19, 229, 0, 0
NKF5, 311102412, 0, 0, 0, 0, 0.2, 0.13, 0, 0.19, 0.5, 3.663218E-05, 0.000291603, 0.0006853406
NKQ1, 311102412, -0.03972954, 0.006719577, -0.0002790476, -0.9991879
AHR2, 311102457, 0.22, -0.07, 175.11, -0.25, 0, 0, 0.04264612, 0.0007502285, 0.001892537, 0.9990882
MOTB, 311102464, 1, 1, 0, 1
RCIN, 311102468, 0, 0, 0, 0, 0, 0, 0, 0, 0, 0, 0, 0, 0, 0
RCOU, 311102473, 1101, 1101, 1101, 1101, 0, 0, 0, 0, 0, 0, 0, 0, 0, 0
VIBE, 311102484, 0.0215393, 0.02003743, 0.03688296, 0, 0, 0
CTRL, 311102490, 0.005519306, 0.0001651165, 0.0002265636, 0.0001684859, 8.077776E-05
PRX, 311102589, 2, 0.59, 0, 0.51, 0, 3.6, 0, 2.6, 0, 0, 90, 0.51
IMU, 311102599, -0.0001400355, 0.0009572763, 0.0001728583, 0.1238652, -0.005520486, -10.08077, 0, 0, 38.72181, 1, 1, 1000, 1000
IMU, 311142022, -0.001331474, -0.0008476046, 0.0002146561, 0.1121165, -0.001581996, -10.09483, 0, 0, 38.72176, 1, 1, 1000, 1000
RFND, 311152056, 0.2, 25, 0, 0
IMU, 311182201, -0.001028587, 0.0004912291, -0.001011197, 0.1229471, -0.006582698, -10.09087, 0, 0, 38.72186, 1, 1, 1000, 1000
MAG, 311201780, 210, 638, 249, 0, 0, 0, 0, 0, 0, 1, 311201772
RFND, 311201808, 0.2, 25, 0, 0
BARO, 311201943, -0.2825719, 980.7806, 37.49, -0.213751, 311201, 0, 35
CTUN, 311201957, 0, 0, 0, 0.3590944, 0.07504366, 0.07504366, -0.28, 0, 0.19, 0, 0, 0
ATT, 311202041, 0, 0.52, 0, -0.01, 175.43, 175.44, 0, 1
RATE, 311202047, -2.34299, 0.02932551, -0.005707836, 0.07948884, 0.030354, 0.0001907738, 0.0004744167, -0.006514825, 1.850404E-05, -180.0018, 0.3430367, 0
NKF1, 311202055, 0.52, -0.01, 175.44, 0.05222746, -0.00492397, -0.00444449, 0, 0, 0, -0.07504366, -0.01, 0, 0
NKF2, 311202055, -29, 0, 0, 0, 0, 0, 0, 0, 0, 0, 0, 0, 0
NKF3, 311202055, 0, 0, 0, 0.06, 0, 0, 0, 0, 0, 0, 0
NKF4, 311202055, 0, 0, 0, 0, 0, 1.315887E-06, 0, 0, 0, 19, 229, 0, 0
NKF5, 311202055, 0, 0, 0, 0, 0.2, 0.13, 0, 0.19, 0.5, 3.658795E-05, 0.0002761275, 0.0007111674
NKQ1, 311202055, -0.03973593, 0.006723839, -0.0002682842, -0.9991876
AHR2, 311202123, 0.21, -0.07, 175.11, -0.28, 0, 0, 0.04265621, 0.0007581548, 0.001883024, 0.9990878
MOTB, 311202130, 1, 1, 0, 1
RCIN, 311202135, 0, 0, 0, 0, 0, 0, 0, 0, 0, 0, 0, 0, 0, 0
RCOU, 311202140, 1101, 1101, 1101, 1101, 0, 0, 0, 0, 0, 0, 0, 0, 0, 0
VIBE, 311202148, 0.01978787, 0.02208516, 0.04001587, 0, 0, 0
CTRL, 311202155, 0.005508103, 0.0001631461, 0.0002190943, 0.000181157, 6.804551E-05
PRX, 311202186, 2, 0.59, 0, 0.51, 0, 3.6, 0, 2.57, 0, 0, 90, 0.51
IMU, 311221983, 9.369314E-05, -9.278848E-05, -2.038561E-05, 0.1042304, -0.01791724, -10.11214, 0, 0, 38.72189, 1, 1, 1000, 1000
RFND, 311252266, 0.2, 25, 0, 0
IMU, 311261965, -0.0006177044, 0.001309393, -0.0002750208, 0.1098347, 0.009378898, -10.09228, 0, 0, 38.72149, 1, 1, 1000, 1000
MAG, 311301957, 217, 637, 245, 0, 0, 0, 0, 0, 0, 1, 311301949
RFND, 311301985, 0.2, 25, 0, 0
BARO, 311302023, -0.2656176, 980.7789, 37.49, -0.1592123, 311302, 0, 35
CTUN, 311302036, 0, 0, 0, 0.3590944, 0.07507793, 0.07507793, -0.26, 0, 0.19, 0, 0, 0
ATT, 311302282, 0, 0.52, 0, -0.01, 175.43, 175.44, 0, 1
RATE, 311302290, -2.341765, -0.008557861, -0.005611114, 0.06457639, 0.001680422, 0.0004060015, -0.000305638, -0.04530506, -1.00583E-05, -186.5036, 0.4815102, 0
NKF1, 311302297, 0.52, -0.01, 175.44, 0.05429959, -0.005245804, -0.004605027, 0, 0, 0, -0.07507793, -0.01, 0, 0
NKF2, 311302297, -29, 0, 0, 0, 0, 0, 0, 0, 0, 0, 0, 0, 0
NKF3, 311302297, 0, 0, 0, 0.07, 0, 0, 0, 0, 0, 0, 0
NKF4, 311302297, 0, 0, 0, 0, 0, 1.458303E-06, 0, 0, 0, 19, 229, 0, 0
NKF5, 311302297, 0, 0, 0, 0, 0.2, 0.13, 0, 0.19, 0.5, 3.665644E-05, 0.0002565146, 0.0005915542
NKQ1, 311302297, -0.03973704, 0.006752182, -0.0002664928, -0.9991874
AHR2, 311302344, 0.21, -0.07, 175.1, -0.26, 0, 0, 0.04266128, 0.0007416537, 0.001888485, 0.9990876
MOTB, 311302351, 1, 1, 0, 1
RCIN, 311302356, 0, 0, 0, 0, 0, 0, 0, 0, 0, 0, 0, 0, 0, 0
RCOU, 311302361, 1101, 1101, 1101, 1101, 0, 0, 0, 0, 0, 0, 0, 0, 0, 0
VIBE, 311302370, 0.01948301, 0.01930659, 0.03840938, 0, 0, 0
CTRL, 311302376, 0.005509494, 0.0001536041, 0.0001932279, 0.0001728165, 5.64184E-05
PRX, 311302407, 2, 0.59, 0, 0.51, 0, 3.6, 0, 2.6, 0, 0, 90, 0.51
IMU, 311302414, -0.0003487897, 0.0001209824, -0.0008576299, 0.1105102, 0.009077143, -10.10178, 0, 0, 38.721, 1, 1, 1000, 1000
IMU, 311342071, -3.285101E-05, -0.0006553349, -0.001409314, 0.117931, -0.004964663, -10.09593, 0, 0, 38.72045, 1, 1, 1000, 1000
RFND, 311352055, 0.2, 25, 0, 0
IMU, 311382352, -0.0005767993, 0.0008082336, -0.000407762, 0.1203192, 0.01655745, -10.10939, 0, 0, 38.71967, 1, 1, 1000, 1000
MAG, 311402029, 214, 640, 250, 0, 0, 0, 0, 0, 0, 1, 311402021
RFND, 311402060, 0.2, 25, 0, 0
BARO, 311402124, -0.2260576, 980.7744, 37.5, -0.08852559, 311402, 0, 35
CTUN, 311402138, 0, 0, 0, 0.3590944, 0.07508744, 0.07508744, -0.22, 0, 0.19, 0, 0, 0
ATT, 311402244, 0, 0.51, 0, -0.01, 175.43, 175.43, 0, 1
RATE, 311402251, -2.334988, 0.02538993, -0.005783104, 0.06480444, -0.0121722, 0.000251097, -0.001525442, -0.004811336, 0.0001293326, -193.0931, 1.416302, 0
NKF1, 311402259, 0.51, -0.01, 175.43, 0.05574812, -0.006058636, -0.004767731, 0, 0, 0, -0.07508744, -0.01, 0, 0
NKF2, 311402259, -29, 0, 0, 0, 0, 0, 0, 0, 0, 0, 0, 0, 0
NKF3, 311402259, 0, 0, 0, 0.07, 0, 0, 0, 0, 0, 0, 0
NKF4, 311402259, 0, 0, 0, 0, 0, 1.629736E-06, 0, 0, 0, 19, 229, 0, 0
NKF5, 311402259, 0, 0, 0, 0, 0.2, 0.13, 0, 0.19, 0.5, 3.659455E-05, 0.0002526413, 0.0006477811
NKQ1, 311402259, -0.03978406, 0.006752855, -0.0002553123, -0.9991854
AHR2, 311402305, 0.21, -0.07, 175.1, -0.22, 0, 0, 0.04271202, 0.0007529326, 0.001885873, 0.9990854
MOTB, 311402312, 1, 1, 0, 1
RCIN, 311402317, 0, 0, 0, 0, 0, 0, 0, 0, 0, 0, 0, 0, 0, 0
RCOU, 311402322, 1101, 1101, 1101, 1101, 0, 0, 0, 0, 0, 0, 0, 0, 0, 0
VIBE, 311402331, 0.01944054, 0.0225163, 0.03502446, 0, 0, 0
CTRL, 311402337, 0.005493331, 0.000154028, 0.0001869026, 0.0001755992, 8.969672E-05
PRX, 311402368, 2, 0.59, 0, 0.51, 0, 3.6, 0, 2.6, 0, 0, 90, 0.51
IMU, 311422936, -0.0001465933, 0.0008716566, -0.0001399842, 0.1218609, -0.007313594, -10.09693, 0, 0, 38.7189, 1, 1, 1000, 1000
RFND, 311452039, 0.2, 25, 0, 0
IMU, 311462450, -0.0003528355, -0.0005044705, -0.0007662349, 0.1060323, 0.004048488, -10.1059, 0, 0, 38.7194, 1, 1, 1000, 1000
EV, 311496599, 57
MAG, 311501836, 207, 643, 251, 0, 0, 0, 0, 0, 0, 1, 311501827
RFND, 311501937, 0.2, 25, 0, 0
BARO, 311501977, -0.2486633, 980.7766, 37.5, 0.01412268, 311501, 0, 35
CTUN, 311501990, 0, 0, 0, 0.3590944, 0.07509915, 0.07509915, -0.24, 0, 0.19, 0, 0, 0
ATT, 311502134, 0, 0.51, 0, -0.01, 175.43, 175.44, 0, 1
RATE, 311502140, -2.333352, -0.02807048, -0.005517719, 0.06268804, 0.003508691, 4.989318E-05, -0.0003286755, 0.01292059, 2.581063E-05, -219.9356, 2.53973, 0
NKF1, 311502148, 0.51, -0.01, 175.44, 0.057627, -0.00628704, -0.005430509, 0, 0, 0, -0.07509915, -0.01, 0, 0
NKF2, 311502148, -29, 0, 0, 0, 0, 0, 0, 0, 0, 0, 0, 0, 0
NKF3, 311502148, 0, 0, 0, 0.08, 0, 0, 0, 0, 0, 0, 0
NKF4, 311502148, 0, 0, 0, 0, 0, 1.843071E-06, 0, 0, 0, 19, 229, 0, 0
NKF5, 311502148, 0, 0, 0, 0, 0.2, 0.13, 0, 0.19, 0.5, 3.665605E-05, 0.0002354805, 0.0004958464
NKQ1, 311502148, -0.03978116, 0.006757513, -0.0002505623, -0.9991856
AHR2, 311502222, 0.21, -0.07, 175.1, -0.24, 0, 0, 0.04271286, 0.0007599583, 0.001883571, 0.9990854
MOTB, 311502229, 1, 1, 0, 1
RCIN, 311502234, 0, 0, 0, 0, 0, 0, 0, 0, 0, 0, 0, 0, 0, 0
RCOU, 311502239, 1101, 1101, 1101, 1101, 0, 0, 0, 0, 0, 0, 0, 0, 0, 0
VIBE, 311502248, 0.02151166, 0.02285918, 0.03206169, 0, 0, 0
CTRL, 311502255, 0.005487407, 0.0001420565, 0.000183191, 0.000176414, 8.088712E-05
PRX, 311502286, 2, 0.59, 0, 0.51, 0, 3.6, 0, 2.54, 0, 0, 90, 0.51
IMU, 311502293, -0.0006893628, 0.0001529087, 0.0001585939, 0.1236683, -0.004037258, -10.1222, 0, 0, 38.71981, 1, 1, 1000, 1000
IMU, 311541990, -0.000778508, 0.0006210696, 0.0008711524, 0.1099407, 0.007545726, -10.10263, 0, 0, 38.71962, 1, 1, 1000, 1000
RFND, 311551809, 0.2, 25, 0, 0
IMU, 311581842, -0.0002800121, 0.0004831207, 0.0008351724, 0.1065792, 0.005970787, -10.10887, 0, 0, 38.71915, 1, 1, 1000, 1000
MAG, 311601751, 206, 635, 243, 0, 0, 0, 0, 0, 0, 1, 311601743
RFND, 311601783, 0.2, 25, 0, 0
BARO, 311601819, -0.2486633, 980.7766, 37.5, 0.09671541, 311601, 0, 35
CTUN, 311601929, 0, 0, 0, 0.3590944, 0.07522268, 0.07522268, -0.24, 0, 0.19, 0, 0, 0
ATT, 311602015, 0, 0.51, 0, -0.01, 175.43, 175.44, 0, 1
RATE, 311602021, -2.333622, -0.02179334, -0.005314713, 0.05185957, -0.006570928, 0.0003663015, -0.0002461824, 0.04931841, -0.0001061537, -205.2392, -1.235104, 0
NKF1, 311602030, 0.51, -0.01, 175.44, 0.05960773, -0.00661035, -0.005067634, 0, 0, 0, -0.07522268, -0.01, 0, 0
NKF2, 311602030, -29, 0, 0, 0, 0, 0, 0, 0, 0, 0, 0, 0, 0
NKF3, 311602030, 0, 0, 0, 0.08, 0, 0, 0, 0, 0, 0, 0
NKF4, 311602030, 0, 0, 0, 0, 0, 2.04173E-06, 0, 0, 0, 19, 229, 0, 0
NKF5, 311602030, 0, 0, 0, 0, 0.2, 0.13, 0, 0.19, 0.5, 3.64536E-05, 0.0002493226, 0.0005929276
NKQ1, 311602030, -0.03974297, 0.006779076, -0.0002523882, -0.9991869
AHR2, 311602074, 0.21, -0.07, 175.1, -0.24, 0, 0, 0.04267863, 0.0007497679, 0.001886043, 0.9990869
MOTB, 311602080, 1, 1, 0, 1
RCIN, 311602084, 0, 0, 0, 0, 0, 0, 0, 0, 0, 0, 0, 0, 0, 0
RCOU, 311602113, 1125, 1125, 1125, 1125, 0, 0, 0, 0, 0, 0, 0, 0, 0, 0
VIBE, 311602123, 0.02182947, 0.02166115, 0.03448803, 0, 0, 0
CTRL, 311602129, 0.005491137, 0.0001409887, 0.0001605906, 0.0001680162, 7.729487E-05
PRX, 311602173, 2, 0.59, 0, 0.51, 0, 0.65, 0, 2.58, 0, 0, 90, 0.51
IMU, 311622157, 4.10528E-05, 9.731565E-05, -0.0002503934, 0.1171539, -0.002604008, -10.0811, 0, 0, 38.71827, 1, 1, 1000, 1000
RFND, 311651775, 0.2, 25, 0, 0
IMU, 311661812, -0.001172235, -0.0002575086, 0.0001469961, 0.1115671, 0.003229115, -10.09198, 0, 0, 38.7175, 1, 1, 1000, 1000
MAG, 311702403, 211, 639, 246, 0, 0, 0, 0, 0, 0, 1, 311702394
RFND, 311702438, 0.2, 25, 0, 0
BARO, 311702475, -0.231709, 980.7753, 37.5, 0.07607431, 311702, 0, 35
CTUN, 311702489, 0, 0, 0, 0.3590944, 0.07517883, 0.07517883, -0.23, 0, 0.19, 0, 0, 0
ATT, 311702644, 0, 0.51, 0, -0.01, 175.43, 175.44, 0, 1
RATE, 311702652, -2.325268, -0.04296967, -0.005162408, 0.04517576, 0.06138816, -0.000126772, -0.0001981766, -0.0211602, -4.296417E-06, -193.306, 1.559734, 0
NKF1, 311702661, 0.51, -0.01, 175.44, 0.06118159, -0.007177677, -0.004772987, 0, 0, 0, -0.07517883, -0.01, 0, 0
NKF2, 311702661, -29, 0, 0, 0, 0, 0, 0, 0, 0, 0, 0, 0, 0
NKF3, 311702661, 0, 0, 0, 0.09, 0, 0, 0, 0, 0, 0, 0
NKF4, 311702661, 0, 0, 0, 0, 0, 2.324934E-06, 0, 0, 0, 19, 229, 0, 0
NKF5, 311702661, 0, 0, 0, 0, 0.2, 0.13, 0, 0.19, 0.5, 3.66558E-05, 0.000218111, 0.0004136335
NKQ1, 311702661, -0.03974847, 0.006791483, -0.0002358952, -0.9991866
AHR2, 311702709, 0.21, -0.07, 175.1, -0.23, 0, 0, 0.04268788, 0.0007503562, 0.001871942, 0.9990864
MOTB, 311702717, 1, 1, 0, 1
RCIN, 311702721, 0, 0, 0, 0, 0, 0, 0, 0, 0, 0, 0, 0, 0, 0
RCOU, 311702726, 1149, 1149, 1149, 1149, 0, 0, 0, 0, 0, 0, 0, 0, 0, 0
VIBE, 311702735, 0.02075957, 0.02288102, 0.03478085, 0, 0, 0
CTRL, 311702742, 0.00547661, 0.0001384054, 0.0001477442, 0.0001499494, 7.080701E-05
PRX, 311702774, 2, 0.59, 0, 0.51, 0, 0.65, 0, 2.6, 0, 0, 90, 0.51
IMU, 311702782, -0.0009494622, 0.001163137, -0.0004362492, 0.1172965, 0.006242355, -10.11258, 0, 0, 38.71675, 1, 1, 1000, 1000
IMU, 311742246, 0.0004329092, 0.0009434584, 0.0004051613, 0.1250203, 0.009112617, -10.11338, 0, 0, 38.71616, 1, 1, 1000, 1000
RFND, 311752454, 0.2, 25, 0, 0
IMU, 311782037, 0.0006709537, -0.0004247413, 0.0005132986, 0.1232791, 0.01679011, -10.11538, 0, 0, 38.71655, 1, 1, 1000, 1000
MAG, 311802005, 212, 637, 247, 0, 0, 0, 0, 0, 0, 1, 311801997
RFND, 311802039, 0.2, 25, 0, 0
BARO, 311802076, -0.231709, 980.7753, 37.5, 0.02275502, 311802, 0, 35
CTUN, 311802111, 0, 0, 0, 0.3590944, 0.07531649, 0.07531649, -0.23, 0, 0.19, 0, 0, 0
ATT, 311802275, 0, 0.52, 0, 0, 175.43, 175.44, 0, 1
RATE, 311802281, -2.342294, 0.04624267, -0.005630587, 0.04175078, 0.04119609, -9.264595E-05, -0.0001675494, -0.05091917, -4.574952E-05, -228.6253, -0.04281998, 0
NKF1, 311802290, 0.52, 0, 175.44, 0.06232009, -0.008612447, -0.00564507, 0, 0, 0, -0.07531649, -0.01, 0, 0
NKF2, 311802290, -29, 0, 0, 0, 0, 0, 0, 0, 0, 0, 0, 0, 0
NKF3, 311802290, 0, 0, 0, 0.09, 0, 0, 0, 0, 0, 0, 0
NKF4, 311802290, 0, 0, 0, 0, 0, 2.548003E-06, 0, 0, 0, 19, 229, 0, 0
NKF5, 311802290, 0, 0, 0, 0, 0.2, 0.13, 0, 0.19, 0.5, 3.658991E-05, 0.0002353233, 0.0005584164
NKQ1, 311802290, -0.03972587, 0.006796207, -0.0002702282, -0.9991875
AHR2, 311802334, 0.22, -0.07, 175.1, -0.23, 0, 0, 0.04266938, 0.0007589696, 0.001909222, 0.9990872
MOTB, 311802342, 1, 1, 0, 1
RCIN, 311802346, 0, 0, 0, 0, 0, 0, 0, 0, 0, 0, 0, 0, 0, 0
RCOU, 311802352, 1173, 1173, 1173, 1173, 0, 0, 0, 0, 0, 0, 0, 0, 0, 0
VIBE, 311802361, 0.02432937, 0.02919831, 0.0390489, 0, 0, 0
CTRL, 311802368, 0.005506103, 0.0001429084, 0.0001410597, 0.0001722562, 7.028427E-05
PRX, 311802399, 2, 0.59, 0, 0.51, 0, 3.6, 0, 2.6, 0, 0, 90, 0.51
IMU, 311822408, -0.0006848255, 0.0005710246, 0.003101874, 0.114091, 0.01417523, -10.09111, 0, 0, 38.71671, 1, 1, 1000, 1000
RFND, 311851999, 0.2, 25, 0, 0
IMU, 311861991, -0.003126094, 0.001425809, -0.004241899, 0.08766235, 0.001641467, -10.08065, 0, 0, 38.71675, 1, 1, 1000, 1000
MAG, 311901756, 215, 640, 244, 0, 0, 0, 0, 0, 0, 1, 311901748
RFND, 311901791, 0.2, 25, 0, 0
BARO, 311901917, -0.1864975, 980.7703, 37.5, 0.04406134, 311901, 0, 35
CTUN, 311901931, 0, 0, 0, 0.3590944, 0.07532597, 0.07532597, -0.18, 0, 0.19, 0, 0, 0
DU32, 311901969, 7, 33611992
ATT, 311902113, 0, 0.52, 0, 0, 175.46, 175.47, 0, 1
RATE, 311902120, -2.345755, 0.0009144749, -0.00623594, 0.03709222, 0.06506282, 4.049961E-05, -0.0001695731, 0.4496467, -0.001280538, -231.7746, 3.673553, 0
NKF1, 311902129, 0.52, 0, 175.47, 0.0628932, -0.008698685, -0.00572283, 0, 0, 0, -0.07532597, -0.01, 0, 0
NKF2, 311902129, -29, 0, 0, 0, 0, 0, 0, 0, 0, 0, 0, 0, 0
NKF3, 311902129, 0, 0, 0, 0.1, 0, 0, 0, 0, 0, 0, 0
NKF4, 311902129, 0, 0, 0, 0, 0, 2.901708E-06, 0, 0, 0, 19, 229, 0, 0
NKF5, 311902129, 0, 0, 0, 0, 0.2, 0.13, 0, 0.19, 0.5, 3.678744E-05, 0.0002114034, 0.0003693827
NKQ1, 311902129, -0.03951623, 0.006813883, -0.0002758084, -0.9991957
AHR2, 311902190, 0.22, -0.07, 175.13, -0.18, 0, 0, 0.04246373, 0.0007495201, 0.0019128, 0.9990959
MOTB, 311902198, 1, 1, 0, 1
RCIN, 311902203, 0, 0, 0, 0, 0, 0, 0, 0, 0, 0, 0, 0, 0, 0
RCOU, 311902208, 1197, 1197, 1197, 1197, 0, 0, 0, 0, 0, 0, 0, 0, 0, 0
VIBE, 311902216, 0.3094334, 0.3346595, 0.2256992, 0, 0, 0
CTRL, 311902222, 0.005492897, 0.0003559115, 0.0001786843, 0.0003418563, 0.0003203065
PRX, 311902254, 2, 0.59, 0, 0.51, 0, 3.6, 0, 2.59, 0, 0, 90, 0.51
IMU, 311902261, -0.0001831322, 0.0012271, 0.007781017, 0.1246869, -0.02495412, -10.13303, 0, 0, 38.71721, 1, 1, 1000, 1000
IMU, 311942067, 0.003559618, -0.002304017, -0.003612209, 0.2617652, 0.03756965, -10.08213, 0, 0, 38.71764, 1, 1, 1000, 1000
RFND, 311951982, 0.2, 25, 0, 0
IMU, 311981918, 0.0001109375, 0.002328258, 0.02513719, 0.07092033, 0.006506088, -10.09825, 0, 0, 38.71819, 1, 1, 1000, 1000
MAG, 312001942, 209, 638, 245, 0, 0, 0, 0, 0, 0, 1, 312001934
RFND, 312001976, 0.2, 25, 0, 0
BARO, 312002012, -0.2204061, 980.7736, 37.5, 0.1058327, 312002, 0, 35
CTUN, 312002026, 0, 0, 0, 0.3590944, 0.07542844, 0.07542844, -0.22, 0, 0.19, 0, 0, 0
ATT, 312002244, 0, 0.52, 0, 0, 175.44, 175.45, 0, 1
RATE, 312002250, -2.374575, 0.09869152, -0.005414418, 0.006237552, -0.34972, 0.002656047, -3.925429E-05, -0.8871307, -0.001183796, -276.4431, 8.579922, 0
NKF1, 312002259, 0.52, 0, 175.45, 0.06567758, -0.01033031, -0.006825754, 0, 0, 0, -0.07542844, -0.01, 0, 0
NKF2, 312002259, -29, 0, 0, 0, 0, 0, 0, 0, 0, 0, 0, 0, 0
NKF3, 312002259, 0, 0, 0, 0.11, -0.01, 0, 0, 0, 0, 0, 0
NKF4, 312002259, 0, 0, 0, 0, 0, 3.19822E-06, 0, 0, 0, 19, 229, 0, 0
NKF5, 312002259, 0, 0, 0, 0, 0.2, 0.13, 0, 0.19, 0.5, 3.729249E-05, 0.0003279981, 0.0006684317
NKQ1, 312002259, -0.03965086, 0.006847575, -0.0003350693, -0.9991902
AHR2, 312002303, 0.22, -0.07, 175.11, -0.22, 0, 0, 0.04260279, 0.000725497, 0.001965756, 0.99909
MOTB, 312002311, 1, 1, 0, 1
RCIN, 312002315, 0, 0, 0, 0, 0, 0, 0, 0, 0, 0, 0, 0, 0, 0
RCOU, 312002321, 1221, 1221, 1221, 1221, 0, 0, 0, 0, 0, 0, 0, 0, 0, 0
VIBE, 312002329, 0.5234026, 0.5181764, 0.4312019, 0, 0, 0
CTRL, 312002336, 0.005588329, 0.0006380434, 0.0002945229, 0.000593322, 0.0005388229
PRX, 312002367, 2, 0.59, 0, 0.51, 0, 3.6, 0, 2.59, 0, 0, 90, 0.51
IMU, 312022443, 0.007416541, -5.895495E-05, -0.04560042, 0.1149177, 0.08370695, -10.0451, 0, 0, 38.71888, 1, 1, 1000, 1000
RFND, 312052072, 0.2, 25, 0, 0
IMU, 312062242, -0.00714202, -0.005220564, -0.001659275, 0.08061005, 0.02133194, -10.1166, 0, 0, 38.71906, 1, 1, 1000, 1000
MAG, 312101994, 210, 647, 252, 0, 0, 0, 0, 0, 0, 1, 312101985
RFND, 312102029, 0.2, 25, 0, 0
BARO, 312102067, -0.1751946, 980.7686, 37.5, 0.1291521, 312102, 0, 35
CTUN, 312102080, 0, 0, 0, 0.3590944, 0.07541729, 0.07541729, -0.17, 0, 0.19, 0, 0, 0
ATT, 312102250, 0, 0.53, 0, 0, 175.43, 175.44, 0, 1
RATE, 312102256, -2.415845, 0.2504599, -0.005627158, -0.01634557, 0.3997139, -0.0002362082, 5.445667E-05, -0.6172758, -0.0003800898, -210.7104, 5.185986, 0
NKF1, 312102265, 0.53, 0, 175.44, 0.06641407, -0.009854372, -0.005202726, 0, 0, 0, -0.07541729, -0.01, 0, 0
NKF2, 312102265, -29, 0, 0, 0, 0, 0, 0, 0, 0, 0, 0, 0, 0
NKF3, 312102265, 0, 0, 0, 0.11, -0.01, 0, 0, 0, 0, 0, 0
NKF4, 312102265, 0, 0, 0, 0, 0, 3.586996E-06, 0, 0, 0, 19, 229, 0, 0
NKF5, 312102265, 0, 0, 0, 0, 0.2, 0.13, 0, 0.19, 0.5, 3.695912E-05, 0.0002200872, 0.0003729291
NKQ1, 312102265, -0.03974866, 0.00689283, -0.0004154045, -0.9991859
AHR2, 312102310, 0.23, -0.06, 175.1, -0.17, 0, 0, 0.04270516, 0.0006967319, 0.002038574, 0.9990854
MOTB, 312102317, 1, 1, 0, 1
RCIN, 312102322, 0, 0, 0, 0, 0, 0, 0, 0, 0, 0, 0, 0, 0, 0
RCOU, 312102327, 1230, 1221, 1221, 1231, 0, 0, 0, 0, 0, 0, 0, 0, 0, 0
VIBE, 312102335, 0.4584739, 0.6053986, 0.4554308, 0, 0, 0
CTRL, 312102342, 0.00575619, 0.0009636191, 0.0005646356, 0.001008575, 0.0007135553
PRX, 312102375, 2, 0.59, 0, 0.51, 0, 3.6, 0, 2.59, 0, 0, 90, 0.51
IMU, 312102382, 0.004171852, 0.007068069, -0.01084043, 0.1947092, 0.07376023, -10.14781, 0, 0, 38.71912, 1, 1, 1000, 1000
IMU, 312142318, 0.005144629, 0.009963986, 0.02745664, 0.07800531, -0.03692442, -10.09265, 0, 0, 38.71901, 1, 1, 1000, 1000
RFND, 312152454, 0.2, 25, 0, 0
IMU, 312182143, 0.0005530638, -0.000649663, 0.01540014, 0.09073418, -0.003902847, -10.05956, 0, 0, 38.71878, 1, 1, 1000, 1000
MAG, 312202027, 216, 645, 248, 0, 0, 0, 0, 0, 0, 1, 312202018
RFND, 312202061, 0.2, 25, 0, 0
BARO, 312202137, -0.231709, 980.7753, 37.5, 0.09359315, 312202, 0, 35
CTUN, 312202152, 0, 0, 0, 0.3590944, 0.07535055, 0.07535055, -0.23, 0, 0.19, 0, 0, 0
ATT, 312202379, 0, 0.53, 0, 0, 175.45, 175.46, 0, 1
RATE, 312202386, -2.399066, 0.1990918, -0.006659529, -0.04389521, 0.5998319, -0.004146663, 0.0001848483, -0.1391418, -0.0007657825, -110.4873, 1.174545, 0
NKF1, 312202394, 0.53, 0, 175.46, 0.07013845, -0.01072119, -0.002728081, 0, 0, 0, -0.07535055, -0.01, 0, 0
NKF2, 312202394, -29, 0, 0, 0, 0, 0, 0, 0, 0, 0, 0, 0, 0
NKF3, 312202394, 0, 0, 0, 0.12, -0.01, 0, 0, 0, 0, 0, 0
NKF4, 312202394, 0, 0, 0, 0, 0, 3.961881E-06, 0, 0, 0, 19, 229, 0, 0
NKF5, 312202394, 0, 0, 0, 0, 0.2, 0.13, 0, 0.19, 0.5, 3.765627E-05, 0.000348095, 0.000757725
NKQ1, 312202394, -0.03955015, 0.006956241, -0.000385577, -0.9991933
AHR2, 312202440, 0.23, -0.06, 175.12, -0.23, 0, 0, 0.04251081, 0.0006496222, 0.002002278, 0.9990938
MOTB, 312202447, 1, 1, 0, 1
RCIN, 312202452, 0, 0, 0, 0, 0, 0, 0, 0, 0, 0, 0, 0, 0, 0
RCOU, 312202457, 1231, 1227, 1221, 1239, 0, 0, 0, 0, 0, 0, 0, 0, 0, 0
VIBE, 312202890, 0.4357782, 0.456147, 0.4144251, 0, 0, 0
CTRL, 312202898, 0.005683338, 0.001405519, 0.0007206959, 0.001563084, 0.0006841011
PRX, 312202930, 2, 0.59, 0, 0.51, 0, 3.6, 0, 2.57, 0, 0, 90, 0.51
IMU, 312222064, -0.004914745, -0.007045979, -0.01129267, 0.2422642, -0.02755489, -10.09534, 0, 0, 38.71703, 1, 1, 1000, 1000
RFND, 312252125, 0.2, 25, 0, 0
IMU, 312262206, 0.00801089, 0.005164118, -0.003723562, 0.2985191, -0.002026012, -10.08667, 0, 0, 38.71339, 1, 1, 1000, 1000
MAG, 312302038, 212, 642, 245, 0, 0, 0, 0, 0, 0, 1, 312302030
RFND, 312302068, 0.2, 25, 0, 0
BARO, 312302133, -0.3277835, 980.7856, 37.49, -0.01245037, 312302, 0, 35
CTUN, 312302146, 0, 0, 0, 0.3590944, 0.0751337, 0.0751337, -0.32, 0, 0.19, 0, 0, 0
ATT, 312302252, 0, 0.52, 0, 0, 175.45, 175.46, 0, 1
RATE, 312302260, -2.357542, -0.1219437, -0.004944239, -0.03896788, 0.2849294, -0.0009747864, 0.0001831285, 0.2156958, 0.0001258349, -92.29427, -4.536819, 0
NKF1, 312302268, 0.52, 0, 175.46, 0.07217035, -0.01056673, -0.002278871, 0, 0, 0, -0.0751337, -0.01, 0, 0
NKF2, 312302268, -29, 0, 0, 0, 0, 0, 0, 0, 0, 0, 0, 0, 0
NKF3, 312302268, 0, 0, 0, 0.12, -0.01, 0, 0, 0, 0, 0, 0
NKF4, 312302268, 0, 0, 0, 0, 0, 4.376902E-06, 0, 0, 0, 19, 229, 0, 0
NKF5, 312302268, 0, 0, 0, 0, 0.2, 0.13, 0, 0.19, 0.5, 3.716228E-05, 0.000228024, 0.0004141858
NKQ1, 312302268, -0.03960038, 0.006956217, -0.0003050905, -0.9991913
AHR2, 312302934, 0.22, -0.06, 175.12, -0.32, 0, 0, 0.04256439, 0.0006327386, 0.001930087, 0.9990917
MOTB, 312302944, 1, 1, 0, 1
RCIN, 312302950, 0, 0, 0, 0, 0, 0, 0, 0, 0, 0, 0, 0, 0, 0
RCOU, 312302956, 1230, 1223, 1221, 1231, 0, 0, 0, 0, 0, 0, 0, 0, 0, 0
VIBE, 312302965, 0.4964679, 0.4500031, 0.4328671, 0, 0, 0
CTRL, 312302972, 0.005616557, 0.001581998, 0.0007316528, 0.001585017, 0.0005861042
PRX, 312303004, 2, 0.59, 0, 0.51, 0, 3.6, 0, 2.58, 0, 0, 90, 0.51
IMU, 312303011, -0.002327823, 0.005064728, 0.003697661, -0.01540226, 0.04673158, -10.05348, 0, 0, 38.70566, 1, 1, 1000, 1000
IMU, 312342073, -0.01282533, -0.004662645, -0.006182766, 0.02184654, -0.0780092, -10.07131, 0, 0, 38.69513, 1, 1, 1000, 1000
RFND, 312352755, 0.2, 25, 0, 0
IMU, 312382226, 0.002160214, -0.001987229, -0.00203791, 0.1914846, 0.03186503, -10.09874, 0, 0, 38.68236, 1, 1, 1000, 1000
MAG, 312401982, 210, 646, 245, 0, 0, 0, 0, 0, 0, 1, 312401973
RFND, 312402013, 0.2, 25, 0, 0
BARO, 312402051, -0.3842978, 980.7913, 37.46, -0.2415118, 312402, 0, 35
CTUN, 312402064, 0, 0, 0, 0.3590944, 0.07453719, 0.07453719, -0.38, 0, 0.19, 0, 0, 0
ATT, 312402256, 0, 0.51, 0, 0.01, 175.43, 175.44, 0, 1
RATE, 312402263, -2.315871, -0.4597245, -0.002355018, -0.080052, -0.1427648, 0.0009886017, 0.0002905796, -0.7140096, -2.00969E-05, 73.3211, -3.819752, 0
NKF1, 312402272, 0.51, 0.01, 175.44, 0.07083326, -0.009682588, 0.001810397, 0, 0, 0, -0.07453719, -0.01, 0, 0
NKF2, 312402272, -29, 0, 0, 0, 0, 0, 0, 0, 0, 0, 0, 0, 0
NKF3, 312402272, 0, 0, 0, 0.13, -0.01, 0, 0, 0, 0, 0, 0
NKF4, 312402272, 0, 0, 0, 0, 0, 4.850297E-06, 0, 0, 0, 19, 229, 0, 0
NKF5, 312402272, 0, 0, 0, 0, 0.2, 0.13, 0, 0.19, 0.5, 3.822943E-05, 0.0003671428, 0.0008423244
NKQ1, 312402272, -0.0397582, 0.007022732, -0.000226743, -0.9991846
AHR2, 312402318, 0.21, -0.05, 175.1, -0.38, 0, 0, 0.04272609, 0.0005384043, 0.001864951, 0.9990849
MOTB, 312402325, 1, 1, 0, 1
RCIN, 312402330, 0, 0, 0, 0, 0, 0, 0, 0, 0, 0, 0, 0, 0, 0
RCOU, 312402335, 1227, 1221, 1222, 1225, 0, 0, 0, 0, 0, 0, 0, 0, 0, 0
VIBE, 312402344, 0.4855902, 0.4995423, 0.468096, 0, 0, 0
CTRL, 312402351, 0.0055628, 0.001648313, 0.0007140303, 0.001464039, 0.0004839474
PRX, 312402381, 2, 0.59, 0, 0.51, 0, 3.6, 0, 2.57, 0, 0, 90, 0.51
IMU, 312422125, -0.001537545, 0.001414163, 0.01803035, 0.09799126, 0.08288945, -10.05389, 0, 0, 38.66785, 1, 1, 1000, 1000
RFND, 312452105, 0.2, 25, 0, 0
IMU, 312462151, -0.003366044, 0.004174725, -0.01167774, 0.09304827, -0.1356395, -10.12154, 0, 0, 38.65064, 1, 1, 1000, 1000
MAG, 312502078, 210, 642, 251, 0, 0, 0, 0, 0, 0, 1, 312502070
RFND, 312502135, 0.2, 25, 0, 0
BARO, 312502188, -0.322132, 980.7847, 37.43, -0.4856, 312502, 0, 35
CTUN, 312502202, 0, 0, 0, 0.3590944, 0.07367727, 0.07367727, -0.32, 0, 0.19, 0, 0, 0
ATT, 312502293, 0, 0.51, 0, 0.02, 175.45, 175.46, 0, 1
RATE, 312502300, -2.310153, 0.2942261, -0.007022776, -0.1308233, 0.08623268, -0.0003326401, 0.0006070097, 0.1073882, 0.0001839503, 262.3769, -8.087444, 0
NKF1, 312502308, 0.51, 0.02, 175.46, 0.0726974, -0.01344909, 0.006478443, 0, 0, 0, -0.07367727, -0.01, 0, 0
NKF2, 312502308, -29, 0, 0, 0, 0, 0, 0, 0, 0, 0, 0, 0, 0
NKF3, 312502308, 0, 0, 0, 0.13, -0.01, 0, 0, 0, 0, 0, 0
NKF4, 312502308, 0, 0, 0, 0, 0, 5.288092E-06, 0, 0, 0, 19, 229, 0, 0
NKF5, 312502308, 0, 0, 0, 0, 0.2, 0.13, 0, 0.19, 0.5, 3.756456E-05, 0.0002432212, 0.0005130529
NKQ1, 312502308, -0.0395779, 0.007135905, -0.00021972, -0.999191
AHR2, 312502353, 0.21, -0.04, 175.12, -0.32, 0, 0, 0.04255041, 0.0004311067, 0.001890714, 0.9990925
MOTB, 312502360, 1, 1, 0, 1
RCIN, 312502365, 0, 0, 0, 0, 0, 0, 0, 0, 0, 0, 0, 0, 0, 0
RCOU, 312502370, 1233, 1221, 1221, 1233, 0, 0, 0, 0, 0, 0, 0, 0, 0, 0
VIBE, 312502379, 0.4557858, 0.5653635, 0.4960696, 0, 0, 0
CTRL, 312502385, 0.005517467, 0.001605261, 0.0007115404, 0.001331976, 0.0004055293
PRX, 312502415, 2, 0.59, 0, 0.51, 0, 3.6, 0, 2.59, 0, 0, 90, 0.51
IMU, 312502422, 0.004935715, 0.001596841, 0.001807336, 0.1316582, 0.0739653, -10.01591, 0, 0, 38.63077, 1, 1, 1000, 1000
IMU, 312542072, -0.001516703, 0.00198666, 0.005472373, 0.04904246, -0.01807147, -10.04514, 0, 0, 38.60913, 1, 1, 1000, 1000
RFND, 312552062, 0.2, 25, 0, 0
IMU, 312582394, -0.001489206, 0.007091461, -0.01528151, 0.1863545, -0.08327796, -10.07504, 0, 0, 38.58762, 1, 1, 1000, 1000
MAG, 312601958, 210, 645, 251, 0, 0, 0, 0, 0, 0, 1, 312601950
RFND, 312601987, 0.2, 25, 0, 0
BARO, 312602025, -0.2938748, 980.7816, 37.38, -0.4450508, 312602, 0, 35
CTUN, 312602038, 0, 0, 0, 0.3590944, 0.07240122, 0.07240122, -0.29, 0, 0.19, 0, 0, 0
ATT, 312602154, 0, 0.51, 0, 0.03, 175.44, 175.45, 0, 1
