FMT, 128, 89, FMT, BBnNZ, Type,Length,Name,Format,Columns
FMT, 129, 31, PARM, QNf, TimeUS,Name,Value
FMT, 130, 46, GPS, QBIHBcLLefffB, TimeUS,Status,GMS,GWk,NSats,HDop,Lat,Lng,Alt,Spd,GCrs,VZ,U
FMT, 131, 46, GPS2, QBIHBcLLefffB, TimeUS,Status,GMS,GWk,NSats,HDop,Lat,Lng,Alt,Spd,GCrs,VZ,U
FMT, 132, 46, GPSB, QBIHBcLLefffB, TimeUS,Status,GMS,GWk,NSats,HDop,Lat,Lng,Alt,Spd,GCrs,VZ,U
FMT, 193, 24, GPA, QCCCCBI, TimeUS,VDop,HAcc,VAcc,SAcc,VV,SMS
FMT, 194, 24, GPA2, QCCCCBI, TimeUS,VDop,HAcc,VAcc,SAcc,VV,SMS
FMT, 195, 24, GPAB, QCCCCBI, TimeUS,VDop,HAcc,VAcc,SAcc,VV,SMS
FMT, 133, 53, IMU, QffffffIIfBBHH, TimeUS,GyrX,GyrY,GyrZ,AccX,AccY,AccZ,EG,EA,T,GH,AH,GHz,AHz
FMT, 134, 75, MSG, QZ, TimeUS,Message
FMT, 135, 39, RCIN, QHHHHHHHHHHHHHH, TimeUS,C1,C2,C3,C4,C5,C6,C7,C8,C9,C10,C11,C12,C13,C14
FMT, 136, 39, RCOU, QHHHHHHHHHHHHHH, TimeUS,C1,C2,C3,C4,C5,C6,C7,C8,C9,C10,C11,C12,C13,C14
FMT, 137, 15, RSSI, Qf, TimeUS,RXRSSI
FMT, 139, 37, BARO, QffcfIff, TimeUS,Alt,Press,Temp,CRt,SMS,Offset,GndTemp
FMT, 140, 22, POWR, QffHB, TimeUS,Vcc,VServo,Flags,Safety
FMT, 143, 45, CMD, QHHHfffffff, TimeUS,CTot,CNum,CId,Prm1,Prm2,Prm3,Prm4,Lat,Lng,Alt
FMT, 144, 20, RAD, QBBBBBHH, TimeUS,RSSI,RemRSSI,TxBuf,Noise,RemNoise,RxErrors,Fixed
FMT, 146, 43, CAM, QIHLLeeeccC, TimeUS,GPSTime,GPSWeek,Lat,Lng,Alt,RelAlt,GPSAlt,Roll,Pitch,Yaw
FMT, 232, 43, TRIG, QIHLLeeeccC, TimeUS,GPSTime,GPSWeek,Lat,Lng,Alt,RelAlt,GPSAlt,Roll,Pitch,Yaw
FMT, 162, 30, ARSP, QffcffB, TimeUS,Airspeed,DiffPress,Temp,RawPress,Offset,U
FMT, 164, 45, CURR, QfffcHHHHHHHHHH, TimeUS,Volt,Curr,CurrTot,Temp,V1,V2,V3,V4,V5,V6,V7,V8,V9,V10
FMT, 165, 45, CUR2, QfffcHHHHHHHHHH, TimeUS,Volt,Curr,CurrTot,Temp,V1,V2,V3,V4,V5,V6,V7,V8,V9,V10
FMT, 163, 27, ATT, QccccCCCC, TimeUS,DesRoll,Roll,DesPitch,Pitch,DesYaw,Yaw,ErrRP,ErrYaw
FMT, 166, 34, MAG, QhhhhhhhhhBI, TimeUS,MagX,MagY,MagZ,OfsX,OfsY,OfsZ,MOfsX,MOfsY,MOfsZ,Health,S
FMT, 169, 14, MODE, QMBB, TimeUS,Mode,ModeNum,Rsn
FMT, 196, 17, RFND, QCBCB, TimeUS,Dist1,Orient1,Dist2,Orient2
FMT, 223, 33, DMS, IIIIIBBBBBBBBBB, TimeMS,N,Dp,RT,RS,Er,Fa,Fmn,Fmx,Pa,Pmn,Pmx,Sa,Smn,Smx
FMT, 240, 41, BCN, QBBfffffff, TimeUS,Health,Cnt,D0,D1,D2,D3,PosX,PosY,PosZ
FMT, 138, 53, IMU2, QffffffIIfBBHH, TimeUS,GyrX,GyrY,GyrZ,AccX,AccY,AccZ,EG,EA,T,GH,AH,GHz,AHz
FMT, 147, 53, IMU3, QffffffIIfBBHH, TimeUS,GyrX,GyrY,GyrZ,AccX,AccY,AccZ,EG,EA,T,GH,AH,GHz,AHz
FMT, 141, 45, AHR2, QccCfLLffff, TimeUS,Roll,Pitch,Yaw,Alt,Lat,Lng,Q1,Q2,Q3,Q4
FMT, 180, 31, POS, QLLfff, TimeUS,Lat,Lng,Alt,RelHomeAlt,RelOriginAlt
FMT, 142, 45, SIM, QccCfLLffff, TimeUS,Roll,Pitch,Yaw,Alt,Lat,Lng,Q1,Q2,Q3,Q4
FMT, 198, 51, NKF1, QccCfffffffccc, TimeUS,Roll,Pitch,Yaw,VN,VE,VD,dPD,PN,PE,PD,GX,GY,GZ
FMT, 199, 35, NKF2, QbccccchhhhhhB, TimeUS,AZbias,GSX,GSY,GSZ,VWN,VWE,MN,ME,MD,MX,MY,MZ,MI
FMT, 200, 33, NKF3, Qcccccchhhcc, TimeUS,IVN,IVE,IVD,IPN,IPE,IPD,IMX,IMY,IMZ,IYAW,IVT
FMT, 201, 35, NKF4, QcccccfbbHBHHb, TimeUS,SV,SP,SH,SM,SVT,errRP,OFN,OFE,FS,TS,SS,GPS,PI
FMT, 202, 40, NKF5, QBhhhcccCCfff, TimeUS,NI,FIX,FIY,AFI,HAGL,offset,RI,rng,Herr,eAng,eVel,ePos
FMT, 203, 51, NKF6, QccCfffffffccc, TimeUS,Roll,Pitch,Yaw,VN,VE,VD,dPD,PN,PE,PD,GX,GY,GZ
FMT, 204, 35, NKF7, QbccccchhhhhhB, TimeUS,AZbias,GSX,GSY,GSZ,VWN,VWE,MN,ME,MD,MX,MY,MZ,MI
FMT, 205, 33, NKF8, Qcccccchhhcc, TimeUS,IVN,IVE,IVD,IPN,IPE,IPD,IMX,IMY,IMZ,IYAW,IVT
FMT, 206, 35, NKF9, QcccccfbbHBHHb, TimeUS,SV,SP,SH,SM,SVT,errRP,OFN,OFE,FS,TS,SS,GPS,PI
FMT, 207, 36, NKF0, QBccCCcccccccc, TimeUS,ID,rng,innov,SIV,TR,BPN,BPE,BPD,OFH,OFL,OFN,OFE,OFD
FMT, 208, 27, NKQ1, Qffff, TimeUS,Q1,Q2,Q3,Q4
FMT, 209, 27, NKQ2, Qffff, TimeUS,Q1,Q2,Q3,Q4
FMT, 210, 51, XKF1, QccCfffffffccc, TimeUS,Roll,Pitch,Yaw,VN,VE,VD,dPD,PN,PE,PD,GX,GY,GZ
FMT, 211, 34, XKF2, QccccchhhhhhB, TimeUS,AX,AY,AZ,VWN,VWE,MN,ME,MD,MX,MY,MZ,MI
FMT, 212, 33, XKF3, Qcccccchhhcc, TimeUS,IVN,IVE,IVD,IPN,IPE,IPD,IMX,IMY,IMZ,IYAW,IVT
FMT, 213, 35, XKF4, QcccccfbbHBHHb, TimeUS,SV,SP,SH,SM,SVT,errRP,OFN,OFE,FS,TS,SS,GPS,PI
FMT, 214, 40, XKF5, QBhhhcccCCfff, TimeUS,NI,FIX,FIY,AFI,HAGL,offset,RI,rng,Herr,eAng,eVel,ePos
FMT, 215, 51, XKF6, QccCfffffffccc, TimeUS,Roll,Pitch,Yaw,VN,VE,VD,dPD,PN,PE,PD,GX,GY,GZ
FMT, 216, 34, XKF7, QccccchhhhhhB, TimeUS,AX,AY,AZ,VWN,VWE,MN,ME,MD,MX,MY,MZ,MI
FMT, 217, 33, XKF8, Qcccccchhhcc, TimeUS,IVN,IVE,IVD,IPN,IPE,IPD,IMX,IMY,IMZ,IYAW,IVT
FMT, 218, 35, XKF9, QcccccfbbHBHHb, TimeUS,SV,SP,SH,SM,SVT,errRP,OFN,OFE,FS,TS,SS,GPS,PI
FMT, 219, 36, XKF0, QBccCCcccccccc, TimeUS,ID,rng,innov,SIV,TR,BPN,BPE,BPD,OFH,OFL,OFN,OFE,OFD
FMT, 220, 27, XKQ1, Qffff, TimeUS,Q1,Q2,Q3,Q4
FMT, 221, 27, XKQ2, Qffff, TimeUS,Q1,Q2,Q3,Q4
FMT, 222, 35, XKFD, Qffffff, TimeUS,IX,IY,IZ,IVX,IVY,IVZ
FMT, 148, 34, TERR, QBLLHffHH, TimeUS,Status,Lat,Lng,Spacing,TerrH,CHeight,Pending,Loaded
FMT, 149, 18, UBX1, QBHBBH, TimeUS,Instance,noisePerMS,jamInd,aPower,agcCnt
FMT, 150, 16, UBX2, QBbBbB, TimeUS,Instance,ofsI,magI,ofsQ,magQ
FMT, 151, 18, UBY1, QBHBBH, TimeUS,Instance,noisePerMS,jamInd,aPower,agcCnt
FMT, 152, 16, UBY2, QBbBbB, TimeUS,Instance,ofsI,magI,ofsQ,magQ
FMT, 170, 42, GRAW, QIHBBddfBbB, TimeUS,WkMS,Week,numSV,sv,cpMes,prMes,doMes,mesQI,cno,lli
FMT, 171, 24, GRXH, QdHbBB, TimeUS,rcvTime,week,leapS,numMeas,recStat
FMT, 172, 41, GRXS, QddfBBBHBBBBB, TimeUS,prMes,cpMes,doMes,gnss,sv,freq,lock,cno,prD,cpD,doD,trk
FMT, 173, 63, SBFE, QIHBBdddfffff, TimeUS,TOW,WN,Mode,Err,Lat,Lng,Height,Undul,Vn,Ve,Vu,COG
FMT, 153, 19, ESC1, Qcccc, TimeUS,RPM,Volt,Curr,Temp
FMT, 154, 19, ESC2, Qcccc, TimeUS,RPM,Volt,Curr,Temp
FMT, 155, 19, ESC3, Qcccc, TimeUS,RPM,Volt,Curr,Temp
FMT, 156, 19, ESC4, Qcccc, TimeUS,RPM,Volt,Curr,Temp
FMT, 157, 19, ESC5, Qcccc, TimeUS,RPM,Volt,Curr,Temp
FMT, 158, 19, ESC6, Qcccc, TimeUS,RPM,Volt,Curr,Temp
FMT, 159, 19, ESC7, Qcccc, TimeUS,RPM,Volt,Curr,Temp
FMT, 160, 19, ESC8, Qcccc, TimeUS,RPM,Volt,Curr,Temp
FMT, 167, 34, MAG2, QhhhhhhhhhBI, TimeUS,MagX,MagY,MagZ,OfsX,OfsY,OfsZ,MOfsX,MOfsY,MOfsZ,Health,S
FMT, 168, 34, MAG3, QhhhhhhhhhBI, TimeUS,MagX,MagY,MagZ,OfsX,OfsY,OfsZ,MOfsX,MOfsY,MOfsZ,Health,S
FMT, 174, 31, ACC1, QQfff, TimeUS,SampleUS,AccX,AccY,AccZ
FMT, 175, 31, ACC2, QQfff, TimeUS,SampleUS,AccX,AccY,AccZ
FMT, 176, 31, ACC3, QQfff, TimeUS,SampleUS,AccX,AccY,AccZ
FMT, 177, 31, GYR1, QQfff, TimeUS,SampleUS,GyrX,GyrY,GyrZ
FMT, 178, 31, GYR2, QQfff, TimeUS,SampleUS,GyrX,GyrY,GyrZ
FMT, 179, 31, GYR3, QQfff, TimeUS,SampleUS,GyrX,GyrY,GyrZ
FMT, 181, 35, PIDR, Qffffff, TimeUS,Des,P,I,D,FF,AFF
FMT, 182, 35, PIDP, Qffffff, TimeUS,Des,P,I,D,FF,AFF
FMT, 183, 35, PIDY, Qffffff, TimeUS,Des,P,I,D,FF,AFF
FMT, 184, 35, PIDA, Qffffff, TimeUS,Des,P,I,D,FF,AFF
FMT, 185, 35, PIDS, Qffffff, TimeUS,Des,P,I,D,FF,AFF
FMT, 186, 35, PIDL, Qffffff, TimeUS,Des,P,I,D,FF,AFF
FMT, 161, 37, BAR2, QffcfIff, TimeUS,Alt,Press,Temp,CRt,SMS,Offset,GndTemp
FMT, 197, 37, BAR3, QffcfIff, TimeUS,Alt,Press,Temp,CRt,SMS,Offset,GndTemp
FMT, 187, 35, VIBE, QfffIII, TimeUS,VibeX,VibeY,VibeZ,Clip0,Clip1,Clip2
FMT, 188, 47, IMT, Qfffffffff, TimeUS,DelT,DelvT,DelaT,DelAX,DelAY,DelAZ,DelVX,DelVY,DelVZ
FMT, 189, 47, IMT2, Qfffffffff, TimeUS,DelT,DelvT,DelaT,DelAX,DelAY,DelAZ,DelVX,DelVY,DelVZ
FMT, 190, 47, IMT3, Qfffffffff, TimeUS,DelT,DelvT,DelaT,DelAX,DelAY,DelAZ,DelVX,DelVY,DelVZ
FMT, 191, 24, ORGN, QBLLe, TimeUS,Type,Lat,Lng,Alt
FMT, 192, 19, RPM, Qff, TimeUS,rpm1,rpm2
FMT, 233, 47, GMB1, Iffffffffff, TimeMS,dt,dax,day,daz,dvx,dvy,dvz,jx,jy,jz
FMT, 234, 44, GMB2, IBfffffffff, TimeMS,es,ex,ey,ez,rx,ry,rz,tx,ty,tz
FMT, 235, 13, GMB3, Ihhh, TimeMS,rl_torque_cmd,el_torque_cmd,az_torque_cmd
FMT, 236, 59, RATE, Qffffffffffff, TimeUS,RDes,R,ROut,PDes,P,POut,YDes,Y,YOut,ADes,A,AOut
FMT, 237, 23, RALY, QBBLLh, TimeUS,Tot,Seq,Lat,Lng,Alt
FMT, 238, 43, VISO, Qffffffff, TimeUS,dt,AngDX,AngDY,AngDZ,PosDX,PosDY,PosDZ,conf
FMT, 224, 23, SBPH, QIII, TimeUS,CrcError,LastInject,IARhyp
FMT, 229, 80, SBR1, QHHBZ, TimeUS,msg_type,sender_id,msg_len,d1
FMT, 230, 205, SBR2, QHZZZ, TimeUS,msg_type,d2,d3,d4
FMT, 25, 41, ATUN, QBBfffffff, TimeUS,Axis,TuneStep,Targ,Min,Max,RP,RD,SP,ddt
FMT, 26, 19, ATDE, Qff, TimeUS,Angle,Rate
FMT, 31, 22, PTUN, QBfHHH, TimeUS,Param,TunVal,CtrlIn,TunLo,TunHi
FMT, 12, 28, OF, QBffff, TimeUS,Qual,flowX,flowY,bodyX,bodyY
FMT, 5, 51, NTUN, Qffffffffff, TimeUS,DPosX,DPosY,PosX,PosY,DVelX,DVelY,VelX,VelY,DAccX,DAccY
FMT, 4, 51, CTUN, Qffffffeccfhh, TimeUS,ThI,ABst,ThO,ThH,DAlt,Alt,BAlt,DSAlt,SAlt,TAlt,DCRt,CRt
FMT, 6, 32, PM, QHHIhBHII, TimeUS,NLon,NLoop,MaxT,PMT,I2CErr,INSErr,LogDrop,Mem
FMT, 30, 27, MOTB, Qffff, TimeUS,LiftMax,BatVolt,BatRes,ThLimit
FMT, 13, 12, EV, QB, TimeUS,Id
FMT, 20, 14, D16, QBh, TimeUS,Id,Value
FMT, 21, 14, DU16, QBH, TimeUS,Id,Value
FMT, 22, 16, D32, QBi, TimeUS,Id,Value
FMT, 23, 16, DU32, QBI, TimeUS,Id,Value
FMT, 24, 16, DFLT, QBf, TimeUS,Id,Value
FMT, 19, 13, ERR, QBB, TimeUS,Subsys,ECode
FMT, 32, 19, HELI, Qff, TimeUS,DRRPM,ERRPM
FMT, 33, 29, PL, QBBffff, TimeUS,Heal,TAcq,pX,pY,vX,vY
FMT, 34, 36, GUID, QBffffff, TimeUS,Type,pX,pY,pZ,vX,vY,vZ
FMT, 35, 32, THRO, QBffffbbbb, TimeUS,Stage,Vel,VelZ,Acc,AccEfZ,Throw,AttOk,HgtOk,PosOk
FMT, 36, 56, PRX, QBfffffffffff, TimeUS,Health,D0,D45,D90,D135,D180,D225,D270,D315,DUp,CAn,CDis
MODE, 19237749, 100, 100, 2
FMT, 254, 47, NKT1, QIffffffff, TimeUS,Cnt,IMUMin,IMUMax,EKFMin,EKFMax,AngMin,AngMax,VelMin,VelM
FMT, 253, 31, CTRL, Qfffff, TimeUS,RMSRollP,RMSRollD,RMSPitchP,RMSPitchD,RMSYaw
MSG, 19380091, APM:Copter V3.5.7 (38483450)
MSG, 19380160, New mission
MSG, 19380176, Frame: QUAD
MODE, 19380180, Autonomous, 100, 2
IMU, 19387742, -0.0004237513, -0.0007024205, 0.0004703347, 0.2374404, -0.05643903, -9.808302, 0, 0, 35.84009, 1, 1, 1000, 1000
MAG, 19429571, 286, 488, 344, 0, 0, 0, 0, 0, 0, 1, 19429560
RFND, 19429606, 0.2, 25, 0, 0
BARO, 19429644, -0.1181603, 992.6809, 33.95, -0.06702881, 19429, 0, 33.65
CTUN, 19429657, 0, 0, 0, 0.6107036, 0.06944256, 0.06944256, -0.11, 0, 0.19, 0, 0, 0
ATT, 19429731, 0, 0.92, 0, 0.6, 359.96, 359.98, 0, 1
RATE, 19429737, -4.167156, 0.07129535, -0.01011631, -2.71924, 0.08678213, -0.006711855, 0.02186656, 0.0002320377, 5.78027E-05, -53.53801, 0.7388115, 0
NKF1, 19429745, 0.92, 0.6, 359.97, -0.0005860953, 0.01744768, -0.001321926, 0, 0, 0, -0.06944256, -0.01, 0, 0
NKF2, 19429745, 0, 0, 0, 0, 0, 0, 0, 0, 0, 0, 0, 0, 0
NKF3, 19429745, 0, 0, 0, 0, 0, 0, 0, 0, 0, 0, 0
NKF4, 19429745, 0, 0, 0, 0, 0, 3.145508E-05, 0, 0, 0, 19, 229, 0, 0
NKF5, 19429745, 0, 0, 0, 0, 0.2, 0.13, 0, 0.19, 0.5, 0.0001269423, 0.0005088482, 0.001083163
NKQ1, 19429745, 0.9999198, 0.003539861, 0.01215459, -0.0002805499
AHR2, 19429843, 0.86, 0.6, 359.95, -0.11, 0, 0, 0.9999576, 0.007515227, 0.005305026, -0.0004746238
MOTB, 19429851, 1, 1, 0, 1
RCIN, 19429856, 0, 0, 0, 0, 0, 0, 0, 0, 0, 0, 0, 0, 0, 0
RCOU, 19429861, 1101, 1101, 1101, 1101, 0, 0, 0, 0, 0, 0, 0, 0, 0, 0
VIBE, 19429869, 0.02006166, 0.01921277, 0.03989952, 0, 0, 0
CTRL, 19429877, 0.009849796, 0.0001841031, 0.006401011, 0.0001619451, 5.947112E-05
PRX, 19429907, 2, 0.74, 0, 0.71, 0, 0.48, 0, 3.6, 0, 0, 180, 0.48
IMU, 19429915, 0.0009734245, 0.001472197, -2.618914E-06, 0.2424815, -0.06023184, -9.802145, 0, 0, 35.84199, 1, 1, 1000, 1000
IMU, 19483484, 0.00154092, 0.0003738012, -0.0001751056, 0.2377344, -0.0600858, -9.790055, 0, 0, 35.84344, 1, 1, 1000, 1000
RFND, 19492397, 0.2, 25, 0, 0
IMU, 19522469, -0.0003100406, -0.0006576021, -0.0005906917, 0.2443043, -0.0745814, -9.805395, 0, 0, 35.84466, 1, 1, 1000, 1000
MAG, 19542489, 289, 488, 337, 0, 0, 0, 0, 0, 0, 1, 19542480
RFND, 19542524, 0.2, 25, 0, 0
BARO, 19542562, -0.1294136, 992.6819, 33.96, 0.003223073, 19542, 0, 33.65
CTUN, 19542576, 0, 0, 0, 0.6107036, 0.06956126, 0.06956126, -0.12, 0, 0.19, 0, 0, 0
ATT, 19542652, 0, 0.92, 0, 0.6, 359.95, 359.97, 0, 1
RATE, 19542658, -4.176056, -0.007162173, -0.009826653, -2.714332, -0.018716, -0.006349037, 0.02380965, -0.0002589449, 0.0001297578, -87.20058, 1.470375, 0
NKF1, 19542666, 0.92, 0.6, 359.96, -0.0006465907, 0.01750294, -0.002153101, 0, 0, 0, -0.06956126, -0.01, 0, 0
NKF2, 19542666, 0, 0, 0, 0, 0, 0, 0, 0, 0, 0, 0, 0, 0
NKF3, 19542666, 0, 0, 0, 0, 0.01, 0, 0, 0, 0, 0, 0
NKF4, 19542666, 0, 0, 0, 0, 0, 2.042724E-05, 0, 0, 0, 19, 229, 0, 0
NKF5, 19542666, 0, 0, 0, 0, 0.2, 0.13, 0, 0.19, 0.5, 0.0001016201, 0.0004856047, 0.001021349
NKQ1, 19542666, 0.99992, 0.003556686, 0.01214437, -0.0003147349
AHR2, 19542711, 0.86, 0.6, 359.94, -0.12, 0, 0, 0.9999575, 0.007529347, 0.005291576, -0.0005090977
MOTB, 19542718, 1, 1, 0, 1
RCIN, 19542722, 0, 0, 0, 0, 0, 0, 0, 0, 0, 0, 0, 0, 0, 0
RCOU, 19542727, 1101, 1101, 1101, 1101, 0, 0, 0, 0, 0, 0, 0, 0, 0, 0
VIBE, 19542736, 0.01890518, 0.02207774, 0.03678485, 0, 0, 0
CTRL, 19542743, 0.009874743, 0.0001850036, 0.006395973, 0.0001518824, 8.39454E-05
PRX, 19542773, 2, 0.74, 0, 0.72, 0, 3.6, 0, 2.31, 0, 0, 90, 0.72
IMU, 19562872, -0.0005375465, 0.000384605, 0.0004080081, 0.2418229, -0.05882376, -9.805037, 0, 0, 35.84575, 1, 1, 1000, 1000
RFND, 19592445, 0.2, 25, 0, 0
IMU, 19603250, -0.0001233907, -0.0006688016, -0.00047796, 0.2409881, -0.07321618, -9.812158, 0, 0, 35.84674, 1, 1, 1000, 1000
MAG, 19648065, 288, 485, 344, 0, 0, 0, 0, 0, 0, 1, 19648045
RFND, 19648158, 0.2, 25, 0, 0
BARO, 19648199, -0.1012802, 992.6791, 33.97, 0.07214841, 19648, 0, 33.65
CTUN, 19648213, 0, 0, 0, 0.6107036, 0.06975093, 0.06975093, -0.1, 0, 0.19, 0, 0, 0
ATT, 19648290, 0, 0.92, 0, 0.6, 359.95, 359.98, 0, 1
RATE, 19648296, -4.17948, -0.0257929, -0.009725697, -2.706125, 0.003003721, -0.006473578, 0.02296138, 0.01582573, 5.668086E-05, -105.9041, -0.2739906, 0
NKF1, 19648304, 0.92, 0.6, 359.97, -0.0006969383, 0.01775968, -0.002614916, 0, 0, 0, -0.06975093, -0.01, 0, 0
NKF2, 19648304, 0, 0, 0, 0, 0, 0, 0, 0, 0, 0, 0, 0, 0
NKF3, 19648304, 0, 0, 0, 0, 0.01, 0, 0, 0, 0, 0, 0
NKF4, 19648304, 0, 0, 0, 0, 0, 1.341777E-05, 0, 0, 0, 19, 229, 0, 0
NKF5, 19648304, 0, 0, 0, 0, 0.2, 0.13, 0, 0.19, 0.5, 8.103058E-05, 0.0005891377, 0.001144086
NKQ1, 19648304, 0.9999201, 0.003563309, 0.01212931, -0.0003015282
AHR2, 19648364, 0.86, 0.6, 359.94, -0.09999999, 0, 0, 0.9999576, 0.00753554, 0.005273345, -0.000496006
MOTB, 19648371, 1, 1, 0, 1
RCIN, 19648376, 0, 0, 0, 0, 0, 0, 0, 0, 0, 0, 0, 0, 0, 0
RCOU, 19648381, 1101, 1101, 1101, 1101, 0, 0, 0, 0, 0, 0, 0, 0, 0, 0
VIBE, 19648389, 0.01866253, 0.01861664, 0.03471703, 0, 0, 0
CTRL, 19648396, 0.00987868, 0.000182638, 0.006375853, 0.0001349277, 8.512342E-05
PRX, 19648427, 2, 0.74, 0, 0.71, 0, 3.6, 0, 2.3, 0, 0, 90, 0.71
IMU, 19648434, -0.0007144787, 1.101886E-05, 0.0002697046, 0.2363601, -0.05900621, -9.792388, 0, 0, 35.84841, 1, 1, 1000, 1000
IMU, 19687585, 0.0002116672, 0.0002964877, 0.000374491, 0.2417416, -0.06053462, -9.788721, 0, 0, 35.84991, 1, 1, 1000, 1000
RFND, 19697901, 0.2, 25, 0, 0
IMU, 19727700, -0.0009611183, 0.0006479413, -0.001065822, 0.2434257, -0.058455, -9.796241, 0, 0, 35.85153, 1, 1, 1000, 1000
MAG, 19747524, 289, 495, 336, 0, 0, 0, 0, 0, 0, 1, 19747515
RFND, 19747553, 0.2, 25, 0, 0
BARO, 19747594, -0.07314684, 992.6761, 33.97, 0.152653, 19747, 0, 33.65
CTUN, 19747608, 0, 0, 0, 0.6107036, 0.06990275, 0.06990275, -0.07, 0, 0.19, 0, 0, 0
ATT, 19747746, 0, 0.92, 0, 0.6, 359.95, 359.97, 0, 1
RATE, 19747753, -4.183487, 0.04152134, -0.0102945, -2.714571, 0.06344493, -0.006599839, 0.02353329, -0.0003868504, 0.0001098723, -116.483, 1.421165, 0
NKF1, 19747761, 0.92, 0.6, 359.96, -0.0005572713, 0.01896591, -0.002876124, 0, 0, 0, -0.06990275, -0.01, 0, 0
NKF2, 19747761, 0, 0, 0, 0, 0, 0, 0, 0, 0, 0, 0, 0, 0
NKF3, 19747761, 0, 0, 0, 0, 0.01, 0, 0, 0, 0, 0, 0
NKF4, 19747761, 0, 0, 0, 0, 0, 8.520947E-06, 0, 0, 0, 19, 229, 0, 0
NKF5, 19747761, 0, 0, 0, 0, 0.2, 0.13, 0, 0.19, 0.5, 6.65614E-05, 0.0007077447, 0.001366873
NKQ1, 19747761, 0.9999199, 0.003571282, 0.01214496, -0.0003124098
AHR2, 19747806, 0.86, 0.6, 359.94, -0.07, 0, 0, 0.9999574, 0.007542183, 0.005286335, -0.0005071195
MOTB, 19747813, 1, 1, 0, 1
RCIN, 19747818, 0, 0, 0, 0, 0, 0, 0, 0, 0, 0, 0, 0, 0, 0
RCOU, 19747824, 1101, 1101, 1101, 1101, 0, 0, 0, 0, 0, 0, 0, 0, 0, 0
VIBE, 19747831, 0.01633288, 0.01764812, 0.03467349, 0, 0, 0
CTRL, 19747839, 0.009879014, 0.0001846262, 0.006393778, 0.0001683895, 8.279098E-05
PRX, 19747869, 2, 0.74, 0, 0.71, 0, 0.51, 0, 2.32, 0, 0, 180, 0.51
IMU, 19767648, 0.001514409, 0.0007420376, -0.001475023, 0.2398489, -0.05946683, -9.798746, 0, 0, 35.85304, 1, 1, 1000, 1000
RFND, 19797669, 0.2, 25, 0, 0
IMU, 19807652, 0.0004099316, -0.0003790656, 0.0005028115, 0.2359497, -0.05605628, -9.807487, 0, 0, 35.85429, 1, 1, 1000, 1000
MAG, 19858033, 282, 496, 336, 0, 0, 0, 0, 0, 0, 1, 19858025
RFND, 19858151, 0.2, 25, 0, 0
BARO, 19858191, -0.06189349, 992.6747, 33.97, 0.1897684, 19858, 0, 33.65
CTUN, 19858204, 0, 0, 0, 0.6107036, 0.07014068, 0.07014068, -0.06, 0, 0.19, 0, 0, 0
DU32, 19858243, 7, 50389208
ATT, 19858403, 0, 0.93, 0, 0.6, 359.95, 359.97, 0, 1
RATE, 19858410, -4.197319, 0.04713665, -0.01003978, -2.719505, -0.02644774, -0.006305458, 0.02229425, -0.00826914, 7.947757E-05, -135.2799, -0.830555, 0
NKF1, 19858418, 0.93, 0.6, 359.96, -0.000512649, 0.0197761, -0.003340245, 0, 0, 0, -0.07014068, -0.01, 0, 0
NKF2, 19858418, 0, 0, 0, 0, 0, 0, 0, 0, 0, 0, 0, 0, 0
NKF3, 19858418, 0, 0, 0, 0, 0.01, 0, 0, 0, 0, 0, 0
NKF4, 19858418, 0, 0, 0, 0, 0, 5.858808E-06, 0, 0, 0, 19, 229, 0, 0
NKF5, 19858418, 0, 0, 0, 0, 0.2, 0.13, 0, 0.19, 0.5, 5.480485E-05, 0.0007918868, 0.001514473
NKQ1, 19858418, 0.9999197, 0.003598535, 0.0121544, -0.0003154953
AHR2, 19858463, 0.86, 0.6, 359.94, -0.06, 0, 0, 0.9999573, 0.007566391, 0.005293174, -0.0005105106
MOTB, 19858470, 1, 1, 0, 1
RCIN, 19858475, 0, 0, 0, 0, 0, 0, 0, 0, 0, 0, 0, 0, 0, 0
RCOU, 19858480, 1101, 1101, 1101, 1101, 0, 0, 0, 0, 0, 0, 0, 0, 0, 0
VIBE, 19858488, 0.01659821, 0.02137084, 0.03526004, 0, 0, 0
CTRL, 19858495, 0.009911073, 0.0001798096, 0.006411338, 0.000182268, 9.192651E-05
PRX, 19858525, 2, 0.74, 0, 0.71, 0, 0.51, 0, 2.32, 0, 0, 180, 0.51
IMU, 19858532, 0.000558455, -0.0005030003, -0.000150829, 0.2386221, -0.05360582, -9.786808, 0, 0, 35.85562, 1, 1, 1000, 1000
IMU, 19897809, -0.0002801318, 0.0004341639, -0.0008139581, 0.2237597, -0.06178458, -9.797644, 0, 0, 35.85662, 1, 1, 1000, 1000
RFND, 19908355, 0.2, 25, 0, 0
IMU, 19937828, 0.001011806, -0.0007002406, 0.0007047825, 0.2353582, -0.06660891, -9.792923, 0, 0, 35.8572, 1, 1, 1000, 1000
MAG, 19958349, 290, 491, 345, 0, 0, 0, 0, 0, 0, 1, 19958341
RFND, 19958379, 0.2, 25, 0, 0
BARO, 19958418, 0, 992.668, 33.97, 0.2099628, 19958, 0, 33.65
CTUN, 19958431, 0, 0, 0, 0.6107036, 0.07033145, 0.07033145, 0, 0, 0.19, 0, 0, 0
ATT, 19958506, 0, 0.93, 0, 0.6, 359.95, 359.97, 0, 1
RATE, 19958513, -4.202851, 0.00085004, -0.009648031, -2.716789, 0.01092447, -0.006524618, 0.02127113, 0.003337778, 7.14294E-05, -124.6499, -0.7194519, 0
NKF1, 19958520, 0.93, 0.6, 359.96, -0.0009719958, 0.02082278, -0.003077776, 0, 0, 0, -0.07033145, -0.01, 0, 0
NKF2, 19958520, 0, 0, 0, 0, 0, 0, 0, 0, 0, 0, 0, 0, 0
NKF3, 19958520, 0, 0, 0, 0, 0.01, 0, 0, 0, 0, 0, 0
NKF4, 19958520, 0, 0, 0, 0, 0, 3.97273E-06, 0, 0, 0, 19, 229, 0, 0
NKF5, 19958520, 0, 0, 0, 0, 0.2, 0.13, 0, 0.19, 0.5, 4.766389E-05, 0.0008557915, 0.001653902
NKQ1, 19958520, 0.9999197, 0.003609785, 0.01214995, -0.0003191328
AHR2, 19958564, 0.86, 0.6, 359.94, 0, 0, 0, 0.9999573, 0.007570889, 0.005284087, -0.0005142454
MOTB, 19958571, 1, 1, 0, 1
RCIN, 19958575, 0, 0, 0, 0, 0, 0, 0, 0, 0, 0, 0, 0, 0, 0
RCOU, 19958581, 1101, 1101, 1101, 1101, 0, 0, 0, 0, 0, 0, 0, 0, 0, 0
VIBE, 19958589, 0.01771958, 0.02053226, 0.03517393, 0, 0, 0
CTRL, 19958595, 0.009924573, 0.0001851643, 0.006399979, 0.0001955929, 9.12374E-05
PRX, 19958626, 2, 0.74, 0, 0.71, 0, 0.49, 0, 2.28, 0, 0, 180, 0.49
IMU, 19978906, -0.001023637, -0.0005066069, 7.119095E-05, 0.2350127, -0.06094446, -9.79928, 0, 0, 35.85753, 1, 1, 1000, 1000
RFND, 20009038, 0.2, 25, 0, 0
IMU, 20022183, 0.0004761126, -0.000824056, -0.0003651568, 0.234637, -0.063054, -9.796684, 0, 0, 35.858, 1, 1, 1000, 1000
MAG, 20062534, 289, 488, 336, 0, 0, 0, 0, 0, 0, 1, 20062525
RFND, 20062563, 0.2, 25, 0, 0
BARO, 20062603, -0.1294136, 992.6819, 33.97, 0.2108231, 20062, 0, 33.65
CTUN, 20062616, 0, 0, 0, 0.6107036, 0.07055064, 0.07055064, -0.12, 0, 0.19, 0, 0, 0
ATT, 20062692, 0, 0.93, 0, 0.6, 359.95, 359.97, 0, 1
RATE, 20062698, -4.197168, -0.0169619, -0.009835795, -2.706588, -0.07580394, -0.005745916, 0.02262226, -0.03248663, 2.575672E-05, -127.7867, -0.5805969, 0
NKF1, 20062706, 0.93, 0.6, 359.96, -0.001459316, 0.02160089, -0.003155227, 0, 0, 0, -0.07055064, -0.01, 0, 0
NKF2, 20062706, 0, 0, 0, 0, 0, 0, 0, 0, 0, 0, 0, 0, 0
NKF3, 20062706, 0, 0, 0, 0, 0.02, 0, 0, 0, 0, 0, 0
NKF4, 20062706, 0, 0, 0, 0, 0, 2.820245E-06, 0, 0, 0, 19, 229, 0, 0
NKF5, 20062706, 0, 0, 0, 0, 0.2, 0.13, 0, 0.19, 0.5, 4.265354E-05, 0.0008953721, 0.00175533
NKQ1, 20062706, 0.99992, 0.003599282, 0.01212905, -0.0003073027
AHR2, 20062749, 0.86, 0.6, 359.94, -0.12, 0, 0, 0.9999576, 0.00755058, 0.005257278, -0.0005022679
MOTB, 20062907, 1, 1, 0, 1
RCIN, 20062912, 0, 0, 0, 0, 0, 0, 0, 0, 0, 0, 0, 0, 0, 0
RCOU, 20062917, 1101, 1101, 1101, 1101, 0, 0, 0, 0, 0, 0, 0, 0, 0, 0
VIBE, 20062926, 0.02061894, 0.01764826, 0.03579457, 0, 0, 0
CTRL, 20062933, 0.00991137, 0.000193724, 0.00639378, 0.0001910423, 7.805725E-05
PRX, 20063024, 2, 0.74, 0, 0.71, 0, 0.49, 0, 2.28, 0, 0, 180, 0.49
IMU, 20063033, -0.000561616, -0.001364657, -0.0005735388, 0.2319838, -0.06161845, -9.789375, 0, 0, 35.8582, 1, 1, 1000, 1000
IMU, 20102336, -0.0003912185, 0.0007061417, -0.0002844255, 0.2288214, -0.05234431, -9.799271, 0, 0, 35.8582, 1, 1, 1000, 1000
RFND, 20112735, 0.2, 25, 0, 0
IMU, 20142296, -4.047476E-05, -0.001757348, -0.0009586108, 0.2314442, -0.05893368, -9.796625, 0, 0, 35.85752, 1, 1, 1000, 1000
MAG, 20168156, 287, 482, 339, 0, 0, 0, 0, 0, 0, 1, 20168147
RFND, 20168528, 0.2, 25, 0, 0
BARO, 20168571, -0.1744271, 992.6869, 33.97, 0.06087359, 20168, 0, 33.65
CTUN, 20168585, 0, 0, 0, 0.6107036, 0.07070006, 0.07070006, -0.17, 0, 0.19, 0, 0, 0
ATT, 20168662, 0, 0.93, 0, 0.59, 359.95, 359.97, 0, 1
RATE, 20168669, -4.19593, 0.02445461, -0.009989589, -2.693827, -0.0247424, -0.006531838, 0.02280318, -0.02218353, 0.0001189746, -107.6323, -0.4011154, 0
NKF1, 20168678, 0.93, 0.59, 359.96, -0.002063344, 0.0227269, -0.002657586, 0, 0, 0, -0.07070006, -0.01, 0, 0
NKF2, 20168678, 0, 0, 0, 0, 0, 0, 0, 0, 0, 0, 0, 0, 0
NKF3, 20168678, 0, 0, 0, 0, 0.02, 0, 0, 0, 0, 0, 0
NKF4, 20168678, 0, 0, 0, 0, 0, 2.061223E-06, 0, 0, 0, 19, 229, 0, 0
NKF5, 20168678, 0, 0, 0, 0, 0.2, 0.13, 0, 0.19, 0.5, 4.009294E-05, 0.0008978757, 0.001767283
NKQ1, 20168678, 0.9999202, 0.003596289, 0.01210418, -0.0003260995
AHR2, 20168724, 0.86, 0.59, 359.94, -0.17, 0, 0, 0.9999578, 0.007539246, 0.005226881, -0.0005209339
MOTB, 20168731, 1, 1, 0, 1
RCIN, 20168735, 0, 0, 0, 0, 0, 0, 0, 0, 0, 0, 0, 0, 0, 0
RCOU, 20168740, 1101, 1101, 1101, 1101, 0, 0, 0, 0, 0, 0, 0, 0, 0, 0
VIBE, 20168748, 0.01969477, 0.01796691, 0.03337967, 0, 0, 0
CTRL, 20168756, 0.009895104, 0.0001691171, 0.00635548, 0.0001997307, 7.898969E-05
PRX, 20168786, 2, 0.74, 0, 0.72, 0, 3.6, 0, 3.6, 0, 0, 90, 0.72
IMU, 20187004, 0.0003245536, 0.00140315, -0.0001860643, 0.2316477, -0.05691911, -9.803179, 0, 0, 35.85638, 1, 1, 1000, 1000
RFND, 20216793, 0.2, 25, 0, 0
IMU, 20228310, 0.0007165552, 0.0004069722, -0.0004145078, 0.2341375, -0.06626108, -9.807563, 0, 0, 35.85584, 1, 1, 1000, 1000
MAG, 20266878, 287, 489, 336, 0, 0, 0, 0, 0, 0, 1, 20266869
RFND, 20266908, 0.2, 25, 0, 0
BARO, 20266947, -0.2194405, 992.6923, 33.98, -0.2595665, 20266, 0, 33.65
CTUN, 20266960, 0, 0, 0, 0.6107036, 0.07082362, 0.07082362, -0.21, 0, 0.19, 0, 0, 0
ATT, 20267662, 0, 0.93, 0, 0.6, 359.95, 359.97, 0, 1
RATE, 20267671, -4.201334, -0.06088613, -0.009703589, -2.704516, 0.003879867, -0.006423043, 0.02172072, -0.001951688, 0.0001671344, -127.0101, 0.621891, 0
NKF1, 20267682, 0.93, 0.6, 359.96, -0.001950989, 0.02353324, -0.003136051, 0, 0, 0, -0.07082362, -0.01, 0, 0
NKF2, 20267682, 0, 0, 0, 0, 0, 0, 0, 0, 0, 0, 0, 0, 0
NKF3, 20267682, 0, 0, 0, 0, 0.02, 0, 0, 0, 0, 0, 0
NKF4, 20267682, 0, 0, 0, 0, 0, 1.642401E-06, 0, 0, 0, 19, 229, 0, 0
NKF5, 20267682, 0, 0, 0, 0, 0.2, 0.13, 0, 0.19, 0.5, 3.912219E-05, 0.0008958736, 0.001795524
NKQ1, 20267682, 0.99992, 0.003607271, 0.01212585, -0.0003497913
AHR2, 20267732, 0.86, 0.6, 359.94, -0.21, 0, 0, 0.9999577, 0.007543067, 0.005243471, -0.0005448228
MOTB, 20267740, 1, 1, 0, 1
RCIN, 20267744, 0, 0, 0, 0, 0, 0, 0, 0, 0, 0, 0, 0, 0, 0
RCOU, 20267750, 1101, 1101, 1101, 1101, 0, 0, 0, 0, 0, 0, 0, 0, 0, 0
VIBE, 20267758, 0.01972016, 0.01752665, 0.03220547, 0, 0, 0
CTRL, 20267765, 0.009917429, 0.0001906223, 0.006379531, 0.0001878904, 0.0001097305
PRX, 20267796, 2, 0.74, 0, 0.71, 0, 3.6, 0, 3.6, 0, 0, 90, 0.71
IMU, 20267803, -0.00133017, 2.577111E-05, -4.065241E-05, 0.2424485, -0.06011359, -9.801104, 0, 0, 35.8555, 1, 1, 1000, 1000
IMU, 20306886, 0.001491795, -7.072408E-05, -0.001405683, 0.2354154, -0.0619399, -9.787373, 0, 0, 35.85572, 1, 1, 1000, 1000
RFND, 20317672, 0.2, 25, 0, 0
IMU, 20348820, -0.001343622, -0.0008026513, 7.603295E-05, 0.2345199, -0.07200897, -9.810944, 0, 0, 35.85572, 1, 1, 1000, 1000
MAG, 20368873, 292, 488, 340, 0, 0, 0, 0, 0, 0, 1, 20368864
RFND, 20368902, 0.2, 25, 0, 0
BARO, 20368942, -0.2194405, 992.6923, 33.98, -0.4968073, 20368, 0, 33.65
CTUN, 20368954, 0, 0, 0, 0.6107036, 0.07092392, 0.07092392, -0.21, 0, 0.19, 0, 0, 0
ATT, 20369121, 0, 0.93, 0, 0.59, 359.94, 359.97, 0, 1
RATE, 20369128, -4.223071, 0.07567007, -0.01048456, -2.695566, 0.01741706, -0.006612534, 0.02163009, 0.00489976, 0.0001254558, -120.6778, 1.1096, 0
NKF1, 20369137, 0.93, 0.59, 359.96, -0.002320218, 0.02404372, -0.002979699, 0, 0, 0, -0.07092392, -0.01, 0, 0
NKF2, 20369137, 0, 0, 0, 0, 0, 0, 0, 0, 0, 0, 0, 0, 0
NKF3, 20369137, 0, 0, 0, 0, 0.02, 0, 0, 0, 0, 0, 0
NKF4, 20369137, 0, 0, 0, 0, 0, 1.407194E-06, 0, 0, 0, 19, 229, 0, 0
NKF5, 20369137, 0, 0, 0, 0, 0.2, 0.13, 0, 0.19, 0.5, 3.83401E-05, 0.0008757016, 0.001746855
NKQ1, 20369137, 0.99992, 0.003648871, 0.01210823, -0.0003671478
AHR2, 20369181, 0.86, 0.59, 359.94, -0.21, 0, 0, 0.9999575, 0.007578507, 0.005222257, -0.0005623915
MOTB, 20369188, 1, 1, 0, 1
RCIN, 20369193, 0, 0, 0, 0, 0, 0, 0, 0, 0, 0, 0, 0, 0, 0
RCOU, 20369198, 1101, 1101, 1101, 1101, 0, 0, 0, 0, 0, 0, 0, 0, 0, 0
VIBE, 20369207, 0.01908127, 0.01672843, 0.0342207, 0, 0, 0
CTRL, 20369213, 0.009945028, 0.0002228075, 0.006353633, 0.0001731365, 0.0001253756
PRX, 20369245, 2, 0.74, 0, 0.71, 0, 3.6, 0, 3.6, 0, 0, 90, 0.71
IMU, 20389945, 0.0008041026, -0.001145482, 0.001001211, 0.2382285, -0.06758484, -9.802627, 0, 0, 35.85572, 1, 1, 1000, 1000
RFND, 20419779, 0.2, 25, 0, 0
IMU, 20429261, -0.0007309024, -0.0002866433, 0.0006761837, 0.2398108, -0.08345511, -9.789759, 0, 0, 35.85572, 1, 1, 1000, 1000
MAG, 20469223, 286, 491, 334, 0, 0, 0, 0, 0, 0, 1, 20469215
RFND, 20469253, 0.2, 25, 0, 0
BARO, 20469293, -0.298214, 992.7006, 33.98, -0.4780399, 20469, 0, 33.65
CTUN, 20469306, 0, 0, 0, 0.6107036, 0.07102372, 0.07102372, -0.29, 0, 0.19, 0, 0, 0
ATT, 20469383, 0, 0.93, 0, 0.59, 359.95, 359.97, 0, 1
RATE, 20469389, -4.220132, -0.0009090237, -0.009814985, -2.688393, 0.03739797, -0.006574272, 0.02101091, 0.0002648273, 8.238768E-05, -117.7905, -0.4166603, 0
NKF1, 20469397, 0.93, 0.59, 359.96, -0.002468309, 0.02423856, -0.002908408, 0, 0, 0, -0.07102372, -0.01, 0, 0
NKF2, 20469397, 0, 0, 0, 0, 0, 0, 0, 0, 0, 0, 0, 0, 0
NKF3, 20469397, 0, 0, 0, 0, 0.02, 0, 0, 0, 0, 0, 0
NKF4, 20469397, 0, 0, 0, 0, 0, 1.337615E-06, 0, 0, 0, 19, 229, 0, 0
NKF5, 20469397, 0, 0, 0, 0, 0.2, 0.13, 0, 0.19, 0.5, 3.910383E-05, 0.0008463931, 0.001723225
NKQ1, 20469397, 0.9999202, 0.003642801, 0.01209402, -0.0003548612
AHR2, 20469441, 0.86, 0.59, 359.94, -0.29, 0, 0, 0.9999577, 0.007566438, 0.005205119, -0.000550016
MOTB, 20469448, 1, 1, 0, 1
RCIN, 20469452, 0, 0, 0, 0, 0, 0, 0, 0, 0, 0, 0, 0, 0, 0
RCOU, 20469457, 1101, 1101, 1101, 1101, 0, 0, 0, 0, 0, 0, 0, 0, 0, 0
VIBE, 20469466, 0.01924829, 0.01957125, 0.03376504, 0, 0, 0
CTRL, 20469472, 0.009954946, 0.0002257064, 0.006336781, 0.0001798907, 0.0001089945
PRX, 20469504, 2, 0.74, 0, 0.71, 0, 0.5, 0, 2.3, 0, 0, 180, 0.5
IMU, 20469510, -0.0002850611, 0.0006104897, -2.010343E-06, 0.2369434, -0.06719221, -9.790749, 0, 0, 35.85572, 1, 1, 1000, 1000
IMU, 20509281, 0.0003175117, -0.000505455, -0.0005833948, 0.2406195, -0.06952158, -9.799582, 0, 0, 35.85568, 1, 1, 1000, 1000
RFND, 20521653, 0.2, 25, 0, 0
IMU, 20551239, -0.001623508, -0.001205271, 0.000272772, 0.2310263, -0.07927945, -9.810249, 0, 0, 35.8557, 1, 1, 1000, 1000
MAG, 20571146, 288, 494, 334, 0, 0, 0, 0, 0, 0, 1, 20571137
RFND, 20571175, 0.2, 25, 0, 0
BARO, 20571215, -0.2250672, 992.6925, 33.98, -0.3465469, 20571, 0, 33.65
CTUN, 20571228, 0, 0, 0, 0.6107036, 0.07115889, 0.07115889, -0.22, 0, 0.19, 0, 0, 0
ATT, 20571308, 0, 0.93, 0, 0.59, 359.95, 359.97, 0, 1
RATE, 20571314, -4.208094, -0.01798727, -0.01016873, -2.668848, -0.05063293, -0.006101976, 0.02133589, -0.006347734, 2.533361E-05, -154.5161, 0.8849144, 0
NKF1, 20571322, 0.93, 0.59, 359.96, -0.002348128, 0.02473161, -0.003815213, 0, 0, 0, -0.07115889, -0.01, 0, 0
NKF2, 20571322, 0, 0, 0, 0, 0, 0, 0, 0, 0, 0, 0, 0, 0
NKF3, 20571322, 0, 0, 0, 0, 0.03, 0, 0, 0, 0, 0, 0
NKF4, 20571322, 0, 0, 0, 0, 0, 1.323657E-06, 0, 0, 0, 19, 229, 0, 0
NKF5, 20571322, 0, 0, 0, 0, 0.2, 0.13, 0, 0.19, 0.5, 4.016278E-05, 0.0008108116, 0.001689706
NKQ1, 20571322, 0.9999207, 0.003619946, 0.01205625, -0.0003473665
AHR2, 20571366, 0.86, 0.59, 359.94, -0.22, 0, 0, 0.9999581, 0.007540153, 0.005163066, -0.0005421736
MOTB, 20571372, 1, 1, 0, 1
RCIN, 20571446, 0, 0, 0, 0, 0, 0, 0, 0, 0, 0, 0, 0, 0, 0
RCOU, 20571453, 1101, 1101, 1101, 1101, 0, 0, 0, 0, 0, 0, 0, 0, 0, 0
VIBE, 20571462, 0.02110369, 0.02250919, 0.03138968, 0, 0, 0
CTRL, 20571469, 0.009921226, 0.0002162012, 0.006299907, 0.0001641084, 9.853119E-05
PRX, 20571501, 2, 0.74, 0, 0.71, 0, 0.5, 0, 2.3, 0, 0, 180, 0.5
IMU, 20590956, 0.0003746512, -0.0006560326, -0.0002461717, 0.235912, -0.05894138, -9.794947, 0, 0, 35.85569, 1, 1, 1000, 1000
RFND, 20620641, 0.2, 25, 0, 0
IMU, 20630743, -0.001464441, -4.562596E-05, -0.0001330358, 0.2312079, -0.0689453, -9.806747, 0, 0, 35.85524, 1, 1, 1000, 1000
MAG, 20670755, 288, 482, 339, 0, 0, 0, 0, 0, 0, 1, 20670747
RFND, 20670784, 0.2, 25, 0, 0
BARO, 20670824, -0.140667, 992.6836, 33.98, -0.187564, 20670, 0, 33.65
CTUN, 20670837, 0, 0, 0, 0.6107036, 0.07132747, 0.07132747, -0.14, 0, 0.19, 0, 0, 0
ATT, 20670914, 0, 0.93, 0, 0.59, 359.95, 359.97, 0, 1
RATE, 20670919, -4.209927, 0.02421424, -0.01024707, -2.662978, -0.02984003, -0.006164057, 0.02008803, 0.0595933, 8.616947E-05, -166.1952, 0.05464554, 0
NKF1, 20670927, 0.93, 0.59, 359.96, -0.002272156, 0.02568784, -0.004103586, 0, 0, 0, -0.07132747, -0.01, 0, 0
NKF2, 20670927, 0, 0, 0, 0, 0, 0, 0, 0, 0, 0, 0, 0, 0
NKF3, 20670927, 0, 0, 0, 0, 0.03, 0, 0, 0, 0, 0, 0
NKF4, 20670927, 0, 0, 0, 0, 0, 1.43137E-06, 0, 0, 0, 19, 229, 0, 0
NKF5, 20670927, 0, 0, 0, 0, 0.2, 0.13, 0, 0.19, 0.5, 3.977308E-05, 0.0007769658, 0.001592005
NKQ1, 20670927, 0.9999209, 0.003621892, 0.01204673, -0.000352035
AHR2, 20670971, 0.86, 0.59, 359.94, -0.14, 0, 0, 0.9999582, 0.00753941, 0.005148725, -0.0005468093
MOTB, 20670977, 1, 1, 0, 1
RCIN, 20670982, 0, 0, 0, 0, 0, 0, 0, 0, 0, 0, 0, 0, 0, 0
RCOU, 20670987, 1101, 1101, 1101, 1101, 0, 0, 0, 0, 0, 0, 0, 0, 0, 0
VIBE, 20670995, 0.01952025, 0.0227053, 0.03205244, 0, 0, 0
CTRL, 20671002, 0.009918669, 0.0002098904, 0.006285488, 0.0001535406, 9.525099E-05
PRX, 20671118, 2, 0.74, 0, 0.71, 0, 3.6, 0, 2.32, 0, 0, 90, 0.71
IMU, 20671126, 0.0001520335, -0.0005632747, 0.00103343, 0.2408228, -0.0485997, -9.795464, 0, 0, 35.85503, 1, 1, 1000, 1000
IMU, 20711154, 0.0001428864, -0.0004925327, -0.0005051531, 0.235736, -0.06355436, -9.794592, 0, 0, 35.85575, 1, 1, 1000, 1000
RFND, 20720753, 0.2, 25, 0, 0
IMU, 20750751, -0.0007867973, 0.0005249446, 0.001371987, 0.2358514, -0.0592262, -9.800568, 0, 0, 35.85655, 1, 1, 1000, 1000
MAG, 20770765, 292, 490, 337, 0, 0, 0, 0, 0, 0, 1, 20770757
RFND, 20770794, 0.2, 25, 0, 0
BARO, 20770834, -0.1744271, 992.687, 33.98, 0.08883023, 20770, 0, 33.65
CTUN, 20770846, 0, 0, 0, 0.6107036, 0.07148293, 0.07148293, -0.17, 0, 0.19, 0, 0, 0
ATT, 20770922, 0, 0.93, 0, 0.59, 359.95, 359.97, 0, 1
RATE, 20770928, -4.19595, 0.01627427, -0.01005844, -2.668661, -0.01199628, -0.006290331, 0.02221693, -0.01849655, 5.499403E-05, -144.0992, -0.08897781, 0
NKF1, 20770936, 0.93, 0.59, 359.96, -0.002368404, 0.02664685, -0.003558004, 0, 0, 0, -0.07148293, -0.01, 0, 0
NKF2, 20770936, 0, 0, 0, 0, 0, 0, 0, 0, 0, 0, 0, 0, 0
NKF3, 20770936, 0, 0, 0, 0, 0.03, 0, 0, 0, 0, 0, 0
NKF4, 20770936, 0, 0, 0, 0, 0, 1.557893E-06, 0, 0, 0, 19, 229, 0, 0
NKF5, 20770936, 0, 0, 0, 0, 0.2, 0.13, 0, 0.19, 0.5, 4.141732E-05, 0.0007291646, 0.001536901
NKQ1, 20770936, 0.9999209, 0.003596512, 0.01205525, -0.0003647473
AHR2, 20770979, 0.86, 0.59, 359.94, -0.17, 0, 0, 0.9999583, 0.007510743, 0.005155242, -0.0005594217
MOTB, 20770986, 1, 1, 0, 1
RCIN, 20770990, 0, 0, 0, 0, 0, 0, 0, 0, 0, 0, 0, 0, 0, 0
RCOU, 20770995, 1101, 1101, 1101, 1101, 0, 0, 0, 0, 0, 0, 0, 0, 0, 0
VIBE, 20771003, 0.0188906, 0.02079424, 0.03180144, 0, 0, 0
CTRL, 20771010, 0.00989805, 0.0002135183, 0.006291978, 0.0001542957, 9.264473E-05
PRX, 20771132, 2, 0.74, 0, 0.71, 0, 3.6, 0, 2.3, 0, 0, 90, 0.71
IMU, 20790732, 0.0001760644, 0.000310113, -0.0003492444, 0.2387957, -0.05716006, -9.80681, 0, 0, 35.85739, 1, 1, 1000, 1000
RFND, 20820708, 0.2, 25, 0, 0
IMU, 20830745, -0.0008443138, 0.001154879, -0.0002620172, 0.2416739, -0.07012086, -9.77999, 0, 0, 35.85807, 1, 1, 1000, 1000
MAG, 20871138, 290, 493, 338, 0, 0, 0, 0, 0, 0, 1, 20871130
RFND, 20871169, 0.2, 25, 0, 0
BARO, 20871211, -0.2532006, 992.6958, 33.98, 0.2904666, 20871, 0, 33.65
CTUN, 20871224, 0, 0, 0, 0.6107036, 0.07162263, 0.07162263, -0.25, 0, 0.19, 0, 0, 0
DU32, 20871788, 7, 50389208
ATT, 20871896, 0, 0.93, 0, 0.59, 359.95, 359.97, 0, 1
RATE, 20871903, -4.192913, 0.04004065, -0.01029287, -2.677873, -0.03019863, -0.006132203, 0.02119071, 0.08301678, 8.019904E-05, -137.6486, 0.1174927, 0
NKF1, 20871911, 0.93, 0.59, 359.96, -0.001937903, 0.02732932, -0.00339873, 0, 0, 0, -0.07162263, -0.01, 0, 0
NKF2, 20871911, 0, 0, 0, 0, 0, 0, 0, 0, 0, 0, 0, 0, 0
NKF3, 20871911, 0, 0, 0, 0, 0.03, 0, 0, 0, 0, 0, 0
NKF4, 20871911, 0, 0, 0, 0, 0, 1.753267E-06, 0, 0, 0, 19, 229, 0, 0
NKF5, 20871911, 0, 0, 0, 0, 0.2, 0.13, 0, 0.19, 0.5, 4.058237E-05, 0.0007003565, 0.001435704
NKQ1, 20871911, 0.9999206, 0.003588473, 0.01207622, -0.0003664463
AHR2, 20871958, 0.85, 0.59, 359.94, -0.25, 0, 0, 0.9999583, 0.007499327, 0.005175351, -0.0005612198
MOTB, 20871964, 1, 1, 0, 1
RCIN, 20871969, 0, 0, 0, 0, 0, 0, 0, 0, 0, 0, 0, 0, 0, 0
RCOU, 20871974, 1101, 1101, 1101, 1101, 0, 0, 0, 0, 0, 0, 0, 0, 0, 0
VIBE, 20871983, 0.01673834, 0.01960447, 0.03303179, 0, 0, 0
CTRL, 20871989, 0.009883891, 0.0001880716, 0.006316798, 0.0001555443, 9.903716E-05
PRX, 20872091, 2, 0.74, 0, 0.71, 0, 3.6, 0, 2.32, 0, 0, 90, 0.71
IMU, 20872100, 0.0004266016, -0.0005698199, 0.001442203, 0.2414944, -0.06969054, -9.795873, 0, 0, 35.85849, 1, 1, 1000, 1000
IMU, 20910921, -0.0007089668, -0.0006568488, 0.0005848637, 0.2360406, -0.05640888, -9.804651, 0, 0, 35.85849, 1, 1, 1000, 1000
RFND, 20920682, 0.2, 25, 0, 0
IMU, 20951103, -0.0002382746, 0.0002272224, 0.0002351952, 0.2550726, -0.05930445, -9.793753, 0, 0, 35.85901, 1, 1, 1000, 1000
MAG, 20970823, 284, 492, 347, 0, 0, 0, 0, 0, 0, 1, 20970814
RFND, 20970853, 0.2, 25, 0, 0
BARO, 20970893, -0.2869607, 992.6992, 33.98, 0.1144797, 20970, 0, 33.65
CTUN, 20970906, 0, 0, 0, 0.6107036, 0.07173684, 0.07173684, -0.28, 0, 0.19, 0, 0, 0
ATT, 20970980, 0, 0.93, 0, 0.59, 359.95, 359.97, 0, 1
RATE, 20970987, -4.197276, 0.05234018, -0.01004503, -2.675478, -0.06844795, -0.005773345, 0.02090391, -0.01142286, 4.172437E-05, -142.4227, -0.8800507, 0
NKF1, 20970994, 0.93, 0.59, 359.96, -0.001322078, 0.02830965, -0.003516611, 0, 0, 0, -0.07173684, -0.01, 0, 0
NKF2, 20970994, 0, 0, 0, 0, 0, 0, 0, 0, 0, 0, 0, 0, 0
NKF3, 20970994, 0, 0, 0, 0, 0.04, 0, 0, 0, 0, 0, 0
NKF4, 20970994, 0, 0, 0, 0, 0, 2.004818E-06, 0, 0, 0, 19, 229, 0, 0
NKF5, 20970994, 0, 0, 0, 0, 0.2, 0.13, 0, 0.19, 0.5, 4.248499E-05, 0.0006499817, 0.001366786
NKQ1, 20970994, 0.9999207, 0.003599663, 0.01206922, -0.0003573008
AHR2, 20971132, 0.85, 0.59, 359.94, -0.28, 0, 0, 0.9999583, 0.007506197, 0.005168734, -0.0005521799
MOTB, 20971139, 1, 1, 0, 1
RCIN, 20971144, 0, 0, 0, 0, 0, 0, 0, 0, 0, 0, 0, 0, 0, 0
RCOU, 20971149, 1101, 1101, 1101, 1101, 0, 0, 0, 0, 0, 0, 0, 0, 0, 0
VIBE, 20971157, 0.02274713, 0.01985958, 0.02890654, 0, 0, 0
CTRL, 20971163, 0.00990289, 0.0002163352, 0.006316017, 0.0001547165, 8.307293E-05
PRX, 20971194, 2, 0.74, 0, 0.71, 0, 3.6, 0, 2.33, 0, 0, 90, 0.71
IMU, 20990722, -0.0008827863, -0.001024283, -6.310271E-05, 0.2479467, -0.05600451, -9.804286, 0, 0, 35.85983, 1, 1, 1000, 1000
RFND, 21020695, 0.2, 25, 0, 0
IMU, 21030906, -0.0004964315, -2.384948E-05, 5.765675E-05, 0.2368923, -0.06543858, -9.793462, 0, 0, 35.86045, 1, 1, 1000, 1000
MAG, 21070710, 286, 488, 339, 0, 0, 0, 0, 0, 0, 1, 21070701
RFND, 21070740, 0.2, 25, 0, 0
BARO, 21070779, -0.2250672, 992.6925, 33.98, -0.2296994, 21070, 0, 33.65
CTUN, 21070792, 0, 0, 0, 0.6107036, 0.07189847, 0.07189847, -0.22, 0, 0.19, 0, 0, 0
ATT, 21070867, 0, 0.93, 0, 0.59, 359.94, 359.97, 0, 1
RATE, 21070873, -4.190776, -0.0245495, -0.009692371, -2.670844, -0.02879692, -0.005861787, 0.02345127, 0.00260763, 0.0001125647, -164.3789, 0.2818108, 0
NKF1, 21070881, 0.93, 0.59, 359.96, -0.001111167, 0.02902404, -0.004058738, 0, 0, 0, -0.07189847, -0.01, 0, 0
NKF2, 21070881, 0, 0, 0, 0, 0, 0, 0, 0, 0, 0, 0, 0, 0
NKF3, 21070881, 0, 0, 0, 0, 0.04, 0, 0, 0, 0, 0, 0
NKF4, 21070881, 0, 0, 0, 0, 0, 2.233518E-06, 0, 0, 0, 19, 229, 0, 0
NKF5, 21070881, 0, 0, 0, 0, 0.2, 0.13, 0, 0.19, 0.5, 4.155134E-05, 0.0006270352, 0.001275423
NKQ1, 21070881, 0.9999208, 0.003586005, 0.01205996, -0.0003787207
AHR2, 21070924, 0.85, 0.59, 359.93, -0.22, 0, 0, 0.9999585, 0.007487539, 0.005160189, -0.0005735303
MOTB, 21070931, 1, 1, 0, 1
RCIN, 21070935, 0, 0, 0, 0, 0, 0, 0, 0, 0, 0, 0, 0, 0, 0
RCOU, 21070940, 1101, 1101, 1101, 1101, 0, 0, 0, 0, 0, 0, 0, 0, 0, 0
VIBE, 21070948, 0.01910898, 0.01978916, 0.034074, 0, 0, 0
CTRL, 21070955, 0.009890688, 0.0002012436, 0.006302458, 0.0001659356, 8.887302E-05
PRX, 21070987, 2, 0.74, 0, 0.71, 0, 3.6, 0, 2.37, 0, 0, 90, 0.71
IMU, 21070994, -0.0007017296, -0.0005455476, 3.876868E-05, 0.230002, -0.06953698, -9.797766, 0, 0, 35.86115, 1, 1, 1000, 1000
IMU, 21110830, 0.0007702082, -0.0007256516, -0.0006663406, 0.2405825, -0.067149, -9.797934, 0, 0, 35.86196, 1, 1, 1000, 1000
RFND, 21120681, 0.2, 25, 0, 0
IMU, 21150846, 0.0005221863, 0.0008102569, -0.0007972282, 0.2273668, -0.0667464, -9.79272, 0, 0, 35.86289, 1, 1, 1000, 1000
MAG, 21170698, 289, 489, 338, 0, 0, 0, 0, 0, 0, 1, 21170690
RFND, 21170728, 0.2, 25, 0, 0
BARO, 21170767, -0.2306939, 992.6931, 33.99, -0.2830953, 21170, 0, 33.65
CTUN, 21170779, 0, 0, 0, 0.6107036, 0.07200404, 0.07200404, -0.23, 0, 0.19, 0, 0, 0
ATT, 21170857, 0, 0.93, 0, 0.59, 359.94, 359.96, 0, 1
RATE, 21170863, -4.206245, 0.03053979, -0.009861139, -2.67473, -0.02307162, -0.005993054, 0.02380762, -0.03673916, 0.0001607915, -152.757, 0.2758026, 0
NKF1, 21170871, 0.93, 0.59, 359.95, -0.001366522, 0.03001696, -0.003771777, 0, 0, 0, -0.07200404, -0.01, 0, 0
NKF2, 21170871, 0, 0, 0, 0, 0, 0, 0, 0, 0, 0, 0, 0, 0
NKF3, 21170871, 0, 0, 0, 0, 0.04, 0, 0, 0, 0, 0, 0
NKF4, 21170871, 0, 0, 0, 0, 0, 2.580689E-06, 0, 0, 0, 19, 229, 0, 0
NKF5, 21170871, 0, 0, 0, 0, 0.2, 0.13, 0, 0.19, 0.5, 4.379337E-05, 0.0005742415, 0.001199265
NKQ1, 21170871, 0.9999206, 0.003617265, 0.01206614, -0.0004133905
AHR2, 21171495, 0.86, 0.59, 359.93, -0.23, 0, 0, 0.9999582, 0.007514154, 0.005167917, -0.0006085288
MOTB, 21171505, 1, 1, 0, 1
RCIN, 21171510, 0, 0, 0, 0, 0, 0, 0, 0, 0, 0, 0, 0, 0, 0
RCOU, 21171516, 1101, 1101, 1101, 1101, 0, 0, 0, 0, 0, 0, 0, 0, 0, 0
VIBE, 21171524, 0.01864846, 0.02003143, 0.03007909, 0, 0, 0
CTRL, 21171531, 0.009920619, 0.0001882728, 0.006305212, 0.0001706992, 0.000112613
PRX, 21171562, 2, 0.75, 0, 0.71, 0, 3.6, 0, 2.37, 0, 0, 90, 0.71
IMU, 21190852, 0.00135803, 0.001475367, -0.0005721898, 0.2482821, -0.06182639, -9.79104, 0, 0, 35.86385, 1, 1, 1000, 1000
RFND, 21220790, 0.2, 25, 0, 0
IMU, 21230894, 0.0004332326, -0.000872319, -5.732942E-05, 0.2443637, -0.06176963, -9.792554, 0, 0, 35.8646, 1, 1, 1000, 1000
EV, 21240293, 57
MAG, 21271273, 284, 491, 339, 0, 0, 0, 0, 0, 0, 1, 21271265
RFND, 21271303, 0.2, 25, 0, 0
BARO, 21271342, -0.1969338, 992.6898, 33.99, -0.04370828, 21271, 0, 33.65
CTUN, 21271354, 0, 0, 0, 0.6107036, 0.07213557, 0.07213557, -0.19, 0, 0.19, 0, 0, 0
ATT, 21271514, 0, 0.93, 0, 0.59, 359.94, 359.96, 0, 1
RATE, 21271521, -4.22121, 0.06064951, -0.01029671, -2.685224, 0.01947807, -0.006470224, 0.02197151, 0.01836775, 9.326781E-05, -150.5327, 0.2035141, 0
NKF1, 21271529, 0.93, 0.59, 359.95, -0.0009643064, 0.03095441, -0.003716858, 0, 0, 0, -0.07213557, -0.01, 0, 0
NKF2, 21271529, 0, 0, 0, 0, 0, 0, 0, 0, 0, 0, 0, 0, 0
NKF3, 21271529, 0, 0, 0, 0, 0.04, 0, 0, 0, 0, 0, 0
NKF4, 21271529, 0, 0, 0, 0, 0, 2.85685E-06, 0, 0, 0, 19, 229, 0, 0
NKF5, 21271529, 0, 0, 0, 0, 0.2, 0.13, 0, 0.19, 0.5, 4.685728E-05, 0.0005284353, 0.001172657
NKQ1, 21271529, 0.9999202, 0.003645851, 0.01208867, -0.0004101979
AHR2, 21271574, 0.86, 0.59, 359.93, -0.19, 0, 0, 0.9999579, 0.00753842, 0.00519257, -0.0006057334
MOTB, 21271581, 1, 1, 0, 1
RCIN, 21271585, 0, 0, 0, 0, 0, 0, 0, 0, 0, 0, 0, 0, 0, 0
RCOU, 21271590, 1107, 1107, 1107, 1107, 0, 0, 0, 0, 0, 0, 0, 0, 0, 0
VIBE, 21271599, 0.0208549, 0.01859444, 0.03006038, 0, 0, 0
CTRL, 21271605, 0.009947629, 0.000180983, 0.006329508, 0.0001946432, 0.0001194543
PRX, 21271636, 2, 0.74, 0, 0.71, 0, 3.6, 0, 2.26, 0, 0, 90, 0.71
IMU, 21271643, 0.0007851853, 0.0002969116, 0.0003138195, 0.229591, -0.06431805, -9.797031, 0, 0, 35.86509, 1, 1, 1000, 1000
IMU, 21310852, 4.056993E-05, 0.0005753899, 0.0002104398, 0.2261876, -0.06190436, -9.797839, 0, 0, 35.86517, 1, 1, 1000, 1000
RFND, 21320592, 0.2, 25, 0, 0
IMU, 21350813, 0.001353744, 0.0003807695, -0.000615714, 0.2384383, -0.05333293, -9.810332, 0, 0, 35.86609, 1, 1, 1000, 1000
MAG, 21370689, 288, 489, 344, 0, 0, 0, 0, 0, 0, 1, 21370681
RFND, 21370718, 0.2, 25, 0, 0
BARO, 21370757, -0.1969338, 992.6898, 33.99, 0.151217, 21370, 0, 33.65
CTUN, 21370770, 0, 0, 0, 0.6107036, 0.07225184, 0.07225184, -0.19, 0, 0.19, 0, 0, 0
ATT, 21370847, 0, 0.93, 0, 0.59, 359.94, 359.96, 0, 1
RATE, 21370853, -4.228618, 0.02815866, -0.009963974, -2.677986, -0.06170123, -0.005877028, 0.02195007, 0.05078058, 7.103124E-05, -201.7206, 1.852798, 0
NKF1, 21370860, 0.93, 0.59, 359.95, -0.001496107, 0.03222087, -0.004980756, 0, 0, 0, -0.07225184, -0.01, 0, 0
NKF2, 21370860, 0, 0, 0, 0, 0, 0, 0, 0, 0, 0, 0, 0, 0
NKF3, 21370860, 0, 0, 0, 0, 0.04, 0, 0, 0, 0, 0, 0
NKF4, 21370860, 0, 0, 0, 0, 0, 3.314177E-06, 0, 0, 0, 19, 229, 0, 0
NKF5, 21370860, 0, 0, 0, 0, 0.2, 0.13, 0, 0.19, 0.5, 4.552332E-05, 0.0005011365, 0.00103714
NKQ1, 21370860, 0.9999203, 0.003658949, 0.01207529, -0.0004082776
AHR2, 21370904, 0.86, 0.59, 359.93, -0.19, 0, 0, 0.999958, 0.007545774, 0.005178982, -0.0006039153
MOTB, 21370910, 1, 1, 0, 1
RCIN, 21370915, 0, 0, 0, 0, 0, 0, 0, 0, 0, 0, 0, 0, 0, 0
RCOU, 21370921, 1131, 1131, 1131, 1131, 0, 0, 0, 0, 0, 0, 0, 0, 0, 0
VIBE, 21370928, 0.01770399, 0.01800026, 0.02818936, 0, 0, 0
CTRL, 21370935, 0.009969758, 0.0001881145, 0.006319861, 0.0001971729, 0.0001099376
PRX, 21370965, 2, 0.74, 0, 0.72, 0, 3.6, 0, 2.26, 0, 0, 90, 0.72
IMU, 21391734, 0.001177996, -0.0004028531, 0.0009023258, 0.2463673, -0.05851272, -9.802457, 0, 0, 35.8673, 1, 1, 1000, 1000
RFND, 21421518, 0.2, 25, 0, 0
IMU, 21431093, -0.001684723, 0.001368305, -0.0001564014, 0.2327216, -0.06493923, -9.797455, 0, 0, 35.86808, 1, 1, 1000, 1000
MAG, 21478697, 287, 485, 346, 0, 0, 0, 0, 0, 0, 1, 21478688
RFND, 21478726, 0.2, 25, 0, 0
BARO, 21478768, -0.2250672, 992.6928, 33.98, 0.1649636, 21478, 0, 33.65
CTUN, 21478781, 0, 0, 0, 0.6107036, 0.07250335, 0.07250335, -0.22, 0, 0.19, 0, 0, 0
ATT, 21478859, 0, 0.93, 0, 0.59, 359.94, 359.96, 0, 1
RATE, 21478865, -4.227109, -0.02151725, -0.009730048, -2.686277, -0.01464705, -0.006295073, 0.02200674, -0.04802089, 0.0001593387, -226.2856, 1.408482, 0
NKF1, 21478873, 0.93, 0.59, 359.95, -0.001741439, 0.03273368, -0.005587297, 0, 0, 0, -0.07250335, -0.01, 0, 0
NKF2, 21478873, 0, 0, 0, 0, 0, 0, 0, 0, 0, 0, 0, 0, 0
NKF3, 21478873, 0, 0, 0, 0, 0.05, 0, 0, 0, 0, 0, 0
NKF4, 21478873, 0, 0, 0, 0, 0, 3.698691E-06, 0, 0, 0, 19, 229, 0, 0
NKF5, 21478873, 0, 0, 0, 0, 0.2, 0.13, 0, 0.19, 0.5, 4.921748E-05, 0.0004594431, 0.001026378
NKQ1, 21478873, 0.9999202, 0.003659206, 0.01208863, -0.0004390891
AHR2, 21478919, 0.86, 0.59, 359.93, -0.22, 0, 0, 0.9999579, 0.007539371, 0.005190878, -0.0006348714
MOTB, 21478926, 1, 1, 0, 1
RCIN, 21478931, 0, 0, 0, 0, 0, 0, 0, 0, 0, 0, 0, 0, 0, 0
RCOU, 21478936, 1155, 1155, 1155, 1155, 0, 0, 0, 0, 0, 0, 0, 0, 0, 0
VIBE, 21478944, 0.01988109, 0.01986961, 0.02927287, 0, 0, 0
CTRL, 21478951, 0.009974843, 0.0001919134, 0.006329027, 0.0001881747, 0.0001070339
PRX, 21479344, 2, 0.74, 0, 0.72, 0, 3.6, 0, 3.6, 0, 0, 90, 0.72
IMU, 21479353, -0.0006490139, -0.0002987596, -0.0008448923, 0.2337437, -0.07274721, -9.808917, 0, 0, 35.86908, 1, 1, 1000, 1000
IMU, 21520769, -0.000153668, -0.0006417985, 0.0008593094, 0.2299675, -0.05655181, -9.804094, 0, 0, 35.8699, 1, 1, 1000, 1000
RFND, 21529979, 0.2, 25, 0, 0
IMU, 21560099, -0.001215729, -0.0004251405, -0.0009734544, 0.234828, -0.04861102, -9.809772, 0, 0, 35.86989, 1, 1, 1000, 1000
MAG, 21580030, 281, 486, 335, 0, 0, 0, 0, 0, 0, 1, 21580021
RFND, 21580059, 0.2, 25, 0, 0
BARO, 21580099, -0.2194405, 992.6918, 33.99, 0.07350428, 21580, 0, 33.65
CTUN, 21580112, 0, 0, 0, 0.6107036, 0.07284064, 0.07284064, -0.21, 0, 0.19, 0, 0, 0
ATT, 21580276, 0, 0.93, 0, 0.59, 359.93, 359.96, 0, 1
RATE, 21580283, -4.224929, -0.01413687, -0.01005509, -2.682326, 0.06387879, -0.006749189, 0.02195967, -0.09893546, 0.0001606956, -264.7523, -0.06036758, 0
NKF1, 21580291, 0.93, 0.59, 359.95, -0.002118652, 0.03363833, -0.006537093, 0, 0, 0, -0.07284064, -0.01, 0, 0
NKF2, 21580291, 0, 0, 0, 0, 0, 0, 0, 0, 0, 0, 0, 0, 0
NKF3, 21580291, 0, 0, 0, 0, 0.05, 0, 0, 0, 0, 0, 0
NKF4, 21580291, 0, 0, 0, 0, 0, 4.194401E-06, 0, 0, 0, 19, 229, 0, 0
NKF5, 21580291, 0, 0, 0, 0, 0.2, 0.13, 0, 0.19, 0.5, 4.811507E-05, 0.0004429189, 0.0008831691
NKQ1, 21580291, 0.9999202, 0.003656438, 0.01207937, -0.00046261
AHR2, 21580348, 0.86, 0.59, 359.92, -0.21, 0, 0, 0.999958, 0.007531015, 0.005178084, -0.0006583849
MOTB, 21580357, 1, 1, 0, 1
RCIN, 21580362, 0, 0, 0, 0, 0, 0, 0, 0, 0, 0, 0, 0, 0, 0
RCOU, 21580367, 1179, 1179, 1179, 1179, 0, 0, 0, 0, 0, 0, 0, 0, 0, 0
VIBE, 21580375, 0.02917667, 0.03656925, 0.04949587, 0, 0, 0
CTRL, 21580382, 0.009968931, 0.0001928094, 0.00631218, 0.0001711677, 0.0001186088
PRX, 21580414, 2, 0.74, 0, 0.71, 0, 3.6, 0, 2.32, 0, 0, 90, 0.71
IMU, 21600067, -0.0001281502, 0.001309181, 0.002042111, 0.2256803, -0.06061864, -9.796196, 0, 0, 35.86967, 1, 1, 1000, 1000
RFND, 21630289, 0.2, 25, 0, 0
IMU, 21640074, -0.001694122, -0.0006450852, 0.01095346, 0.2502397, -0.06549847, -9.786243, 0, 0, 35.86928, 1, 1, 1000, 1000
MAG, 21680252, 289, 499, 337, 0, 0, 0, 0, 0, 0, 1, 21680243
RFND, 21680282, 0.2, 25, 0, 0
BARO, 21680323, -0.1575471, 992.685, 33.99, -0.007994181, 21680, 0, 33.65
CTUN, 21680351, 0, 0, 0, 0.6107036, 0.07315424, 0.07315424, -0.15, 0, 0.19, 0, 0, 0
ATT, 21680432, 0, 0.93, 0, 0.59, 359.94, 359.96, 0, 1
RATE, 21680438, -4.226847, -0.06540532, -0.008899443, -2.691114, 0.1343265, -0.006735513, 0.02205896, 0.1214152, 0.0002971605, -255.2503, -1.048756, 0
NKF1, 21680446, 0.93, 0.59, 359.95, -0.002349278, 0.0334868, -0.006302475, 0, 0, 0, -0.07315424, -0.01, 0, 0
NKF2, 21680446, 0, 0, 0, 0, 0, 0, 0, 0, 0, 0, 0, 0, 0
NKF3, 21680446, 0, 0, 0, 0, 0.05, 0, 0, 0, 0, 0, 0
NKF4, 21680446, 0, 0, 0, 0, 0, 4.7246E-06, 0, 0, 0, 19, 229, 0, 0
NKF5, 21680446, 0, 0, 0, 0, 0.2, 0.13, 0, 0.19, 0.5, 5.291758E-05, 0.0004089958, 0.0008885117
NKQ1, 21680446, 0.9999201, 0.003655041, 0.01210352, -0.000414361
AHR2, 21680490, 0.86, 0.59, 359.93, -0.15, 0, 0, 0.999958, 0.007526527, 0.005198627, -0.0006103013
MOTB, 21680498, 1, 1, 0, 1
RCIN, 21680502, 0, 0, 0, 0, 0, 0, 0, 0, 0, 0, 0, 0, 0, 0
RCOU, 21680507, 1203, 1203, 1203, 1203, 0, 0, 0, 0, 0, 0, 0, 0, 0, 0
VIBE, 21680515, 0.1335373, 0.2370404, 0.1570832, 0, 0, 0
CTRL, 21680522, 0.009989039, 0.0003145708, 0.006345925, 0.0002319054, 0.0001528241
PRX, 21680553, 2, 0.74, 0, 0.71, 0, 3.6, 0, 2.29, 0, 0, 90, 0.71
IMU, 21680559, -0.00141161, 0.002301787, 0.0021124, 0.2085526, -0.08294942, -9.784978, 0, 0, 35.87065, 1, 1, 1000, 1000
IMU, 21720485, 0.000135173, 0.001246839, -0.003747786, 0.2146866, -0.09563462, -9.8042, 0, 0, 35.87217, 1, 1, 1000, 1000
RFND, 21730020, 0.2, 25, 0, 0
IMU, 21760045, -0.003583763, -0.0002977236, 0.003376381, 0.2890371, -0.0248857, -9.783587, 0, 0, 35.87403, 1, 1, 1000, 1000
MAG, 21785536, 283, 493, 337, 0, 0, 0, 0, 0, 0, 1, 21785527
RFND, 21785567, 0.2, 25, 0, 0
BARO, 21785608, -0.1800538, 992.6874, 33.99, 0.03009697, 21785, 0, 33.65
CTUN, 21785622, 0, 0, 0, 0.6107036, 0.07347826, 0.07347826, -0.18, 0, 0.19, 0, 0, 0
ATT, 21785699, 0, 0.93, 0, 0.61, 359.95, 359.97, 0, 1
RATE, 21785706, -4.208235, -0.0861045, -0.009627367, -2.737589, 0.1004975, -0.006935952, 0.02237589, 0.6100531, -1.84398E-05, -208.2454, 0.4196167, 0
NKF1, 21785713, 0.93, 0.61, 359.96, -0.002623856, 0.0346829, -0.005141861, 0, 0, 0, -0.07347826, -0.01, 0, 0
NKF2, 21785713, 0, 0, 0, 0, 0, 0, 0, 0, 0, 0, 0, 0, 0
NKF3, 21785713, 0, 0, 0, 0, 0.05, 0, 0, 0, 0, 0, 0
NKF4, 21785713, 0, 0, 0, 0, 0, 5.2744E-06, 0, 0, 0, 19, 229, 0, 0
NKF5, 21785713, 0, 0, 0, 0, 0.2, 0.13, 0, 0.19, 0.5, 5.171766E-05, 0.0003775649, 0.0007403838
NKQ1, 21785713, 0.9999189, 0.003607325, 0.01220907, -0.0003290803
AHR2, 21785758, 0.85, 0.6, 359.94, -0.18, 0, 0, 0.9999579, 0.007476136, 0.005299713, -0.0005252897
MOTB, 21785764, 1, 1, 0, 1
RCIN, 21785769, 0, 0, 0, 0, 0, 0, 0, 0, 0, 0, 0, 0, 0, 0
RCOU, 21785774, 1237, 1233, 1221, 1249, 0, 0, 0, 0, 0, 0, 0, 0, 0, 0
VIBE, 21785782, 0.5190884, 0.4515508, 0.5403886, 0, 0, 0
CTRL, 21785788, 0.009927155, 0.0005037207, 0.006426506, 0.0004518006, 0.0001997455
PRX, 21785819, 2, 0.74, 0, 0.71, 0, 3.6, 0, 2.28, 0, 0, 90, 0.71
IMU, 21805620, -0.002296429, 0.0004289337, 0.00354905, 0.2254377, -0.04147731, -9.815298, 0, 0, 35.87607, 1, 1, 1000, 1000
RFND, 21835783, 0.2, 25, 0, 0
IMU, 21845432, 0.006468825, 0.007571479, -0.02258437, 0.1797513, -0.05660621, -9.843374, 0, 0, 35.87737, 1, 1, 1000, 1000
MAG, 21885521, 284, 490, 337, 0, 0, 0, 0, 0, 0, 1, 21885512
RFND, 21885551, 0.2, 25, 0, 0
BARO, 21885590, -0.1969338, 992.6895, 34, 0.1247931, 21885, 0, 33.65
CTUN, 21885602, 0, 0, 0, 0.6107036, 0.07371644, 0.07371644, -0.19, 0, 0.19, 0, 0, 0
DU32, 21885639, 7, 33611992
ATT, 21885734, 0, 0.92, 0, 0.62, 359.93, 359.95, 0, 1
RATE, 21885741, -4.175097, -0.1557186, -0.01006825, -2.800643, 0.02240028, -0.006004263, 0.02270966, 0.6414156, 0.0006743129, -235.6456, -0.1356125, 0
NKF1, 21885749, 0.92, 0.62, 359.94, -0.00311322, 0.03659172, -0.005818409, 0, 0, 0, -0.07371644, -0.01, 0, 0
NKF2, 21885749, 0, 0, 0, 0, 0, 0, 0, 0, 0, 0, 0, 0, 0
NKF3, 21885749, 0, 0, 0, 0, 0.06, 0, 0, 0, 0, 0, 0
NKF4, 21885749, 0, 0, 0, 0, 0, 5.944917E-06, 0, 0, 0, 19, 229, 0, 0
NKF5, 21885749, 0, 0, 0, 0, 0.2, 0.13, 0, 0.19, 0.5, 5.729822E-05, 0.0003504191, 0.0007981408
NKQ1, 21885749, 0.9999176, 0.003544109, 0.01233145, -0.0005016334
AHR2, 21885999, 0.84, 0.62, 359.92, -0.19, 0, 0, 0.9999576, 0.007409228, 0.005416253, -0.0006980889
MOTB, 21886006, 1, 1, 0, 1
RCIN, 21886010, 0, 0, 0, 0, 0, 0, 0, 0, 0, 0, 0, 0, 0, 0
RCOU, 21886016, 1239, 1232, 1221, 1248, 0, 0, 0, 0, 0, 0, 0, 0, 0, 0
VIBE, 21886025, 0.4345632, 0.4673952, 0.5880069, 0, 0, 0
CTRL, 21886032, 0.009846261, 0.0006898255, 0.006610347, 0.000579278, 0.0004252437
PRX, 21886063, 2, 0.74, 0, 0.72, 0, 3.6, 0, 2.28, 0, 0, 90, 0.72
IMU, 21886070, -0.002986401, 0.0003484597, 0.01118814, 0.2153485, -0.04491506, -9.794272, 0, 0, 35.87776, 1, 1, 1000, 1000
IMU, 21925043, -0.005230168, 0.00495622, 0.009082528, 0.273717, -0.02403379, -9.784348, 0, 0, 35.87769, 1, 1, 1000, 1000
RFND, 21935135, 0.2, 25, 0, 0
IMU, 21965251, 0.002943139, 0.005669519, -0.01249999, 0.2716922, -0.09666529, -9.828596, 0, 0, 35.87766, 1, 1, 1000, 1000
MAG, 21985162, 287, 495, 334, 0, 0, 0, 0, 0, 0, 1, 21985153
RFND, 21985243, 0.2, 25, 0, 0
BARO, 21985285, -0.2306939, 992.6933, 34, 0.08431002, 21985, 0, 33.65
CTUN, 21985297, 0, 0, 0, 0.6107036, 0.07404489, 0.07404489, -0.23, 0, 0.19, 0, 0, 0
ATT, 21985392, 0, 0.91, 0, 0.64, 359.94, 359.96, 0, 1
RATE, 21985400, -4.136914, -0.4505807, -0.006736746, -2.871971, 0.1447727, -0.007018799, 0.02307474, 0.6427218, 5.921219E-05, -300.2, -3.315067, 0
NKF1, 21985407, 0.91, 0.64, 359.95, -0.002975188, 0.03816575, -0.007412345, 0, 0, 0, -0.07404489, -0.01, 0, 0
NKF2, 21985407, 0, 0, 0, 0, 0, 0, 0, 0, 0, 0, 0, 0, 0
NKF3, 21985407, 0, 0, 0, 0, 0.07, 0, 0, 0, 0, 0, 0
NKF4, 21985407, 0, 0, 0, 0, 0, 6.471221E-06, 0, 0, 0, 19, 229, 0, 0
NKF5, 21985407, 0, 0, 0, 0, 0.2, 0.13, 0, 0.19, 0.5, 6.344788E-05, 0.0004812409, 0.001242336
NKQ1, 21985407, 0.9999161, 0.003469241, 0.01247024, -0.0004226089
AHR2, 21985451, 0.83, 0.63, 359.93, -0.23, 0, 0, 0.9999575, 0.007312049, 0.005577928, -0.0006196335
MOTB, 21985458, 1, 1, 0, 1
RCIN, 21985462, 0, 0, 0, 0, 0, 0, 0, 0, 0, 0, 0, 0, 0, 0
RCOU, 21985467, 1233, 1233, 1221, 1244, 0, 0, 0, 0, 0, 0, 0, 0, 0, 0
VIBE, 21985475, 0.3566482, 0.4228319, 0.5089483, 0, 0, 0
CTRL, 21985482, 0.009851745, 0.0008993879, 0.006773388, 0.0006554727, 0.0004367096
PRX, 21985513, 2, 0.74, 0, 0.71, 0, 3.6, 0, 2.35, 0, 0, 90, 0.71
IMU, 22005032, 0.007703881, -0.0006028033, -0.01146715, 0.1554566, -0.1199045, -9.84546, 0, 0, 35.87864, 1, 1, 1000, 1000
RFND, 22043830, 0.2, 25, 0, 0
IMU, 22054779, -0.007026763, 0.003284532, 0.02138408, 0.154362, -0.02585218, -9.85471, 0, 0, 35.88161, 1, 1, 998, 998
MAG, 22093904, 292, 497, 338, 0, 0, 0, 0, 0, 0, 1, 22093895
RFND, 22093934, 0.2, 25, 0, 0
BARO, 22093974, -0.1294136, 992.6819, 34.01, -0.04477114, 22093, 0, 33.65
CTUN, 22093986, 0, 0, 0, 0.6107036, 0.07429887, 0.07429887, -0.12, 0, 0.19, 0, 0, 0
ATT, 22094063, 0, 0.92, 0, 0.63, 359.91, 359.93, 0, 1
RATE, 22094069, -4.171227, -0.4969148, -0.005221538, -2.873397, -0.7257046, -0.004636085, 0.02325338, 0.3505542, 0.0007460876, -225.0969, -4.875088, 0
NKF1, 22094167, 0.92, 0.63, 359.92, -0.004165607, 0.0369748, -0.005557947, 0, 0, 0, -0.07429887, -0.01, 0, 0
NKF2, 22094167, 0, 0, 0, 0, 0, 0, 0, 0, 0, 0, 0, 0, 0
NKF3, 22094167, 0, 0, 0, 0, 0.07, 0, 0, 0, 0, 0, 0
NKF4, 22094167, 0, 0, 0, 0, 0, 7.332202E-06, 0, 0, 0, 19, 229, 0, 0
NKF5, 22094167, 0, 0, 0, 0, 0.2, 0.13, 0, 0.19, 0.5, 6.079628E-05, 0.0003167705, 0.0007793045
NKQ1, 22094167, 0.9999158, 0.00354477, 0.01246234, -0.0007090968
AHR2, 22094215, 0.84, 0.64, 359.9, -0.12, 0, 0, 0.9999568, 0.007354619, 0.005601752, -0.0009070779
MOTB, 22094222, 1, 1, 0, 1
RCIN, 22094226, 0, 0, 0, 0, 0, 0, 0, 0, 0, 0, 0, 0, 0, 0
RCOU, 22094232, 1231, 1230, 1221, 1238, 0, 0, 0, 0, 0, 0, 0, 0, 0, 0
VIBE, 22094240, 0.3526021, 0.4268541, 0.477982, 0, 0, 0
CTRL, 22094247, 0.00990405, 0.00174, 0.006798008, 0.001412537, 0.0004544412
PRX, 22094278, 2, 0.74, 0, 0.71, 0, 3.6, 0, 2.35, 0, 0, 90, 0.71
IMU, 22094285, -0.008937591, -0.01270792, 0.006111735, 0.07056607, -0.1690814, -9.749717, 0, 0, 35.88437, 1, 1, 998, 998
IMU, 22134022, 0.01286745, -0.01329924, 0.01304781, -0.01339865, -0.1911986, -9.755783, 0, 0, 35.88789, 1, 1, 998, 998
RFND, 22144375, 0.2, 25, 0, 0
IMU, 22173959, 0.003708684, 0.01757217, 0.001474749, 0.1140743, -0.1740206, -9.818789, 0, 0, 35.89111, 1, 1, 998, 998
MAG, 22193812, 290, 493, 340, 0, 0, 0, 0, 0, 0, 1, 22193803
RFND, 22193841, 0.2, 25, 0, 0
BARO, 22193881, -0.1125336, 992.6805, 34.01, -0.01236545, 22193, 0, 33.65
CTUN, 22193894, 0, 0, 0, 0.6107036, 0.07450552, 0.07450552, -0.11, 0, 0.19, 0, 0, 0
ATT, 22193970, 0, 0.93, 0, 0.62, 359.91, 359.93, 0, 1
RATE, 22193977, -4.190173, -0.02696911, -0.007298413, -2.795082, -1.52341, 0.005689679, 0.02270728, 0.04074498, 0.0001768262, -215.6953, -8.580208, 0
NKF1, 22193984, 0.93, 0.62, 359.92, -0.004177178, 0.03914618, -0.005325811, 0, 0, 0, -0.07450552, -0.01, 0, 0
NKF2, 22193984, 0, 0, 0, 0, 0, 0, 0, 0, 0, 0, 0, 0, 0
NKF3, 22193984, 0, 0, 0, 0, 0.07, 0, 0, 0, 0, 0, 0
NKF4, 22193984, 0, 0, 0, 0, 0, 8.061449E-06, 0, 0, 0, 19, 229, 0, 0
NKF5, 22193984, 0, 0, 0, 0, 0.2, 0.13, 0, 0.19, 0.5, 6.775675E-05, 0.000480266, 0.001297656
NKQ1, 22193984, 0.9999177, 0.00358899, 0.01230165, -0.0006847032
AHR2, 22194026, 0.84, 0.62, 359.9, -0.11, 0, 0, 0.9999574, 0.007383284, 0.005461347, -0.0008824525
MOTB, 22194033, 1, 1, 0, 1
RCIN, 22194037, 0, 0, 0, 0, 0, 0, 0, 0, 0, 0, 0, 0, 0, 0
RCOU, 22194042, 1243, 1221, 1230, 1233, 0, 0, 0, 0, 0, 0, 0, 0, 0, 0
VIBE, 22194050, 0.441854, 0.4477423, 0.5111557, 0, 0, 0
CTRL, 22194056, 0.009923191, 0.002142542, 0.006838643, 0.002561219, 0.0004452951
PRX, 22194180, 2, 0.74, 0, 0.71, 0, 0.59, 0, 3.6, 0, 0, 180, 0.59
IMU, 22213904, -0.005833494, 0.01032634, -0.004594364, 0.4256407, -0.04618848, -9.845937, 0, 0, 35.89232, 1, 1, 998, 998
RFND, 22244554, 0.2, 25, 0, 0
IMU, 22254373, 0.002192503, -0.0182686, -0.007401723, 0.368764, 0.06736043, -9.754741, 0, 0, 35.89131, 1, 1, 998, 998
MAG, 22293901, 292, 490, 341, 0, 0, 0, 0, 0, 0, 1, 22293892
RFND, 22293931, 0.2, 25, 0, 0
BARO, 22293970, -0.2532006, 992.696, 34.01, 0.15493, 22293, 0, 33.65
CTUN, 22293985, 0, 0, 0, 0.6107036, 0.07455183, 0.07455183, -0.25, 0, 0.19, 0, 0, 0
ATT, 22294063, 0, 0.92, 0, 0.63, 359.91, 359.94, 0, 1
RATE, 22294069, -4.184921, -0.1549161, -0.008354963, -2.843673, 0.1805351, -0.005008598, 0.02308995, 0.3353447, 0.0002274536, -138.5651, -6.958961, 0
NKF1, 22294168, 0.92, 0.63, 359.93, -0.005191237, 0.03884691, -0.003421362, 0, 0, 0, -0.07455183, -0.01, 0, 0
NKF2, 22294168, 0, 0, 0, 0, 0, 0, 0, 0, 0, 0, 0, 0, 0
NKF3, 22294168, 0, 0, 0, 0, 0.07, 0, 0, 0, 0, 0, 0
NKF4, 22294168, 0, 0, 0, 0, 0, 8.937086E-06, 0, 0, 0, 19, 229, 0, 0
NKF5, 22294168, 0, 0, 0, 0, 0.2, 0.13, 0, 0.19, 0.5, 6.430542E-05, 0.0002798934, 0.0007396752
NKQ1, 22294168, 0.9999165, 0.003571154, 0.01240479, -0.0006342643
AHR2, 22294217, 0.84, 0.64, 359.9, -0.25, 0, 0, 0.9999571, 0.007352743, 0.00558318, -0.0008327328
MOTB, 22294224, 1, 1, 0, 1
RCIN, 22294228, 0, 0, 0, 0, 0, 0, 0, 0, 0, 0, 0, 0, 0, 0
RCOU, 22294233, 1236, 1230, 1221, 1243, 0, 0, 0, 0, 0, 0, 0, 0, 0, 0
VIBE, 22294241, 0.4917431, 0.5381535, 0.6385555, 0, 0, 0
CTRL, 22294248, 0.009895051, 0.001973681, 0.006864199, 0.003178766, 0.0003820321
PRX, 22294279, 2, 0.74, 0, 0.71, 0, 0.59, 0, 3.6, 0, 0, 180, 0.59
IMU, 22294285, -0.002970494, 0.00310854, 0.005846214, 0.07065347, -0.05832808, -9.729561, 0, 0, 35.88906, 1, 1, 998, 998
IMU, 22333994, -0.003314779, 0.007858475, 0.00786164, 0.2960587, -0.1025922, -9.814029, 0, 0, 35.88565, 1, 1, 998, 998
RFND, 22343914, 0.2, 25, 0, 0
IMU, 22373898, 0.005591912, -0.01386595, -0.003802222, 0.2201121, -0.04140327, -9.776977, 0, 0, 35.87945, 1, 1, 998, 998
MAG, 22393889, 292, 494, 345, 0, 0, 0, 0, 0, 0, 1, 22393880
RFND, 22393918, 0.2, 25, 0, 0
BARO, 22393957, -0.2532006, 992.6959, 33.99, 0.08601241, 22393, 0, 33.65
CTUN, 22393970, 0, 0, 0, 0.6107036, 0.07433278, 0.07433278, -0.25, 0, 0.19, 0, 0, 0
ATT, 22394044, 0, 0.92, 0, 0.63, 359.91, 359.94, 0, 1
RATE, 22394050, -4.15273, -0.3239097, -0.007739877, -2.855978, 0.5077462, -0.01060938, 0.02300717, 0.2562161, 2.525428E-06, -154.7748, 4.099846, 0
NKF1, 22394058, 0.92, 0.63, 359.93, -0.001643069, 0.04306422, -0.0038216, 0, 0, 0, -0.07433278, -0.01, 0, 0
NKF2, 22394058, 0, 0, 0, 0, 0, 0, 0, 0, 0, 0, 0, 0, 0
NKF3, 22394058, 0, 0, 0, 0, 0.08, 0, 0, 0, 0, 0, 0
NKF4, 22394058, 0, 0, 0, 0, 0, 9.842584E-06, 0, 0, 0, 19, 229, 0, 0
NKF5, 22394058, 0, 0, 0, 0, 0.2, 0.13, 0, 0.19, 0.5, 7.188232E-05, 0.0004625127, 0.001360223
NKQ1, 22394058, 0.9999164, 0.003510751, 0.0124263, -0.0006412645
AHR2, 22394195, 0.83, 0.64, 359.9, -0.25, 0, 0, 0.9999576, 0.007279777, 0.00559076, -0.0008394922
MOTB, 22394202, 1, 1, 0, 1
RCIN, 22394206, 0, 0, 0, 0, 0, 0, 0, 0, 0, 0, 0, 0, 0, 0
RCOU, 22394212, 1234, 1239, 1221, 1251, 0, 0, 0, 0, 0, 0, 0, 0, 0, 0
VIBE, 22394220, 0.5314471, 0.6177353, 0.6005501, 0, 0, 0
CTRL, 22394226, 0.009858235, 0.001870724, 0.006803476, 0.003123201, 0.0003175537
