FMT, 128, 89, FMT, BBnNZ, Type,Length,Name,Format,Columns
FMT, 129, 31, PARM, QNf, TimeUS,Name,Value
FMT, 130, 46, GPS, QBIHBcLLefffB, TimeUS,Status,GMS,GWk,NSats,HDop,Lat,Lng,Alt,Spd,GCrs,VZ,U
FMT, 131, 46, GPS2, QBIHBcLLefffB, TimeUS,Status,GMS,GWk,NSats,HDop,Lat,Lng,Alt,Spd,GCrs,VZ,U
FMT, 132, 46, GPSB, QBIHBcLLefffB, TimeUS,Status,GMS,GWk,NSats,HDop,Lat,Lng,Alt,Spd,GCrs,VZ,U
FMT, 193, 24, GPA, QCCCCBI, TimeUS,VDop,HAcc,VAcc,SAcc,VV,SMS
FMT, 194, 24, GPA2, QCCCCBI, TimeUS,VDop,HAcc,VAcc,SAcc,VV,SMS
FMT, 195, 24, GPAB, QCCCCBI, TimeUS,VDop,HAcc,VAcc,SAcc,VV,SMS
FMT, 133, 53, IMU, QffffffIIfBBHH, TimeUS,GyrX,GyrY,GyrZ,AccX,AccY,AccZ,EG,EA,T,GH,AH,GHz,AHz
FMT, 134, 75, MSG, QZ, TimeUS,Message
FMT, 135, 39, RCIN, QHHHHHHHHHHHHHH, TimeUS,C1,C2,C3,C4,C5,C6,C7,C8,C9,C10,C11,C12,C13,C14
FMT, 136, 39, RCOU, QHHHHHHHHHHHHHH, TimeUS,C1,C2,C3,C4,C5,C6,C7,C8,C9,C10,C11,C12,C13,C14
FMT, 137, 15, RSSI, Qf, TimeUS,RXRSSI
FMT, 139, 37, BARO, QffcfIff, TimeUS,Alt,Press,Temp,CRt,SMS,Offset,GndTemp
FMT, 140, 22, POWR, QffHB, TimeUS,Vcc,VServo,Flags,Safety
FMT, 143, 45, CMD, QHHHfffffff, TimeUS,CTot,CNum,CId,Prm1,Prm2,Prm3,Prm4,Lat,Lng,Alt
FMT, 144, 20, RAD, QBBBBBHH, TimeUS,RSSI,RemRSSI,TxBuf,Noise,RemNoise,RxErrors,Fixed
FMT, 146, 43, CAM, QIHLLeeeccC, TimeUS,GPSTime,GPSWeek,Lat,Lng,Alt,RelAlt,GPSAlt,Roll,Pitch,Yaw
FMT, 232, 43, TRIG, QIHLLeeeccC, TimeUS,GPSTime,GPSWeek,Lat,Lng,Alt,RelAlt,GPSAlt,Roll,Pitch,Yaw
FMT, 162, 30, ARSP, QffcffB, TimeUS,Airspeed,DiffPress,Temp,RawPress,Offset,U
FMT, 164, 45, CURR, QfffcHHHHHHHHHH, TimeUS,Volt,Curr,CurrTot,Temp,V1,V2,V3,V4,V5,V6,V7,V8,V9,V10
FMT, 165, 45, CUR2, QfffcHHHHHHHHHH, TimeUS,Volt,Curr,CurrTot,Temp,V1,V2,V3,V4,V5,V6,V7,V8,V9,V10
FMT, 163, 27, ATT, QccccCCCC, TimeUS,DesRoll,Roll,DesPitch,Pitch,DesYaw,Yaw,ErrRP,ErrYaw
FMT, 166, 34, MAG, QhhhhhhhhhBI, TimeUS,MagX,MagY,MagZ,OfsX,OfsY,OfsZ,MOfsX,MOfsY,MOfsZ,Health,S
FMT, 169, 14, MODE, QMBB, TimeUS,Mode,ModeNum,Rsn
FMT, 196, 17, RFND, QCBCB, TimeUS,Dist1,Orient1,Dist2,Orient2
FMT, 223, 33, DMS, IIIIIBBBBBBBBBB, TimeMS,N,Dp,RT,RS,Er,Fa,Fmn,Fmx,Pa,Pmn,Pmx,Sa,Smn,Smx
FMT, 240, 41, BCN, QBBfffffff, TimeUS,Health,Cnt,D0,D1,D2,D3,PosX,PosY,PosZ
FMT, 138, 53, IMU2, QffffffIIfBBHH, TimeUS,GyrX,GyrY,GyrZ,AccX,AccY,AccZ,EG,EA,T,GH,AH,GHz,AHz
FMT, 147, 53, IMU3, QffffffIIfBBHH, TimeUS,GyrX,GyrY,GyrZ,AccX,AccY,AccZ,EG,EA,T,GH,AH,GHz,AHz
FMT, 141, 45, AHR2, QccCfLLffff, TimeUS,Roll,Pitch,Yaw,Alt,Lat,Lng,Q1,Q2,Q3,Q4
FMT, 180, 31, POS, QLLfff, TimeUS,Lat,Lng,Alt,RelHomeAlt,RelOriginAlt
FMT, 142, 45, SIM, QccCfLLffff, TimeUS,Roll,Pitch,Yaw,Alt,Lat,Lng,Q1,Q2,Q3,Q4
FMT, 198, 51, NKF1, QccCfffffffccc, TimeUS,Roll,Pitch,Yaw,VN,VE,VD,dPD,PN,PE,PD,GX,GY,GZ
FMT, 199, 35, NKF2, QbccccchhhhhhB, TimeUS,AZbias,GSX,GSY,GSZ,VWN,VWE,MN,ME,MD,MX,MY,MZ,MI
FMT, 200, 33, NKF3, Qcccccchhhcc, TimeUS,IVN,IVE,IVD,IPN,IPE,IPD,IMX,IMY,IMZ,IYAW,IVT
FMT, 201, 35, NKF4, QcccccfbbHBHHb, TimeUS,SV,SP,SH,SM,SVT,errRP,OFN,OFE,FS,TS,SS,GPS,PI
FMT, 202, 40, NKF5, QBhhhcccCCfff, TimeUS,NI,FIX,FIY,AFI,HAGL,offset,RI,rng,Herr,eAng,eVel,ePos
FMT, 203, 51, NKF6, QccCfffffffccc, TimeUS,Roll,Pitch,Yaw,VN,VE,VD,dPD,PN,PE,PD,GX,GY,GZ
FMT, 204, 35, NKF7, QbccccchhhhhhB, TimeUS,AZbias,GSX,GSY,GSZ,VWN,VWE,MN,ME,MD,MX,MY,MZ,MI
FMT, 205, 33, NKF8, Qcccccchhhcc, TimeUS,IVN,IVE,IVD,IPN,IPE,IPD,IMX,IMY,IMZ,IYAW,IVT
FMT, 206, 35, NKF9, QcccccfbbHBHHb, TimeUS,SV,SP,SH,SM,SVT,errRP,OFN,OFE,FS,TS,SS,GPS,PI
FMT, 207, 36, NKF0, QBccCCcccccccc, TimeUS,ID,rng,innov,SIV,TR,BPN,BPE,BPD,OFH,OFL,OFN,OFE,OFD
FMT, 208, 27, NKQ1, Qffff, TimeUS,Q1,Q2,Q3,Q4
FMT, 209, 27, NKQ2, Qffff, TimeUS,Q1,Q2,Q3,Q4
FMT, 210, 51, XKF1, QccCfffffffccc, TimeUS,Roll,Pitch,Yaw,VN,VE,VD,dPD,PN,PE,PD,GX,GY,GZ
FMT, 211, 34, XKF2, QccccchhhhhhB, TimeUS,AX,AY,AZ,VWN,VWE,MN,ME,MD,MX,MY,MZ,MI
FMT, 212, 33, XKF3, Qcccccchhhcc, TimeUS,IVN,IVE,IVD,IPN,IPE,IPD,IMX,IMY,IMZ,IYAW,IVT
FMT, 213, 35, XKF4, QcccccfbbHBHHb, TimeUS,SV,SP,SH,SM,SVT,errRP,OFN,OFE,FS,TS,SS,GPS,PI
FMT, 214, 40, XKF5, QBhhhcccCCfff, TimeUS,NI,FIX,FIY,AFI,HAGL,offset,RI,rng,Herr,eAng,eVel,ePos
FMT, 215, 51, XKF6, QccCfffffffccc, TimeUS,Roll,Pitch,Yaw,VN,VE,VD,dPD,PN,PE,PD,GX,GY,GZ
FMT, 216, 34, XKF7, QccccchhhhhhB, TimeUS,AX,AY,AZ,VWN,VWE,MN,ME,MD,MX,MY,MZ,MI
FMT, 217, 33, XKF8, Qcccccchhhcc, TimeUS,IVN,IVE,IVD,IPN,IPE,IPD,IMX,IMY,IMZ,IYAW,IVT
FMT, 218, 35, XKF9, QcccccfbbHBHHb, TimeUS,SV,SP,SH,SM,SVT,errRP,OFN,OFE,FS,TS,SS,GPS,PI
FMT, 219, 36, XKF0, QBccCCcccccccc, TimeUS,ID,rng,innov,SIV,TR,BPN,BPE,BPD,OFH,OFL,OFN,OFE,OFD
FMT, 220, 27, XKQ1, Qffff, TimeUS,Q1,Q2,Q3,Q4
FMT, 221, 27, XKQ2, Qffff, TimeUS,Q1,Q2,Q3,Q4
FMT, 222, 35, XKFD, Qffffff, TimeUS,IX,IY,IZ,IVX,IVY,IVZ
FMT, 148, 34, TERR, QBLLHffHH, TimeUS,Status,Lat,Lng,Spacing,TerrH,CHeight,Pending,Loaded
FMT, 149, 18, UBX1, QBHBBH, TimeUS,Instance,noisePerMS,jamInd,aPower,agcCnt
FMT, 150, 16, UBX2, QBbBbB, TimeUS,Instance,ofsI,magI,ofsQ,magQ
FMT, 151, 18, UBY1, QBHBBH, TimeUS,Instance,noisePerMS,jamInd,aPower,agcCnt
FMT, 152, 16, UBY2, QBbBbB, TimeUS,Instance,ofsI,magI,ofsQ,magQ
FMT, 170, 42, GRAW, QIHBBddfBbB, TimeUS,WkMS,Week,numSV,sv,cpMes,prMes,doMes,mesQI,cno,lli
FMT, 171, 24, GRXH, QdHbBB, TimeUS,rcvTime,week,leapS,numMeas,recStat
FMT, 172, 41, GRXS, QddfBBBHBBBBB, TimeUS,prMes,cpMes,doMes,gnss,sv,freq,lock,cno,prD,cpD,doD,trk
FMT, 173, 63, SBFE, QIHBBdddfffff, TimeUS,TOW,WN,Mode,Err,Lat,Lng,Height,Undul,Vn,Ve,Vu,COG
FMT, 153, 19, ESC1, Qcccc, TimeUS,RPM,Volt,Curr,Temp
FMT, 154, 19, ESC2, Qcccc, TimeUS,RPM,Volt,Curr,Temp
FMT, 155, 19, ESC3, Qcccc, TimeUS,RPM,Volt,Curr,Temp
FMT, 156, 19, ESC4, Qcccc, TimeUS,RPM,Volt,Curr,Temp
FMT, 157, 19, ESC5, Qcccc, TimeUS,RPM,Volt,Curr,Temp
FMT, 158, 19, ESC6, Qcccc, TimeUS,RPM,Volt,Curr,Temp
FMT, 159, 19, ESC7, Qcccc, TimeUS,RPM,Volt,Curr,Temp
FMT, 160, 19, ESC8, Qcccc, TimeUS,RPM,Volt,Curr,Temp
FMT, 167, 34, MAG2, QhhhhhhhhhBI, TimeUS,MagX,MagY,MagZ,OfsX,OfsY,OfsZ,MOfsX,MOfsY,MOfsZ,Health,S
FMT, 168, 34, MAG3, QhhhhhhhhhBI, TimeUS,MagX,MagY,MagZ,OfsX,OfsY,OfsZ,MOfsX,MOfsY,MOfsZ,Health,S
FMT, 174, 31, ACC1, QQfff, TimeUS,SampleUS,AccX,AccY,AccZ
FMT, 175, 31, ACC2, QQfff, TimeUS,SampleUS,AccX,AccY,AccZ
FMT, 176, 31, ACC3, QQfff, TimeUS,SampleUS,AccX,AccY,AccZ
FMT, 177, 31, GYR1, QQfff, TimeUS,SampleUS,GyrX,GyrY,GyrZ
FMT, 178, 31, GYR2, QQfff, TimeUS,SampleUS,GyrX,GyrY,GyrZ
FMT, 179, 31, GYR3, QQfff, TimeUS,SampleUS,GyrX,GyrY,GyrZ
FMT, 181, 35, PIDR, Qffffff, TimeUS,Des,P,I,D,FF,AFF
FMT, 182, 35, PIDP, Qffffff, TimeUS,Des,P,I,D,FF,AFF
FMT, 183, 35, PIDY, Qffffff, TimeUS,Des,P,I,D,FF,AFF
FMT, 184, 35, PIDA, Qffffff, TimeUS,Des,P,I,D,FF,AFF
FMT, 185, 35, PIDS, Qffffff, TimeUS,Des,P,I,D,FF,AFF
FMT, 186, 35, PIDL, Qffffff, TimeUS,Des,P,I,D,FF,AFF
FMT, 161, 37, BAR2, QffcfIff, TimeUS,Alt,Press,Temp,CRt,SMS,Offset,GndTemp
FMT, 197, 37, BAR3, QffcfIff, TimeUS,Alt,Press,Temp,CRt,SMS,Offset,GndTemp
FMT, 187, 35, VIBE, QfffIII, TimeUS,VibeX,VibeY,VibeZ,Clip0,Clip1,Clip2
FMT, 188, 47, IMT, Qfffffffff, TimeUS,DelT,DelvT,DelaT,DelAX,DelAY,DelAZ,DelVX,DelVY,DelVZ
FMT, 189, 47, IMT2, Qfffffffff, TimeUS,DelT,DelvT,DelaT,DelAX,DelAY,DelAZ,DelVX,DelVY,DelVZ
FMT, 190, 47, IMT3, Qfffffffff, TimeUS,DelT,DelvT,DelaT,DelAX,DelAY,DelAZ,DelVX,DelVY,DelVZ
FMT, 191, 24, ORGN, QBLLe, TimeUS,Type,Lat,Lng,Alt
FMT, 192, 19, RPM, Qff, TimeUS,rpm1,rpm2
FMT, 233, 47, GMB1, Iffffffffff, TimeMS,dt,dax,day,daz,dvx,dvy,dvz,jx,jy,jz
FMT, 234, 44, GMB2, IBfffffffff, TimeMS,es,ex,ey,ez,rx,ry,rz,tx,ty,tz
FMT, 235, 13, GMB3, Ihhh, TimeMS,rl_torque_cmd,el_torque_cmd,az_torque_cmd
FMT, 236, 59, RATE, Qffffffffffff, TimeUS,RDes,R,ROut,PDes,P,POut,YDes,Y,YOut,ADes,A,AOut
FMT, 237, 23, RALY, QBBLLh, TimeUS,Tot,Seq,Lat,Lng,Alt
FMT, 238, 43, VISO, Qffffffff, TimeUS,dt,AngDX,AngDY,AngDZ,PosDX,PosDY,PosDZ,conf
FMT, 224, 23, SBPH, QIII, TimeUS,CrcError,LastInject,IARhyp
FMT, 229, 80, SBR1, QHHBZ, TimeUS,msg_type,sender_id,msg_len,d1
FMT, 230, 205, SBR2, QHZZZ, TimeUS,msg_type,d2,d3,d4
FMT, 25, 41, ATUN, QBBfffffff, TimeUS,Axis,TuneStep,Targ,Min,Max,RP,RD,SP,ddt
FMT, 26, 19, ATDE, Qff, TimeUS,Angle,Rate
FMT, 31, 22, PTUN, QBfHHH, TimeUS,Param,TunVal,CtrlIn,TunLo,TunHi
FMT, 12, 28, OF, QBffff, TimeUS,Qual,flowX,flowY,bodyX,bodyY
FMT, 5, 51, NTUN, Qffffffffff, TimeUS,DPosX,DPosY,PosX,PosY,DVelX,DVelY,VelX,VelY,DAccX,DAccY
FMT, 4, 51, CTUN, Qffffffeccfhh, TimeUS,ThI,ABst,ThO,ThH,DAlt,Alt,BAlt,DSAlt,SAlt,TAlt,DCRt,CRt
FMT, 6, 32, PM, QHHIhBHII, TimeUS,NLon,NLoop,MaxT,PMT,I2CErr,INSErr,LogDrop,Mem
FMT, 30, 27, MOTB, Qffff, TimeUS,LiftMax,BatVolt,BatRes,ThLimit
FMT, 13, 12, EV, QB, TimeUS,Id
FMT, 20, 14, D16, QBh, TimeUS,Id,Value
FMT, 21, 14, DU16, QBH, TimeUS,Id,Value
FMT, 22, 16, D32, QBi, TimeUS,Id,Value
FMT, 23, 16, DU32, QBI, TimeUS,Id,Value
FMT, 24, 16, DFLT, QBf, TimeUS,Id,Value
FMT, 19, 13, ERR, QBB, TimeUS,Subsys,ECode
FMT, 32, 19, HELI, Qff, TimeUS,DRRPM,ERRPM
FMT, 33, 29, PL, QBBffff, TimeUS,Heal,TAcq,pX,pY,vX,vY
FMT, 34, 36, GUID, QBffffff, TimeUS,Type,pX,pY,pZ,vX,vY,vZ
FMT, 35, 32, THRO, QBffffbbbb, TimeUS,Stage,Vel,VelZ,Acc,AccEfZ,Throw,AttOk,HgtOk,PosOk
FMT, 36, 56, PRX, QBfffffffffff, TimeUS,Health,D0,D45,D90,D135,D180,D225,D270,D315,DUp,CAn,CDis
MODE, 208477235, 100, 100, 2
FMT, 254, 47, NKT1, QIffffffff, TimeUS,Cnt,IMUMin,IMUMax,EKFMin,EKFMax,AngMin,AngMax,VelMin,VelM
FMT, 253, 31, CTRL, Qfffff, TimeUS,RMSRollP,RMSRollD,RMSPitchP,RMSPitchD,RMSYaw
MSG, 208635974, APM:Copter V3.5.7 (38483450)
MSG, 208635979, New mission
MSG, 208635991, Frame: QUAD
MODE, 208635995, Autonomous, 100, 2
MAG, 208638099, 326, 509, 222, 0, 0, 0, 0, 0, 0, 1, 208638091
RFND, 208638131, 0.2, 25, 0, 0
BARO, 208638164, -1.340832, 992.6523, 35.48, -0.1788883, 208638, 0, 32.75
CTUN, 208638177, 0, 0, 0, 0.5890791, 0.08178541, 0.08178541, -1.34, 0, 0.19, 0, 0, 1
ATT, 208638233, 0, 0.82, 0, 0.37, 97.76, 97.77, 0, 1
RATE, 208638238, -3.711983, 0.09042691, -0.009200859, -1.684306, -0.03669065, -0.00394615, 0.01186414, 0.05991006, -0.0001062515, -425.3783, 1.573467, 0
NKF1, 208638246, 0.82, 0.37, 97.77, -0.01959931, 0.054147, -0.01050317, 0, 0, 0, -0.08178541, -0.01, 0, -0.03
NKF2, 208638246, 1, 0, 0, 0, 0, 0, 0, 0, 0, 0, 0, 0, 0
NKF3, 208638246, 0, 0, 0, 0, 0.05, -0.01, 0, 0, 0, 0, 0
NKF4, 208638246, 0, 0, 0, 0, 0, 0.000139497, 0, 0, 0, 19, 229, 0, 0
NKF5, 208638246, 0, 0, 0, 0, 0.21, 0.13, 0, 0.19, 0.5, 0.0003741763, 0.004861657, 0.008886398
NKQ1, 208638246, 0.6575136, -0.005903213, 0.008672937, 0.7533697
AHR2, 208638292, 0.6, 0.27, 93.67, -1.34, 0, 0, 0.6840636, 0.001862394, 0.005540173, 0.729399
MOTB, 208638299, 1, 1, 0, 1
RCIN, 208638303, 0, 0, 0, 0, 0, 0, 0, 0, 0, 0, 0, 0, 0, 0
RCOU, 208638309, 1101, 1101, 1101, 1101, 0, 0, 0, 0, 0, 0, 0, 0, 0, 0
VIBE, 208638317, 0.02136151, 0.02047559, 0.03300973, 0, 0, 0
CTRL, 208638324, 0.008688744, 0.0002021103, 0.003856577, 0.0001482144, 8.473216E-05
PRX, 208638357, 2, 0.72, 0, 0.58, 0, 3.6, 0, 2.47, 0, 0, 90, 0.58
IMU, 208663928, 4.340106E-05, -0.0002149887, 0.0003486261, 0.234067, -0.02586982, -9.807519, 0, 0, 37.3391, 1, 1, 1000, 1000
RFND, 208688202, 0.2, 25, 0, 0
IMU, 208703500, -0.0006067171, -0.0003559421, -0.001184448, 0.2102652, -0.05053935, -9.808395, 0, 0, 37.3393, 1, 1, 1000, 1000
MAG, 208738236, 329, 503, 213, 0, 0, 0, 0, 0, 0, 1, 208738228
RFND, 208738269, 0.2, 25, 0, 0
BARO, 208738302, -1.368883, 992.656, 35.48, -0.4181657, 208738, 0, 32.75
CTUN, 208738315, 0, 0, 0, 0.5890791, 0.08168442, 0.08168442, -1.36, 0, 0.19, 0, 0, 1
ATT, 208738371, 0, 0.82, 0, 0.37, 97.76, 97.77, 0, 1
RATE, 208738377, -3.716685, 0.01273016, -0.00894856, -1.697422, 0.04762096, -0.004395133, 0.0122637, 0.1018785, -2.780176E-05, -454.0179, 2.215099, 0
NKF1, 208738384, 0.82, 0.37, 97.77, -0.02146152, 0.05303436, -0.01121032, 0, 0, 0, -0.08168442, -0.01, 0, -0.03
NKF2, 208738384, 1, 0, 0, 0, 0, 0, 0, 0, 0, 0, 0, 0, 0
NKF3, 208738384, 0, 0, 0, 0, 0.05, -0.01, 0, 0, 0, 0, 0
NKF4, 208738384, 0, 0, 0, 0, 0, 8.515169E-05, 0, 0, 0, 19, 229, 0, 0
NKF5, 208738384, 0, 0, 0, 0, 0.21, 0.13, 0, 0.19, 0.5, 0.0002986568, 0.003070313, 0.005717744
NKQ1, 208738384, 0.6575037, -0.005917476, 0.008697646, 0.7533779
AHR2, 208738429, 0.6, 0.28, 93.67, -1.36, 0, 0, 0.6840742, 0.00181862, 0.005570463, 0.729389
MOTB, 208738437, 1, 1, 0, 1
RCIN, 208738441, 0, 0, 0, 0, 0, 0, 0, 0, 0, 0, 0, 0, 0, 0
RCOU, 208738447, 1101, 1101, 1101, 1101, 0, 0, 0, 0, 0, 0, 0, 0, 0, 0
VIBE, 208738455, 0.02262336, 0.02019161, 0.03328571, 0, 0, 0
CTRL, 208738461, 0.008711941, 0.000190454, 0.003888167, 0.0001687518, 7.823284E-05
PRX, 208738494, 2, 0.72, 0, 0.58, 0, 0.56, 0, 2.47, 0, 0, 180, 0.56
IMU, 208744081, -9.199764E-05, 0.0009354909, 0.0007184524, 0.1998987, -0.03360886, -9.817246, 0, 0, 37.33912, 1, 1, 1000, 1000
IMU, 208784422, -0.0006322624, 0.0009883759, 0.0001407423, 0.2107036, -0.03994476, -9.801473, 0, 0, 37.33913, 1, 1, 1000, 1000
RFND, 208788168, 0.2, 25, 0, 0
IMU, 208824443, 0.0009852146, 0.0001784099, -0.000161064, 0.2257364, -0.04385024, -9.801039, 0, 0, 37.33892, 1, 1, 1000, 1000
MAG, 208838169, 328, 509, 216, 0, 0, 0, 0, 0, 0, 1, 208838162
RFND, 208838202, 0.2, 25, 0, 0
BARO, 208838236, -1.307171, 992.6492, 35.48, -0.3079184, 208838, 0, 32.75
CTUN, 208838248, 0, 0, 0, 0.5890791, 0.08157431, 0.08157431, -1.3, 0, 0.19, 0, 0, 1
ATT, 208838305, 0, 0.82, 0, 0.38, 97.76, 97.78, 0, 1
RATE, 208838311, -3.723189, 0.01150538, -0.008650674, -1.718072, -0.01592919, -0.004053485, 0.01240198, -0.04502118, -5.28092E-05, -460.2442, 1.166344, 0
NKF1, 208838318, 0.82, 0.38, 97.78, -0.02299086, 0.05300077, -0.01136405, 0, 0, 0, -0.08157431, -0.01, 0, -0.03
NKF2, 208838318, 1, 0, 0, 0, 0, 0, 0, 0, 0, 0, 0, 0, 0
NKF3, 208838318, 0, 0, 0, 0, 0.06, -0.01, 0, 0, 0, 0, 0
NKF4, 208838318, 0, 0, 0, 0, 0, 5.715192E-05, 0, 0, 0, 19, 229, 0, 0
NKF5, 208838318, 0, 0, 0, 0, 0.21, 0.13, 0, 0.19, 0.5, 0.0002239713, 0.002508766, 0.00526361
NKQ1, 208838318, 0.6574897, -0.005935368, 0.008731416, 0.7533897
AHR2, 208838362, 0.6, 0.29, 93.67, -1.3, 0, 0, 0.6840804, 0.001768845, 0.005615938, 0.7293829
MOTB, 208838369, 1, 1, 0, 1
RCIN, 208838374, 0, 0, 0, 0, 0, 0, 0, 0, 0, 0, 0, 0, 0, 0
RCOU, 208838379, 1101, 1101, 1101, 1101, 0, 0, 0, 0, 0, 0, 0, 0, 0, 0
VIBE, 208838388, 0.02104717, 0.02164383, 0.03142825, 0, 0, 0
CTRL, 208838395, 0.00873869, 0.0001747615, 0.003942254, 0.00016768, 7.384418E-05
PRX, 208838427, 2, 0.72, 0, 0.58, 0, 0.56, 0, 2.49, 0, 0, 180, 0.56
IMU, 208863809, -0.0006241549, 0.0007693081, 0.0005578091, 0.2081354, -0.04234996, -9.794605, 0, 0, 37.3392, 1, 1, 1000, 1000
RFND, 208888092, 0.2, 25, 0, 0
IMU, 208903461, -5.235424E-05, -7.364359E-06, 0.001655131, 0.2135696, -0.04015765, -9.80447, 0, 0, 37.339, 1, 1, 1000, 1000
MAG, 208938199, 334, 506, 210, 0, 0, 0, 0, 0, 0, 1, 208938191
RFND, 208938236, 0.2, 25, 0, 0
BARO, 208938266, -1.234238, 992.6408, 35.48, -0.02353459, 208938, 0, 32.75
CTUN, 208938279, 0, 0, 0, 0.5890791, 0.08171599, 0.08171599, -1.23, 0, 0.19, 0, 0, 1
ATT, 208938335, 0, 0.82, 0, 0.38, 97.77, 97.78, 0, 1
RATE, 208938341, -3.729155, -0.006441036, -0.008744641, -1.735042, 0.05043024, -0.004392658, 0.01129548, 0.01467617, -0.0001936482, -460.2719, -0.8992195, 0
NKF1, 208938349, 0.82, 0.38, 97.78, -0.0243809, 0.05310737, -0.01136474, 0, 0, 0, -0.08171599, -0.02, 0, -0.03
NKF2, 208938349, 1, 0, 0, 0, 0, 0, 0, 0, 0, 0, 0, 0, 0
NKF3, 208938349, 0, 0, 0, 0, 0.06, -0.01, 0, 0, 0, 0, 0
NKF4, 208938349, 0, 0, 0, 0, 0, 3.835326E-05, 0, 0, 0, 19, 229, 0, 0
NKF5, 208938349, 0, 0, 0, 0, 0.21, 0.13, 0, 0.19, 0.5, 0.0001606491, 0.002636154, 0.00621553
NKQ1, 208938349, 0.657435, -0.005954697, 0.008762726, 0.7534369
AHR2, 208938394, 0.6, 0.3, 93.67, -1.23, 0, 0, 0.6840474, 0.001716222, 0.005663632, 0.7294136
MOTB, 208938401, 1, 1, 0, 1
RCIN, 208938406, 0, 0, 0, 0, 0, 0, 0, 0, 0, 0, 0, 0, 0, 0
RCOU, 208938412, 1101, 1101, 1101, 1101, 0, 0, 0, 0, 0, 0, 0, 0, 0, 0
VIBE, 208938420, 0.01961577, 0.01836629, 0.03021552, 0, 0, 0
CTRL, 208938426, 0.008755935, 0.0001630773, 0.003996935, 0.0001616266, 0.0001005505
PRX, 208938458, 2, 0.72, 0, 0.58, 0, 3.6, 0, 2.48, 0, 0, 90, 0.58
IMU, 208943557, -0.0001840842, 0.0007530684, -0.0002350918, 0.2172851, -0.04108758, -9.779878, 0, 0, 37.33924, 1, 1, 1000, 1000
IMU, 208983788, 0.0006319575, -0.0002224752, 7.663661E-06, 0.2315881, -0.0326762, -9.792038, 0, 0, 37.33907, 1, 1, 1000, 1000
RFND, 208988086, 0.2, 25, 0, 0
IMU, 209023466, -0.001032175, -0.0001290744, 0.0007989007, 0.2190055, -0.04511402, -9.792469, 0, 0, 37.33899, 1, 1, 1000, 1000
MAG, 209038585, 332, 509, 215, 0, 0, 0, 0, 0, 0, 1, 209038576
RFND, 209038620, 0.2, 25, 0, 0
BARO, 209038653, -1.234238, 992.6408, 35.48, 0.2414842, 209038, 0, 32.75
CTUN, 209038749, 0, 0, 0, 0.5890791, 0.08153155, 0.08153155, -1.23, 0, 0.19, 0, 0, 1
ATT, 209038810, 0, 0.83, 0, 0.38, 97.78, 97.79, 0, 1
RATE, 209038816, -3.741705, -0.02989027, -0.00873549, -1.735433, 0.02705153, -0.004307519, 0.01115712, 0.03531098, -0.0001639364, -426.1795, 0.3457069, 0
NKF1, 209038824, 0.83, 0.38, 97.79, -0.02584948, 0.05441228, -0.01052295, 0, 0, 0, -0.08153155, -0.02, 0, -0.03
NKF2, 209038824, 1, 0, 0, 0, 0, 0, 0, 0, 0, 0, 0, 0, 0
NKF3, 209038824, 0, 0, 0, 0, 0.07, -0.01, 0, 0, 0, 0, 0
NKF4, 209038824, 0, 0, 0, 0, 0, 2.580837E-05, 0, 0, 0, 19, 229, 0, 0
NKF5, 209038824, 0, 0, 0, 0, 0.21, 0.13, 0, 0.19, 0.5, 0.000108322, 0.002943428, 0.007334515
NKQ1, 209038824, 0.6573976, -0.005940381, 0.008781206, 0.7534693
AHR2, 209038868, 0.6, 0.3, 93.68, -1.23, 0, 0, 0.6840311, 0.001693535, 0.005702317, 0.7294286
MOTB, 209038876, 1, 1, 0, 1
RCIN, 209038880, 0, 0, 0, 0, 0, 0, 0, 0, 0, 0, 0, 0, 0, 0
RCOU, 209038946, 1101, 1101, 1101, 1101, 0, 0, 0, 0, 0, 0, 0, 0, 0, 0
VIBE, 209038955, 0.01990405, 0.01823898, 0.03426174, 0, 0, 0
CTRL, 209038961, 0.008796622, 0.0001734332, 0.004014172, 0.000172581, 0.0001209756
PRX, 209038995, 2, 0.72, 0, 0.58, 0, 0.54, 0, 2.47, 0, 0, 180, 0.54
IMU, 209063646, -0.001210469, 0.0001633966, 0.00016476, 0.2173032, -0.03759038, -9.784173, 0, 0, 37.33897, 1, 1, 1000, 1000
RFND, 209087939, 0.2, 25, 0, 0
IMU, 209103189, -6.747844E-05, 0.000710953, -0.0005525849, 0.2116526, -0.03783679, -9.793793, 0, 0, 37.33905, 1, 1, 1000, 1000
MAG, 209138366, 327, 507, 216, 0, 0, 0, 0, 0, 0, 1, 209138357
RFND, 209138401, 0.2, 25, 0, 0
BARO, 209138432, -1.206187, 992.6375, 35.48, 0.3943808, 209138, 0, 32.75
CTUN, 209138446, 0, 0, 0, 0.5890791, 0.08153887, 0.08153887, -1.2, 0, 0.19, 0, 0, 1
ATT, 209138504, 0, 0.83, 0, 0.38, 97.78, 97.79, 0, 1
RATE, 209138509, -3.744114, 0.0328941, -0.00896735, -1.741645, -0.005419824, -0.003811067, 0.01257096, 0.03960197, -1.271835E-05, -425.3121, -1.092815, 0
NKF1, 209138517, 0.83, 0.38, 97.79, -0.02687528, 0.05498007, -0.01050153, 0, 0, 0, -0.08153887, -0.02, 0, -0.03
NKF2, 209138517, 1, 0, 0, 0, 0, 0, 0, 0, 0, 0, 0, 0, 0
NKF3, 209138517, 0, 0, 0, 0, 0.08, -0.01, 0, 0, 0, 0, 0
NKF4, 209138517, 0, 0, 0, 0, 0, 1.754039E-05, 0, 0, 0, 19, 229, 0, 0
NKF5, 209138517, 0, 0, 0, 0, 0.21, 0.13, 0, 0.19, 0.5, 7.108816E-05, 0.003216789, 0.00824285
NKQ1, 209138517, 0.6573908, -0.005946563, 0.00879273, 0.7534751
AHR2, 209138562, 0.6, 0.31, 93.67, -1.2, 0, 0, 0.6840442, 0.001647214, 0.005739322, 0.7294161
MOTB, 209138569, 1, 1, 0, 1
RCIN, 209138573, 0, 0, 0, 0, 0, 0, 0, 0, 0, 0, 0, 0, 0, 0
RCOU, 209138579, 1101, 1101, 1101, 1101, 0, 0, 0, 0, 0, 0, 0, 0, 0, 0
VIBE, 209138587, 0.02010728, 0.02028513, 0.03098902, 0, 0, 0
CTRL, 209138594, 0.008799864, 0.0001676819, 0.004057703, 0.0001630799, 0.0001128853
PRX, 209138626, 2, 0.72, 0, 0.58, 0, 0.54, 0, 2.46, 0, 0, 180, 0.54
IMU, 209144014, 0.0005195506, -0.0006411986, 0.0001121176, 0.2226745, -0.04544714, -9.779371, 0, 0, 37.33923, 1, 1, 1000, 1000
IMU, 209183815, -0.0003867991, 0.0002749441, 0.0004458738, 0.2184947, -0.03913012, -9.825401, 0, 0, 37.33995, 1, 1, 1000, 1000
RFND, 209188157, 0.2, 25, 0, 0
IMU, 209223545, 0.0003390179, 0.001568898, 0.0006892032, 0.2215836, -0.0371734, -9.790239, 0, 0, 37.34103, 1, 1, 1000, 1000
MAG, 209238047, 329, 508, 214, 0, 0, 0, 0, 0, 0, 1, 209238039
RFND, 209238095, 0.2, 25, 0, 0
BARO, 209238126, -1.346442, 992.6531, 35.49, 0.3155723, 209238, 0, 32.75
CTUN, 209238138, 0, 0, 0, 0.5890791, 0.08152346, 0.08152346, -1.34, 0, 0.19, 0, 0, 1
ATT, 209238193, 0, 0.83, 0, 0.38, 97.78, 97.8, 0, 1
RATE, 209238199, -3.755329, 0.1173742, -0.009413281, -1.75387, 0.04158195, -0.004078181, 0.01281681, 0.08700025, -0.0001112054, -434.1954, -2.242374, 0
NKF1, 209238206, 0.83, 0.38, 97.8, -0.0286507, 0.0558417, -0.01072087, 0, 0, 0, -0.08152347, -0.02, 0, -0.03
NKF2, 209238206, 1, 0, 0, 0, 0, 0, 0, 0, 0, 0, 0, 0, 0
NKF3, 209238206, 0, 0, 0, 0, 0.08, -0.01, 0, 0, 0, 0, 0
NKF4, 209238206, 0, 0, 0, 0, 0, 1.206135E-05, 0, 0, 0, 19, 229, 0, 0
NKF5, 209238206, 0, 0, 0, 0, 0.21, 0.13, 0, 0.19, 0.5, 4.55553E-05, 0.003381777, 0.008798457
NKQ1, 209238206, 0.657354, -0.005952067, 0.008824495, 0.7535067
AHR2, 209238253, 0.61, 0.32, 93.68, -1.34, 0, 0, 0.6840289, 0.001602282, 0.005797775, 0.7294301
MOTB, 209238259, 1, 1, 0, 1
RCIN, 209238264, 0, 0, 0, 0, 0, 0, 0, 0, 0, 0, 0, 0, 0, 0
RCOU, 209238270, 1101, 1101, 1101, 1101, 0, 0, 0, 0, 0, 0, 0, 0, 0, 0
VIBE, 209238278, 0.01890922, 0.01939743, 0.03644514, 0, 0, 0
CTRL, 209238285, 0.008820301, 0.000169773, 0.004093799, 0.000168981, 0.0001016146
PRX, 209238316, 2, 0.72, 0, 0.58, 0, 3.6, 0, 2.48, 0, 0, 90, 0.58
IMU, 209264254, -0.0009184279, 9.071143E-05, -0.0004863136, 0.2148098, -0.03762251, -9.807239, 0, 0, 37.34214, 1, 1, 1000, 1000
RFND, 209287995, 0.2, 25, 0, 0
IMU, 209303515, 1.95681E-05, 0.0005369613, -3.109086E-05, 0.2136965, -0.03935916, -9.794558, 0, 0, 37.34324, 1, 1, 1000, 1000
MAG, 209337940, 331, 510, 218, 0, 0, 0, 0, 0, 0, 1, 209337933
RFND, 209337991, 0.2, 25, 0, 0
BARO, 209338022, -1.29595, 992.6476, 35.48, 0.01753181, 209338, 0, 32.75
CTUN, 209338034, 0, 0, 0, 0.5890791, 0.08147886, 0.08147886, -1.29, 0, 0.19, 0, 0, 1
DU32, 209338053, 7, 50389208
ATT, 209338151, 0, 0.83, 0, 0.39, 97.79, 97.8, 0, 1
RATE, 209338158, -3.759245, 0.04254167, -0.009156858, -1.756777, 0.0033196, -0.004189628, 0.01212524, 0.0244153, -8.538824E-05, -460.0957, 2.316189, 0
NKF1, 209338165, 0.83, 0.39, 97.8, -0.03016003, 0.05654661, -0.01136039, 0, 0, 0, -0.08147886, -0.02, 0, -0.03
NKF2, 209338165, 1, 0, 0, 0, 0, 0, 0, 0, 0, 0, 0, 0, 0
NKF3, 209338165, 0, 0, 0, 0, 0.09, -0.01, 0, 0, 0, 0, 0
NKF4, 209338165, 0, 0, 0, 0, 0, 8.449577E-06, 0, 0, 0, 19, 229, 0, 0
NKF5, 209338165, 0, 0, 0, 0, 0.21, 0.13, 0, 0.19, 0.5, 3.183911E-05, 0.003462028, 0.00911727
NKQ1, 209338165, 0.6573342, -0.005949963, 0.008832234, 0.7535239
AHR2, 209338208, 0.61, 0.32, 93.68, -1.29, 0, 0, 0.6840295, 0.00156766, 0.005829232, 0.7294294
MOTB, 209338216, 1, 1, 0, 1
RCIN, 209338220, 0, 0, 0, 0, 0, 0, 0, 0, 0, 0, 0, 0, 0, 0
RCOU, 209338225, 1101, 1101, 1101, 1101, 0, 0, 0, 0, 0, 0, 0, 0, 0, 0
VIBE, 209338233, 0.02035538, 0.02154646, 0.03321451, 0, 0, 0
CTRL, 209338240, 0.008840598, 0.0001704865, 0.004105688, 0.0001580068, 9.66124E-05
PRX, 209338271, 2, 0.72, 0, 0.58, 0, 3.6, 0, 2.48, 0, 0, 90, 0.58
IMU, 209343347, 0.0006217995, 0.0003410391, 0.0001409976, 0.2127521, -0.04687707, -9.81991, 0, 0, 37.3446, 1, 1, 1000, 1000
IMU, 209383513, 0.001004762, 0.000374859, 0.0005564639, 0.2107946, -0.04511802, -9.792917, 0, 0, 37.34589, 1, 1, 1000, 1000
RFND, 209388033, 0.2, 25, 0, 0
IMU, 209423226, 0.0003980275, 0.000492761, -0.0001358867, 0.2083928, -0.033071, -9.788469, 0, 0, 37.34675, 1, 1, 1000, 1000
MAG, 209437989, 332, 509, 216, 0, 0, 0, 0, 0, 0, 1, 209437981
RFND, 209438023, 0.2, 25, 0, 0
BARO, 209438052, -1.324001, 992.6509, 35.48, -0.2577174, 209438, 0, 32.75
CTUN, 209438064, 0, 0, 0, 0.5890791, 0.0816247, 0.0816247, -1.32, 0, 0.19, 0, 0, 1
ATT, 209438127, 0, 0.83, 0, 0.39, 97.79, 97.8, 0, 1
RATE, 209438132, -3.772134, 0.008941406, -0.008847696, -1.762978, 0.03886607, -0.004345911, 0.01315483, 0.05843113, -9.57673E-05, -434.9482, -2.184963, 0
NKF1, 209438141, 0.83, 0.39, 97.8, -0.03185353, 0.05733767, -0.01073946, 0, 0, 0, -0.0816247, -0.02, 0, -0.03
NKF2, 209438141, 1, 0, 0, 0, 0, 0, 0, 0, 0, 0, 0, 0, 0
NKF3, 209438141, 0, 0, 0, 0, 0.09, -0.01, 0, 0, 0, 0, 0
NKF4, 209438141, 0, 0, 0, 0, 0, 6.069482E-06, 0, 0, 0, 19, 229, 0, 0
NKF5, 209438141, 0, 0, 0, 0, 0.21, 0.13, 0, 0.19, 0.5, 2.458275E-05, 0.003493102, 0.009276222
NKQ1, 209438141, 0.6573046, -0.005943621, 0.008860213, 0.7535495
AHR2, 209438183, 0.61, 0.33, 93.68, -1.32, 0, 0, 0.684021, 0.001537557, 0.005880347, 0.7294371
MOTB, 209438190, 1, 1, 0, 1
RCIN, 209438195, 0, 0, 0, 0, 0, 0, 0, 0, 0, 0, 0, 0, 0, 0
RCOU, 209438200, 1101, 1101, 1101, 1101, 0, 0, 0, 0, 0, 0, 0, 0, 0, 0
VIBE, 209438208, 0.01801899, 0.01866343, 0.03225737, 0, 0, 0
CTRL, 209438215, 0.008881782, 0.0001666732, 0.004125877, 0.000136808, 9.898292E-05
PRX, 209438247, 2, 0.72, 0, 0.58, 0, 3.6, 0, 2.46, 0, 0, 90, 0.58
IMU, 209463544, 0.001460771, -0.0002026719, 0.0001411622, 0.2214389, -0.03946288, -9.789608, 0, 0, 37.34776, 1, 1, 1000, 1000
RFND, 209488040, 0.2, 25, 0, 0
IMU, 209503765, -0.0004873709, 0.0001765142, 0.0004788025, 0.2243274, -0.04985254, -9.79251, 0, 0, 37.34876, 1, 1, 1000, 1000
MAG, 209538044, 331, 508, 209, 0, 0, 0, 0, 0, 0, 1, 209538036
RFND, 209538093, 0.2, 25, 0, 0
BARO, 209538181, -1.27912, 992.6459, 35.48, -0.2664833, 209538, 0, 32.75
CTUN, 209538195, 0, 0, 0, 0.5890791, 0.08150771, 0.08150771, -1.27, 0, 0.19, 0, 0, 1
ATT, 209538252, 0, 0.84, 0, 0.39, 97.8, 97.81, 0, 1
RATE, 209538257, -3.787573, -0.0008441737, -0.008920604, -1.765839, -0.02543996, -0.004143587, 0.01075737, 0.05071056, -9.567911E-05, -438.3355, 1.811028, 0
NKF1, 209538265, 0.84, 0.39, 97.81, -0.03302396, 0.05864498, -0.0108231, 0, 0, 0, -0.08150771, -0.02, 0, -0.03
NKF2, 209538265, 1, 0, 0, 0, 0, 0, 0, 0, 0, 0, 0, 0, 0
NKF3, 209538265, 0, 0, 0, -0.01, 0.1, -0.01, 0, 0, 0, 0, 0
NKF4, 209538265, 0, 0, 0, 0, 0, 4.568631E-06, 0, 0, 0, 19, 229, 0, 0
NKF5, 209538265, 0, 0, 0, 0, 0.21, 0.13, 0, 0.19, 0.5, 2.399879E-05, 0.003439449, 0.009209019
NKQ1, 209538265, 0.6572711, -0.005928219, 0.008886315, 0.7535787
AHR2, 209538311, 0.61, 0.33, 93.68, -1.27, 0, 0, 0.6840086, 0.001516892, 0.005924858, 0.7294483
MOTB, 209538318, 1, 1, 0, 1
RCIN, 209538322, 0, 0, 0, 0, 0, 0, 0, 0, 0, 0, 0, 0, 0, 0
RCOU, 209538328, 1101, 1101, 1101, 1101, 0, 0, 0, 0, 0, 0, 0, 0, 0, 0
VIBE, 209538336, 0.02044049, 0.01750657, 0.03491044, 0, 0, 0
CTRL, 209538343, 0.008915097, 0.0001850897, 0.004137597, 0.0001318857, 9.975669E-05
PRX, 209538376, 2, 0.71, 0, 0.58, 0, 0.54, 0, 2.46, 0, 0, 180, 0.54
IMU, 209543449, -0.0007350947, 0.0005291709, 0.0009306379, 0.2131593, -0.0366384, -9.799876, 0, 0, 37.34962, 1, 1, 1000, 1000
IMU, 209583537, -4.601716E-05, -0.0001762907, -0.0008082101, 0.2102652, -0.04625151, -9.791336, 0, 0, 37.34961, 1, 1, 1000, 1000
RFND, 209587993, 0.2, 25, 0, 0
IMU, 209623231, 1.19261E-05, -3.329355E-05, 0.0009116575, 0.2228639, -0.04427195, -9.790215, 0, 0, 37.34908, 1, 1, 1000, 1000
MAG, 209638148, 336, 507, 214, 0, 0, 0, 0, 0, 0, 1, 209638140
RFND, 209638185, 0.2, 25, 0, 0
BARO, 209638215, -1.27912, 992.6456, 35.48, -0.07012718, 209638, 0, 32.75
CTUN, 209638228, 0, 0, 0, 0.5890791, 0.08164904, 0.08164904, -1.27, 0, 0.19, 0, 0, 1
ATT, 209638284, 0, 0.84, 0, 0.39, 97.8, 97.81, 0, 1
RATE, 209638290, -3.786222, -0.01199987, -0.008832258, -1.773213, 0.02340609, -0.004318797, 0.01238638, 0.02085166, -8.09604E-05, -417.8173, -0.799942, 0
NKF1, 209638297, 0.84, 0.39, 97.81, -0.03434438, 0.05962338, -0.01031648, 0, 0, 0, -0.08164905, -0.02, 0, -0.03
NKF2, 209638297, 1, 0, 0, 0, 0, 0, 0, 0, 0, 0, 0, 0, 0
NKF3, 209638297, 0, 0, 0, -0.01, 0.1, -0.01, 0, 0, 0, 0, 0
NKF4, 209638297, 0, 0, 0, 0, 0, 3.589296E-06, 0, 0, 0, 19, 229, 0, 0
NKF5, 209638297, 0, 0, 0, 0, 0.21, 0.13, 0, 0.19, 0.5, 2.473879E-05, 0.003392854, 0.009133958
NKQ1, 209638297, 0.6572537, -0.005940238, 0.008892578, 0.7535936
AHR2, 209638341, 0.61, 0.34, 93.68, -1.27, 0, 0, 0.6840116, 0.00146894, 0.005951207, 0.7294453
MOTB, 209638348, 1, 1, 0, 1
RCIN, 209638352, 0, 0, 0, 0, 0, 0, 0, 0, 0, 0, 0, 0, 0, 0
RCOU, 209638358, 1101, 1101, 1101, 1101, 0, 0, 0, 0, 0, 0, 0, 0, 0, 0
VIBE, 209638367, 0.01955316, 0.01704949, 0.03139206, 0, 0, 0
CTRL, 209638373, 0.008916019, 0.0001623003, 0.00415838, 0.0001469563, 9.508997E-05
PRX, 209638405, 2, 0.72, 0, 0.58, 0, 3.6, 0, 2.5, 0, 0, 90, 0.58
IMU, 209663299, -0.0002306974, -0.0005200747, -0.0006773772, 0.2168763, -0.03187, -9.790259, 0, 0, 37.34848, 1, 1, 1000, 1000
RFND, 209687986, 0.2, 25, 0, 0
IMU, 209703505, 5.762943E-05, 0.0002872092, -0.0005260285, 0.2078799, -0.03333297, -9.809126, 0, 0, 37.34818, 1, 1, 1000, 1000
MAG, 209737969, 329, 509, 217, 0, 0, 0, 0, 0, 0, 1, 209737943
RFND, 209738004, 0.2, 25, 0, 0
BARO, 209738034, -1.29595, 992.6475, 35.48, 0.08239955, 209738, 0, 32.75
CTUN, 209738046, 0, 0, 0, 0.5890791, 0.08145514, 0.08145514, -1.29, 0, 0.19, 0, 0, 1
ATT, 209738105, 0, 0.84, 0, 0.39, 97.8, 97.81, 0, 1
RATE, 209738111, -3.786518, -0.007458136, -0.008951591, -1.768104, -0.03000158, -0.004007965, 0.01204828, -0.04679259, 2.315351E-05, -419.3553, 1.761723, 0
NKF1, 209738120, 0.84, 0.39, 97.81, -0.03622344, 0.06064044, -0.01035445, 0, 0, 0, -0.08145514, -0.02, 0, -0.03
NKF2, 209738120, 1, 0, 0, 0, 0, 0, 0, 0, 0, 0, 0, 0, 0
NKF3, 209738120, 0, 0, 0, -0.01, 0.11, -0.01, 0, 0, 0, 0, 0
NKF4, 209738120, 0, 0, 0, 0, 0, 3.069998E-06, 0, 0, 0, 19, 229, 0, 0
NKF5, 209738120, 0, 0, 0, 0, 0.21, 0.13, 0, 0.19, 0.5, 2.880809E-05, 0.003267441, 0.008845963
NKQ1, 209738120, 0.657256, -0.005930056, 0.00888686, 0.7535917
AHR2, 209738162, 0.61, 0.34, 93.68, -1.29, 0, 0, 0.6840339, 0.001445485, 0.005967187, 0.7294244
MOTB, 209738169, 1, 1, 0, 1
RCIN, 209738173, 0, 0, 0, 0, 0, 0, 0, 0, 0, 0, 0, 0, 0, 0
RCOU, 209738179, 1101, 1101, 1101, 1101, 0, 0, 0, 0, 0, 0, 0, 0, 0, 0
VIBE, 209738187, 0.0195352, 0.01867246, 0.03294963, 0, 0, 0
CTRL, 209738194, 0.008917415, 0.0001485361, 0.004152162, 0.0001533702, 7.974302E-05
PRX, 209738226, 2, 0.72, 0, 0.58, 0, 3.6, 0, 2.45, 0, 0, 90, 0.58
IMU, 209743197, -0.0001139617, -0.0001067608, -0.001260296, 0.2151394, -0.04081468, -9.812672, 0, 0, 37.3479, 1, 1, 1000, 1000
IMU, 209783264, -0.0001416963, 0.0004477871, 0.0007761295, 0.2112199, -0.03451159, -9.798382, 0, 0, 37.34713, 1, 1, 1000, 1000
RFND, 209788092, 0.2, 25, 0, 0
IMU, 209823496, -5.113944E-05, -0.0005131384, 0.00141053, 0.2258183, -0.04767476, -9.787871, 0, 0, 37.34616, 1, 1, 1000, 1000
MAG, 209838065, 331, 509, 211, 0, 0, 0, 0, 0, 0, 1, 209838057
RFND, 209838113, 0.2, 25, 0, 0
BARO, 209838197, -1.093984, 992.6255, 35.48, 0.1490204, 209838, 0, 32.75
CTUN, 209838211, 0, 0, 0, 0.5890791, 0.08146876, 0.08146876, -1.09, 0, 0.19, 0, 0, 1
ATT, 209838267, 0, 0.84, 0, 0.39, 97.81, 97.82, 0, 1
RATE, 209838273, -3.800601, -0.03549161, -0.008678768, -1.771505, 0.05271538, -0.004595257, 0.01132593, 0.0865218, -0.0001274336, -441.1042, 2.675533, 0
NKF1, 209838280, 0.84, 0.39, 97.82, -0.03803309, 0.06169311, -0.01089146, 0, 0, 0, -0.08146876, -0.02, 0, -0.03
NKF2, 209838280, 1, 0, 0, 0, 0, 0, 0, 0, 0, 0, 0, 0, 0
NKF3, 209838280, 0, 0, 0, -0.02, 0.12, -0.01, 0, 0, 0, 0, 0
NKF4, 209838280, 0, 0, 0, 0, 0, 2.769315E-06, 0, 0, 0, 19, 229, 0, 0
NKF5, 209838280, 0, 0, 0, 0, 0.21, 0.13, 0, 0.19, 0.5, 3.370178E-05, 0.003136206, 0.008529373
NKQ1, 209838280, 0.6572118, -0.005921747, 0.00891218, 0.75363
AHR2, 209838325, 0.61, 0.35, 93.68, -1.09, 0, 0, 0.6840115, 0.001420562, 0.006013244, 0.7294452
MOTB, 209838332, 1, 1, 0, 1
RCIN, 209838336, 0, 0, 0, 0, 0, 0, 0, 0, 0, 0, 0, 0, 0, 0
RCOU, 209838341, 1101, 1101, 1101, 1101, 0, 0, 0, 0, 0, 0, 0, 0, 0, 0
VIBE, 209838349, 0.0217683, 0.0202939, 0.03389058, 0, 0, 0
CTRL, 209838356, 0.008953142, 0.0001654593, 0.004159053, 0.0001526398, 7.608247E-05
PRX, 209838388, 2, 0.72, 0, 0.58, 0, 3.6, 0, 2.47, 0, 0, 90, 0.58
IMU, 209863395, -0.0001832916, -0.0002150969, 0.0004657732, 0.2205971, -0.03630549, -9.795786, 0, 0, 37.34488, 1, 1, 1000, 1000
RFND, 209888076, 0.2, 25, 0, 0
IMU, 209903795, 0.0001433725, -5.122744E-05, 0.0002316474, 0.2122163, -0.03770059, -9.801889, 0, 0, 37.34358, 1, 1, 1000, 1000
MAG, 209937971, 326, 507, 218, 0, 0, 0, 0, 0, 0, 1, 209937943
RFND, 209938005, 0.2, 25, 0, 0
BARO, 209938035, -1.144476, 992.6306, 35.48, 0.3085596, 209938, 0, 32.75
CTUN, 209938047, 0, 0, 0, 0.5890791, 0.08145175, 0.08145175, -1.14, 0, 0.19, 0, 0, 1
ATT, 209938109, 0, 0.84, 0, 0.39, 97.81, 97.82, 0, 1
RATE, 209938114, -3.806769, 0.00879345, -0.009006972, -1.762704, -0.07595671, -0.004034573, 0.01164862, 0.003223656, -0.0001249186, -437.3557, -1.068115, 0
NKF1, 209938122, 0.84, 0.39, 97.82, -0.04018697, 0.06285577, -0.01079891, 0, 0, 0, -0.08145175, -0.02, 0, -0.03
NKF2, 209938122, 1, 0, 0, 0, 0, 0, 0, 0, 0, 0, 0, 0, 0
NKF3, 209938122, 0, 0, 0, -0.02, 0.12, -0.01, 0, 0, 0, 0, 0
NKF4, 209938122, 0, 0, 0, 0, 0, 2.67926E-06, 0, 0, 0, 19, 229, 0, 0
NKF5, 209938122, 0, 0, 0, 0, 0.21, 0.13, 0, 0.19, 0.5, 3.588941E-05, 0.003032753, 0.008270424
NKQ1, 209938122, 0.6571838, -0.005898913, 0.008908752, 0.7536547
AHR2, 209938166, 0.61, 0.35, 93.68, -1.14, 0, 0, 0.6840044, 0.001405452, 0.006023686, 0.7294517
MOTB, 209938173, 1, 1, 0, 1
RCIN, 209938177, 0, 0, 0, 0, 0, 0, 0, 0, 0, 0, 0, 0, 0, 0
RCOU, 209938182, 1101, 1101, 1101, 1101, 0, 0, 0, 0, 0, 0, 0, 0, 0, 0
VIBE, 209938190, 0.02042029, 0.01888613, 0.03077015, 0, 0, 0
CTRL, 209938198, 0.008963025, 0.0001401346, 0.004148177, 0.0001612281, 0.0001003951
PRX, 209938229, 2, 0.72, 0, 0.58, 0, 3.6, 0, 2.48, 0, 0, 90, 0.58
IMU, 209943249, -2.362345E-05, -0.0008164955, -0.0004768816, 0.2126717, -0.02865905, -9.784223, 0, 0, 37.34259, 1, 1, 1000, 1000
IMU, 209983240, 0.0004597703, -0.0004866998, -0.0002560128, 0.2215759, -0.03720775, -9.808532, 0, 0, 37.34237, 1, 1, 1000, 1000
RFND, 209987974, 0.2, 25, 0, 0
IMU, 210023540, 0.0009387853, 0.0003161017, 0.0003602716, 0.2190131, -0.04036798, -9.793112, 0, 0, 37.34236, 1, 1, 1000, 1000
MAG, 210038021, 334, 512, 216, 0, 0, 0, 0, 0, 0, 1, 210038013
RFND, 210038055, 0.2, 25, 0, 0
BARO, 210038098, -1.217408, 992.639, 35.48, 0.4908902, 210038, 0, 32.75
CTUN, 210038110, 0, 0, 0, 0.5890791, 0.08146193, 0.08146193, -1.21, 0, 0.19, 0, 0, 1
ATT, 210038165, 0, 0.84, 0, 0.39, 97.81, 97.82, 0, 1
RATE, 210038170, -3.813662, -0.05570917, -0.008466369, -1.756783, -0.06633092, -0.00383762, 0.01255529, -0.05677785, -4.83676E-05, -439.2645, -0.25177, 0
NKF1, 210038178, 0.84, 0.39, 97.82, -0.04231105, 0.06415645, -0.01084604, 0, 0, 0, -0.08146193, -0.02, 0, -0.03
NKF2, 210038178, 1, 0, 0, 0, 0, 0, 0, 0, 0, 0, 0, 0, 0
NKF3, 210038178, 0, 0, 0, -0.02, 0.13, -0.01, 0, 0, 0, 0, 0
NKF4, 210038178, 0, 0, 0, 0, 0, 2.715625E-06, 0, 0, 0, 19, 229, 0, 0
NKF5, 210038178, 0, 0, 0, 0, 0.21, 0.13, 0, 0.19, 0.5, 4.036678E-05, 0.002872627, 0.00784521
NKQ1, 210038178, 0.6571716, -0.005879676, 0.008911082, 0.7536654
AHR2, 210038222, 0.61, 0.35, 93.68, -1.21, 0, 0, 0.6840129, 0.001387139, 0.006039776, 0.7294437
MOTB, 210038229, 1, 1, 0, 1
RCIN, 210038233, 0, 0, 0, 0, 0, 0, 0, 0, 0, 0, 0, 0, 0, 0
RCOU, 210038238, 1101, 1101, 1101, 1101, 0, 0, 0, 0, 0, 0, 0, 0, 0, 0
VIBE, 210038247, 0.01743007, 0.01862337, 0.03077721, 0, 0, 0
CTRL, 210038253, 0.008988267, 0.0001568546, 0.004133328, 0.0001655527, 9.377545E-05
PRX, 210038285, 2, 0.72, 0, 0.58, 0, 0.54, 0, 2.47, 0, 0, 180, 0.54
IMU, 210063372, -0.0009128234, -0.0003235638, 0.0002466365, 0.2146724, -0.03453923, -9.797362, 0, 0, 37.34172, 1, 1, 1000, 1000
RFND, 210088115, 0.2, 25, 0, 0
IMU, 210103497, -0.0002367726, -0.0004397228, -0.000394889, 0.2207982, -0.04890733, -9.790801, 0, 0, 37.34203, 1, 1, 1000, 1000
MAG, 210138274, 324, 507, 217, 0, 0, 0, 0, 0, 0, 1, 210138266
RFND, 210138310, 0.2, 25, 0, 0
BARO, 210138342, -1.29595, 992.6475, 35.48, 0.3085596, 210138, 0, 32.75
CTUN, 210138354, 0, 0, 0, 0.5890791, 0.08147974, 0.08147974, -1.29, 0, 0.19, 0, 0, 0
ATT, 210138410, 0, 0.84, 0, 0.38, 97.82, 97.83, 0, 1
RATE, 210138415, -3.813956, -0.01234073, -0.008898669, -1.751623, 0.01187581, -0.004139056, 0.01270897, 0.0659514, -7.68692E-05, -384.199, -1.88694, 0
NKF1, 210138423, 0.84, 0.38, 97.83, -0.0440092, 0.06558293, -0.009486396, 0, 0, 0, -0.08147974, -0.02, 0, -0.03
NKF2, 210138423, 1, 0, 0, 0, 0, 0, 0, 0, 0, 0, 0, 0, 0
NKF3, 210138423, 0, 0, 0, -0.02, 0.13, -0.01, 0, 0, 0, 0, 0
NKF4, 210138423, 0, 0, 0, 0, 0, 2.836628E-06, 0, 0, 0, 19, 229, 0, 0
NKF5, 210138423, 0, 0, 0, 0, 0.21, 0.13, 0, 0.19, 0.5, 4.105204E-05, 0.002782363, 0.007598984
NKQ1, 210138423, 0.6571414, -0.005875754, 0.008906065, 0.7536918
AHR2, 210138469, 0.61, 0.36, 93.68, -1.29, 0, 0, 0.6840039, 0.001353263, 0.006050076, 0.729452
MOTB, 210138476, 1, 1, 0, 1
RCIN, 210138481, 0, 0, 0, 0, 0, 0, 0, 0, 0, 0, 0, 0, 0, 0
RCOU, 210138486, 1101, 1101, 1101, 1101, 0, 0, 0, 0, 0, 0, 0, 0, 0, 0
VIBE, 210138494, 0.01832389, 0.01880858, 0.03004814, 0, 0, 0
CTRL, 210138501, 0.008982131, 0.000168994, 0.004120666, 0.0001506523, 8.389048E-05
PRX, 210138534, 2, 0.72, 0, 0.58, 0, 0.54, 0, 2.47, 0, 0, 180, 0.54
IMU, 210143967, -0.0004188415, 0.0003151308, 0.0001594471, 0.211133, -0.0349429, -9.780155, 0, 0, 37.34149, 1, 1, 1000, 1000
IMU, 210183280, -0.0001301737, -0.0001894235, -0.0004616478, 0.2098574, -0.03227079, -9.793364, 0, 0, 37.34047, 1, 1, 1000, 1000
RFND, 210188050, 0.2, 25, 0, 0
IMU, 210223885, -0.0006974171, 0.0002048967, 0.0004507826, 0.2106818, -0.04426204, -9.808714, 0, 0, 37.33989, 1, 1, 1000, 1000
MAG, 210238135, 327, 508, 214, 0, 0, 0, 0, 0, 0, 1, 210238127
RFND, 210238171, 0.2, 25, 0, 0
BARO, 210238202, -1.312781, 992.6493, 35.48, -0.2033688, 210238, 0, 32.75
CTUN, 210238215, 0, 0, 0, 0.5890791, 0.08128767, 0.08128767, -1.31, 0, 0.19, 0, 0, 0
ATT, 210238270, 0, 0.84, 0, 0.39, 97.82, 97.83, 0, 1
RATE, 210238276, -3.814198, -0.03070935, -0.008855283, -1.760133, -0.01922165, -0.003938794, 0.01273971, 0.008648343, -6.470054E-05, -402.5848, 1.498604, 0
NKF1, 210238284, 0.84, 0.39, 97.83, -0.04580421, 0.06619656, -0.009940365, 0, 0, 0, -0.08128767, -0.02, 0, -0.03
NKF2, 210238284, 1, 0, 0, 0, 0, 0, 0, 0, 0, 0, 0, 0, 0
NKF3, 210238284, 0, 0, 0, -0.03, 0.14, -0.01, 0, 0, 0, 0, 0
NKF4, 210238284, 0, 0, 0, 0, 0, 3.065878E-06, 0, 0, 0, 19, 229, 0, 0
NKF5, 210238284, 0, 0, 0, 0, 0.21, 0.13, 0, 0.19, 0.5, 4.476938E-05, 0.002614747, 0.007122478
NKQ1, 210238284, 0.6571289, -0.005886265, 0.008916755, 0.7537025
AHR2, 210238328, 0.61, 0.36, 93.68, -1.31, 0, 0, 0.6840115, 0.00130726, 0.006076314, 0.7294449
MOTB, 210238336, 1, 1, 0, 1
RCIN, 210238340, 0, 0, 0, 0, 0, 0, 0, 0, 0, 0, 0, 0, 0, 0
RCOU, 210238345, 1101, 1101, 1101, 1101, 0, 0, 0, 0, 0, 0, 0, 0, 0, 0
VIBE, 210238354, 0.01819511, 0.02004068, 0.03338891, 0, 0, 0
CTRL, 210238360, 0.008988071, 0.0001529732, 0.004142868, 0.0001564246, 7.4888E-05
PRX, 210238392, 2, 0.72, 0, 0.58, 0, 0.54, 0, 2.5, 0, 0, 180, 0.54
IMU, 210263277, -0.0006405784, 0.001699316, -0.0002975132, 0.2103663, -0.03254367, -9.781424, 0, 0, 37.33912, 1, 1, 1000, 1000
RFND, 210289151, 0.2, 25, 0, 0
IMU, 210303366, -5.259963E-05, 0.0008976833, 0.0008417388, 0.2114172, -0.04136869, -9.796837, 0, 0, 37.33831, 1, 1, 1000, 1000
MAG, 210338095, 329, 505, 215, 0, 0, 0, 0, 0, 0, 1, 210338086
RFND, 210338133, 0.2, 25, 0, 0
BARO, 210338164, -1.340832, 992.6526, 35.48, -0.5242008, 210338, 0, 32.75
CTUN, 210338175, 0, 0, 0, 0.5890791, 0.08131023, 0.08131023, -1.34, 0, 0.19, 0, 0, 0
DU32, 210338197, 7, 50389208
ATT, 210338292, 0, 0.84, 0, 0.39, 97.82, 97.83, 0, 1
RATE, 210338298, -3.820765, 0.01489473, -0.009038352, -1.777333, -0.1207373, -0.003642105, 0.01261675, -0.005401429, -6.193732E-05, -384.9495, -0.4551888, 0
NKF1, 210338307, 0.84, 0.39, 97.83, -0.04791697, 0.06724639, -0.009504925, 0, 0, 0, -0.08131022, -0.02, 0, -0.03
NKF2, 210338307, 1, 0, 0, 0, 0, 0, 0, 0, 0, 0, 0, 0, 0
NKF3, 210338307, 0, 0, 0, -0.03, 0.14, -0.01, 0, 0, 0, 0, 0
NKF4, 210338307, 0, 0, 0, 0, 0, 3.295572E-06, 0, 0, 0, 19, 229, 0, 0
NKF5, 210338307, 0, 0, 0, 0, 0.21, 0.13, 0, 0.19, 0.5, 4.416281E-05, 0.002545967, 0.006926734
NKQ1, 210338307, 0.6571029, -0.005903336, 0.008946469, 0.7537246
AHR2, 210338351, 0.61, 0.37, 93.68, -1.34, 0, 0, 0.6840066, 0.001259361, 0.006120998, 0.729449
MOTB, 210338358, 1, 1, 0, 1
RCIN, 210338363, 0, 0, 0, 0, 0, 0, 0, 0, 0, 0, 0, 0, 0, 0
RCOU, 210338368, 1101, 1101, 1101, 1101, 0, 0, 0, 0, 0, 0, 0, 0, 0, 0
VIBE, 210338376, 0.01862719, 0.01906116, 0.03379119, 0, 0, 0
CTRL, 210338383, 0.008992654, 0.0001331807, 0.004183102, 0.0001902267, 7.593988E-05
PRX, 210338416, 2, 0.72, 0, 0.58, 0, 0.53, 0, 2.5, 0, 0, 180, 0.53
IMU, 210343350, 0.0006813888, -0.0007700756, -0.0003778903, 0.221985, -0.03649262, -9.797956, 0, 0, 37.33708, 1, 1, 1000, 1000
IMU, 210383318, -0.001085727, -0.0003166709, 0.001003042, 0.2135034, -0.04540347, -9.79569, 0, 0, 37.3359, 1, 1, 1000, 1000
RFND, 210388088, 0.2, 25, 0, 0
IMU, 210423903, 0.0001701659, -0.0003373146, 8.229288E-06, 0.2173664, -0.04273673, -9.781591, 0, 0, 37.33527, 1, 1, 1000, 1000
MAG, 210438066, 331, 504, 218, 0, 0, 0, 0, 0, 0, 1, 210438058
RFND, 210438114, 0.2, 25, 0, 0
BARO, 210438145, -1.340832, 992.6523, 35.48, -0.4716055, 210438, 0, 32.75
CTUN, 210438157, 0, 0, 0, 0.5890791, 0.0810056, 0.0810056, -1.34, 0, 0.19, 0, 0, 0
ATT, 210438211, 0, 0.85, 0, 0.39, 97.83, 97.84, 0, 1
RATE, 210438217, -3.826583, -0.01738239, -0.008908368, -1.77373, -0.02048862, -0.00418536, 0.01273967, 0.06248236, -6.448801E-05, -378.4668, 0, 0
NKF1, 210438225, 0.85, 0.39, 97.84, -0.04885881, 0.06808417, -0.00934486, 0, 0, 0, -0.0810056, -0.02, 0, -0.03
NKF2, 210438225, 1, 0, 0, 0, 0, 0, 0, 0, 0, 0, 0, 0, 0
NKF3, 210438225, 0, 0, 0, -0.04, 0.15, -0.01, 0, 0, 0, 0, 0
NKF4, 210438225, 0, 0, 0, 0, 0, 3.685404E-06, 0, 0, 0, 19, 229, 0, 0
NKF5, 210438225, 0, 0, 0, 0, 0.21, 0.13, 0, 0.19, 0.5, 4.737127E-05, 0.002374884, 0.00642346
NKQ1, 210438225, 0.657078, -0.00589306, 0.008950653, 0.7537466
AHR2, 210438325, 0.61, 0.37, 93.68, -1.34, 0, 0, 0.684002, 0.001238806, 0.006138863, 0.7294533
MOTB, 210438333, 1, 1, 0, 1
RCIN, 210438338, 0, 0, 0, 0, 0, 0, 0, 0, 0, 0, 0, 0, 0, 0
RCOU, 210438343, 1101, 1101, 1101, 1101, 0, 0, 0, 0, 0, 0, 0, 0, 0, 0
VIBE, 210438352, 0.01894224, 0.0202714, 0.03318954, 0, 0, 0
CTRL, 210438359, 0.009010036, 0.0001565356, 0.00417104, 0.0001858938, 7.402736E-05
PRX, 210438390, 2, 0.72, 0, 0.58, 0, 0.53, 0, 2.47, 0, 0, 180, 0.53
IMU, 210463272, 0.0007491967, 0.0003760965, -0.0004689452, 0.2143579, -0.04155477, -9.803978, 0, 0, 37.33389, 1, 1, 1000, 1000
EV, 210480435, 57
RFND, 210489150, 0.2, 25, 0, 0
IMU, 210503628, 0.0006481321, 0.0002419422, -0.0007208404, 0.2153357, -0.04397373, -9.781255, 0, 0, 37.33246, 1, 1, 1000, 1000
MAG, 210538093, 330, 511, 212, 0, 0, 0, 0, 0, 0, 1, 210538085
RFND, 210538130, 0.2, 25, 0, 0
BARO, 210538161, -1.29034, 992.6469, 35.48, -0.2699899, 210538, 0, 32.75
CTUN, 210538174, 0, 0, 0, 0.5890791, 0.08089301, 0.08089301, -1.29, 0, 0.19, 0, 0, 0
ATT, 210538231, 0, 0.85, 0, 0.39, 97.83, 97.84, 0, 1
RATE, 210538237, -3.843836, -0.002163422, -0.008873148, -1.774404, 0.02131833, -0.004240829, 0.01320063, 0.08784226, -4.404732E-05, -348.6575, -1.233387, 0
NKF1, 210538244, 0.85, 0.39, 97.84, -0.0506148, 0.06845475, -0.008608826, 0, 0, 0, -0.08089301, -0.02, 0, -0.03
NKF2, 210538244, 1, 0, 0, 0, 0, 0, 0, 0, 0, 0, 0, 0, 0
NKF3, 210538244, 0, 0, 0, -0.04, 0.16, -0.01, 0, 0, 0, 0, 0
NKF4, 210538244, 0, 0, 0, 0, 0, 4.028757E-06, 0, 0, 0, 19, 229, 0, 0
NKF5, 210538244, 0, 0, 0, 0, 0.21, 0.13, 0, 0.19, 0.5, 5.096841E-05, 0.002218807, 0.005928696
NKQ1, 210538244, 0.6570607, -0.005872697, 0.008978004, 0.7537614
AHR2, 210538288, 0.61, 0.38, 93.68, -1.29, 0, 0, 0.6840057, 0.001230568, 0.006177481, 0.7294495
MOTB, 210538296, 1, 1, 0, 1
RCIN, 210538300, 0, 0, 0, 0, 0, 0, 0, 0, 0, 0, 0, 0, 0, 0
RCOU, 210538306, 1114, 1114, 1114, 1114, 0, 0, 0, 0, 0, 0, 0, 0, 0, 0
VIBE, 210538314, 0.01720864, 0.01948621, 0.0301322, 0, 0, 0
CTRL, 210538321, 0.009053804, 0.0001519455, 0.004174472, 0.000169329, 6.915793E-05
PRX, 210538353, 2, 0.72, 0, 0.58, 0, 3.6, 0, 2.47, 0, 0, 90, 0.58
IMU, 210543337, -0.0007919738, -0.0005259137, 0.0003884144, 0.2103015, -0.03552801, -9.784515, 0, 0, 37.3303, 1, 1, 1000, 1000
IMU, 210583304, 3.184746E-05, 0.0008834626, 0.0009527389, 0.2131799, -0.02974448, -9.803539, 0, 0, 37.32848, 1, 1, 1000, 1000
RFND, 210588118, 0.2, 25, 0, 0
IMU, 210623844, 0.0001014753, 0.001411293, -0.001097553, 0.2157193, -0.03756303, -9.80439, 0, 0, 37.32776, 1, 1, 1000, 1000
MAG, 210638157, 329, 504, 214, 0, 0, 0, 0, 0, 0, 1, 210638149
RFND, 210638194, 0.2, 25, 0, 0
BARO, 210638225, -1.194967, 992.6367, 35.48, -0.02980419, 210638, 0, 32.75
CTUN, 210638237, 0, 0, 0, 0.5890791, 0.08065525, 0.08065525, -1.19, 0, 0.19, 0, 0, 0
ATT, 210638294, 0, 0.85, 0, 0.39, 97.83, 97.84, 0, 1
RATE, 210638300, -3.849211, 0.02961271, -0.009174744, -1.780612, 0.04234056, -0.004226487, 0.01323135, 0.02790718, -4.090907E-05, -370.4346, 0.1286507, 0
NKF1, 210638308, 0.85, 0.39, 97.84, -0.05292487, 0.06949213, -0.009146533, 0, 0, 0, -0.08065525, -0.02, 0, -0.03
NKF2, 210638308, 1, 0, 0, 0, 0, 0, 0, 0, 0, 0, 0, 0, 0
NKF3, 210638308, 0, 0, 0, -0.04, 0.16, -0.01, 0, 0, 0, 0, 0
NKF4, 210638308, 0, 0, 0, 0, 0, 4.465865E-06, 0, 0, 0, 19, 229, 0, 0
NKF5, 210638308, 0, 0, 0, 0, 0.21, 0.13, 0, 0.19, 0.5, 4.914039E-05, 0.002159154, 0.005768447
NKQ1, 210638308, 0.6570407, -0.005873545, 0.008992333, 0.7537786
AHR2, 210638351, 0.61, 0.38, 93.68, -1.19, 0, 0, 0.6840059, 0.001201531, 0.006203882, 0.7294491
MOTB, 210638358, 1, 1, 0, 1
RCIN, 210638362, 0, 0, 0, 0, 0, 0, 0, 0, 0, 0, 0, 0, 0, 0
RCOU, 210638368, 1138, 1138, 1138, 1138, 0, 0, 0, 0, 0, 0, 0, 0, 0, 0
VIBE, 210638376, 0.01965587, 0.0189737, 0.03710285, 0, 0, 0
CTRL, 210638383, 0.009058315, 0.0001398256, 0.004180208, 0.0002004221, 7.26025E-05
PRX, 210638416, 2, 0.72, 0, 0.58, 0, 3.6, 0, 2.48, 0, 0, 90, 0.58
IMU, 210663426, -0.0005109778, 0.0004703763, 0.0004493354, 0.2141783, -0.03959605, -9.79921, 0, 0, 37.32807, 1, 1, 1000, 1000
RFND, 210688125, 0.2, 25, 0, 0
IMU, 210703812, -0.0008733671, -0.0004355313, -0.0004374338, 0.2192583, -0.04673176, -9.790895, 0, 0, 37.32706, 1, 1, 1000, 1000
MAG, 210738136, 328, 512, 218, 0, 0, 0, 0, 0, 0, 1, 210738128
RFND, 210738172, 0.2, 25, 0, 0
BARO, 210738204, -1.211798, 992.6381, 35.48, 0.2524579, 210738, 0, 32.75
CTUN, 210738216, 0, 0, 0, 0.5890791, 0.0805173, 0.0805173, -1.21, 0, 0.19, 0, 0, 0
ATT, 210738270, 0, 0.85, 0, 0.39, 97.84, 97.85, 0, 1
RATE, 210738276, -3.852985, -0.006098603, -0.008872636, -1.783572, 0.008823818, -0.004401611, 0.01326207, 0.05526834, -7.719453E-05, -382.4088, 1.007748, 0
NKF1, 210738283, 0.85, 0.39, 97.85, -0.05455923, 0.07094079, -0.009442192, 0, 0, 0, -0.0805173, -0.02, 0, -0.03
NKF2, 210738283, 1, 0, 0, 0, 0, 0, 0, 0, 0, 0, 0, 0, 0
NKF3, 210738283, 0, 0, 0, -0.05, 0.17, -0.01, 0, 0, 0, 0, 0
NKF4, 210738283, 0, 0, 0, 0, 0, 4.916935E-06, 0, 0, 0, 19, 229, 0, 0
NKF5, 210738283, 0, 0, 0, 0, 0.21, 0.13, 0, 0.19, 0.5, 5.300304E-05, 0.00199342, 0.005229861
NKQ1, 210738283, 0.6570116, -0.005874107, 0.009002113, 0.7538038
AHR2, 210738326, 0.61, 0.38, 93.68, -1.21, 0, 0, 0.6839982, 0.001172414, 0.006223582, 0.7294563
MOTB, 210738334, 1, 1, 0, 1
RCIN, 210738338, 0, 0, 0, 0, 0, 0, 0, 0, 0, 0, 0, 0, 0, 0
RCOU, 210738344, 1162, 1162, 1162, 1162, 0, 0, 0, 0, 0, 0, 0, 0, 0, 0
VIBE, 210738352, 0.01985389, 0.02117375, 0.03426469, 0, 0, 0
CTRL, 210738358, 0.009073735, 0.0001409469, 0.004190107, 0.0001885294, 6.671978E-05
PRX, 210738392, 2, 0.72, 0, 0.58, 0, 3.6, 0, 2.47, 0, 0, 90, 0.58
IMU, 210743416, -0.0007558747, 0.0003597873, 0.0005481725, 0.2249512, -0.05246174, -9.808939, 0, 0, 37.32609, 1, 1, 1000, 1000
IMU, 210783128, 0.000567573, -0.0003456279, 0.0005877336, 0.2239898, -0.02836685, -9.803044, 0, 0, 37.32644, 1, 1, 1000, 1000
RFND, 210788015, 0.2, 25, 0, 0
IMU, 210823669, 0.00144229, -0.0003856545, 0.0002858155, 0.2118508, -0.03998234, -9.794373, 0, 0, 37.32634, 1, 1, 1000, 1000
MAG, 210838110, 326, 510, 213, 0, 0, 0, 0, 0, 0, 1, 210838102
RFND, 210838145, 0.2, 25, 0, 0
BARO, 210838176, -1.267899, 992.6448, 35.48, 0.4032314, 210838, 0, 32.75
CTUN, 210838188, 0, 0, 0, 0.5890791, 0.08039437, 0.08039437, -1.26, 0, 0.19, 0, 0, 0
ATT, 210838245, 0, 0.86, 0, 0.39, 97.84, 97.85, 0, 1
RATE, 210838250, -3.875371, -0.000678735, -0.008806068, -1.781732, 0.01640108, -0.004341827, 0.01335417, -0.01621218, -5.267141E-05, -354.577, -0.314045, 0
NKF1, 210838259, 0.86, 0.39, 97.85, -0.05674271, 0.07126147, -0.008754987, 0, 0, 0, -0.08039437, -0.02, 0, -0.03
NKF2, 210838259, 1, 0, 0, 0, 0, 0, 0, 0, 0, 0, 0, 0, 0
NKF3, 210838259, 0, 0, 0, -0.05, 0.17, -0.01, 0, 0, 0, 0, 0
NKF4, 210838259, 0, 0, 0, 0, 0, 5.39446E-06, 0, 0, 0, 19, 229, 0, 0
NKF5, 210838259, 0, 0, 0, 0, 0.21, 0.13, 0, 0.19, 0.5, 5.03666E-05, 0.001965654, 0.005165726
NKQ1, 210838259, 0.6570022, -0.005840855, 0.009031615, 0.753812
AHR2, 210838304, 0.61, 0.39, 93.68, -1.26, 0, 0, 0.6840088, 0.001178015, 0.006262389, 0.7294459
MOTB, 210838311, 1, 1, 0, 1
RCIN, 210838315, 0, 0, 0, 0, 0, 0, 0, 0, 0, 0, 0, 0, 0, 0
RCOU, 210838322, 1186, 1186, 1186, 1186, 0, 0, 0, 0, 0, 0, 0, 0, 0, 0
VIBE, 210838330, 0.04096267, 0.04823063, 0.04135535, 0, 0, 0
CTRL, 210838337, 0.009124272, 0.0001633793, 0.004186043, 0.0001908245, 7.296418E-05
PRX, 210838369, 2, 0.72, 0, 0.58, 0, 0.54, 0, 2.47, 0, 0, 180, 0.54
IMU, 210863280, 0.001856218, 0.004455684, -0.001525922, 0.1636854, -0.02676398, -9.794863, 0, 0, 37.32645, 1, 1, 1000, 1000
RFND, 210888122, 0.2, 25, 0, 0
IMU, 210903852, -0.002329961, 0.00153979, 0.005201961, 0.4900294, -0.06312691, -9.857344, 0, 0, 37.32611, 1, 1, 1000, 1000
MAG, 210938065, 327, 508, 220, 0, 0, 0, 0, 0, 0, 1, 210938057
RFND, 210938115, 0.2, 25, 0, 0
BARO, 210938145, -1.352052, 992.6537, 35.48, 0.2103817, 210938, 0, 32.75
CTUN, 210938157, 0, 0, 0, 0.5890791, 0.08021645, 0.08021645, -1.35, 0, 0.19, 0, 0, 0
ATT, 210938209, 0, 0.85, 0, 0.42, 97.88, 97.9, 0, 1
RATE, 210938214, -3.864447, 0.08062634, -0.008880733, -1.903665, 0.1686045, -0.004890305, 0.01418417, 0.07683093, -0.0006294905, -385.406, -4.189777, 0
NKF1, 210938221, 0.85, 0.42, 97.9, -0.05984031, 0.07111859, -0.009516198, 0, 0, 0, -0.08021646, -0.02, 0, -0.03
NKF2, 210938221, 1, 0, 0, 0, 0, 0, 0, 0, 0, 0, 0, 0, 0
NKF3, 210938221, 0, 0, 0, -0.06, 0.18, -0.01, 0, 0, 0, 0, 0
NKF4, 210938221, 0, 0, 0, 0, 0, 5.966665E-06, 0, 0, 0, 19, 229, 0, 0
NKF5, 210938221, 0, 0, 0, 0, 0.21, 0.13, 0, 0.19, 0.5, 5.494817E-05, 0.00179585, 0.00460194
NKQ1, 210938221, 0.6566936, -0.006039014, 0.009171594, 0.7540776
AHR2, 210938265, 0.61, 0.42, 93.72, -1.35, 0, 0, 0.6837325, 0.0009521443, 0.006426682, 0.7297039
MOTB, 210938272, 1, 1, 0, 1
RCIN, 210938276, 0, 0, 0, 0, 0, 0, 0, 0, 0, 0, 0, 0, 0, 0
RCOU, 210938281, 1210, 1210, 1210, 1210, 0, 0, 0, 0, 0, 0, 0, 0, 0, 0
VIBE, 210938290, 0.4111718, 0.3362948, 0.3447857, 0, 0, 0
CTRL, 210938297, 0.009120625, 0.0004670919, 0.004447134, 0.0005278527, 0.0007669068
PRX, 210938328, 2, 0.72, 0, 0.58, 0, 0.54, 0, 2.45, 0, 0, 180, 0.54
IMU, 210943189, -0.005643378, 0.001750457, 0.0006262755, 0.2120827, -0.0332592, -9.776093, 0, 0, 37.32504, 1, 1, 1000, 1000
IMU, 210983015, 0.00158899, 0.006507023, -0.006228215, 0.2017687, -0.02603209, -9.771894, 0, 0, 37.32439, 1, 1, 1000, 1000
RFND, 210988023, 0.2, 25, 0, 0
IMU, 211023321, -0.0004706254, 0.00304224, -0.00152664, 0.2298593, -0.01693741, -9.790953, 0, 0, 37.32463, 1, 1, 1000, 1000
MAG, 211038220, 333, 506, 216, 0, 0, 0, 0, 0, 0, 1, 211038212
RFND, 211038255, 0.2, 25, 0, 0
BARO, 211038285, -1.363272, 992.6554, 35.48, -0.1981092, 211038, 0, 32.75
CTUN, 211038297, 0, 0, 0, 0.5890791, 0.08015019, 0.08015019, -1.36, 0, 0.19, 0, 0, 0
ATT, 211038351, 0, 0.85, 0, 0.43, 97.87, 97.89, 0, 1
RATE, 211038357, -3.846574, 0.03142687, -0.009936087, -1.967971, 0.3860568, -0.006497173, 0.01466073, 0.4382788, -0.0001045767, -296.3808, -1.502323, 0
NKF1, 211038365, 0.85, 0.43, 97.89, -0.06321637, 0.07210223, -0.007318043, 0, 0, 0, -0.08015019, -0.02, 0, -0.03
NKF2, 211038365, 1, 0, 0, 0, 0, 0, 0, 0, 0, 0, 0, 0, 0
NKF3, 211038365, 0, 0, 0, -0.06, 0.18, -0.01, 0, 0, 0, 0, 0
NKF4, 211038365, 0, 0, 0, 0, 0, 6.477493E-06, 0, 0, 0, 19, 229, 0, 0
NKF5, 211038365, 0, 0, 0, 0, 0.21, 0.13, 0, 0.19, 0.5, 5.178495E-05, 0.001794248, 0.004626638
NKQ1, 211038365, 0.6567598, -0.006166492, 0.00923041, 0.7540181
AHR2, 211038409, 0.6, 0.44, 93.71, -1.36, 0, 0, 0.6838174, 0.0007938673, 0.006503212, 0.7296238
MOTB, 211038416, 1, 1, 0, 1
RCIN, 211038420, 0, 0, 0, 0, 0, 0, 0, 0, 0, 0, 0, 0, 0, 0
RCOU, 211038426, 1238, 1232, 1221, 1248, 0, 0, 0, 0, 0, 0, 0, 0, 0, 0
VIBE, 211038434, 0.5622522, 0.512341, 0.565012, 0, 0, 0
CTRL, 211038441, 0.009049371, 0.0006861483, 0.004608765, 0.0007263385, 0.0006634257
PRX, 211038472, 2, 0.71, 0, 0.58, 0, 3.6, 0, 2.48, 0, 0, 90, 0.58
IMU, 211063167, -0.0009804845, -1.25826E-05, -0.01587434, 0.2618279, -0.0811733, -9.831206, 0, 0, 37.32463, 1, 1, 1000, 1000
RFND, 211088050, 0.2, 25, 0, 0
IMU, 211104067, -0.00287304, 0.002414434, 0.007703482, 0.2180069, -0.04123267, -9.747427, 0, 0, 37.32481, 1, 1, 1000, 1000
MAG, 211138029, 328, 503, 219, 0, 0, 0, 0, 0, 0, 1, 211138021
RFND, 211138063, 0.2, 25, 0, 0
BARO, 211138103, -1.396933, 992.6588, 35.48, -0.4628394, 211138, 0, 32.75
CTUN, 211138115, 0, 0, 0, 0.5890791, 0.07972309, 0.07972309, -1.39, 0, 0.19, 0, 0, 0
ATT, 211138164, 0, 0.84, 0, 0.45, 97.84, 97.85, 0, 1
RATE, 211138170, -3.81592, 0.1343633, -0.009756773, -2.048194, 0.3396315, -0.006429305, 0.01504509, -0.214681, 0.0007269434, -203.0275, -0.03595352, 0
NKF1, 211138178, 0.84, 0.45, 97.85, -0.06278972, 0.07441321, -0.005013024, 0, 0, 0, -0.07972309, -0.02, 0, -0.03
NKF2, 211138178, 1, 0, 0, 0, 0, 0, 0, 0, 0, 0, 0, 0, 0
NKF3, 211138178, 0, 0, 0, -0.07, 0.2, -0.01, 0, 0, 0, 0, 0
NKF4, 211138178, 0, 0, 0, 0, 0, 7.170725E-06, 0, 0, 0, 19, 229, 0, 0
NKF5, 211138178, 0, 0, 0, 0, 0.21, 0.13, 0, 0.19, 0.5, 5.710831E-05, 0.001625758, 0.00405759
NKQ1, 211138178, 0.6569886, -0.006299324, 0.009284969, 0.7538171
AHR2, 211138221, 0.59, 0.46, 93.67, -1.39, 0, 0, 0.6840599, 0.0006244261, 0.006575469, 0.729396
MOTB, 211138228, 1, 1, 0, 1
RCIN, 211138233, 0, 0, 0, 0, 0, 0, 0, 0, 0, 0, 0, 0, 0, 0
RCOU, 211138239, 1239, 1233, 1221, 1248, 0, 0, 0, 0, 0, 0, 0, 0, 0, 0
VIBE, 211138247, 0.4595075, 0.467878, 0.5577009, 0, 0, 0
CTRL, 211138253, 0.009003264, 0.0006324626, 0.004804969, 0.0009611657, 0.0006382365
PRX, 211138285, 2, 0.72, 0, 0.58, 0, 3.6, 0, 2.45, 0, 0, 90, 0.58
IMU, 211143457, 0.002282284, 0.004471842, -0.001072182, 0.205787, -0.03722719, -9.813608, 0, 0, 37.32408, 1, 1, 1000, 1000
IMU, 211183276, 0.001743608, 0.003138629, -0.01420457, 0.1775209, 0.0137603, -9.826125, 0, 0, 37.32333, 1, 1, 1000, 1000
RFND, 211188094, 0.2, 25, 0, 0
IMU, 211223545, -0.0004467794, -0.002967793, -0.02672851, 0.2059568, -0.1514753, -9.87449, 0, 0, 37.32357, 1, 1, 1000, 1000
MAG, 211238153, 326, 506, 222, 0, 0, 0, 0, 0, 0, 1, 211238145
RFND, 211238189, 0.2, 25, 0, 0
BARO, 211238221, -1.458645, 992.6655, 35.48, -0.4628395, 211238, 0, 32.75
CTUN, 211238233, 0, 0, 0, 0.5890791, 0.07949457, 0.07949457, -1.45, 0, 0.19, 0, 0, 0
ATT, 211238288, 0, 0.84, 0, 0.47, 97.81, 97.83, 0, 1
RATE, 211238295, -3.785782, -0.3972934, -0.006183289, -2.140786, 0.4898002, -0.007937901, 0.01552168, -0.5590739, 0.00130891, -243.1522, -5.913353, 0
NKF1, 211238302, 0.84, 0.47, 97.83, -0.06631389, 0.07490417, -0.006003757, 0, 0, 0, -0.07949457, -0.02, 0, -0.03
NKF2, 211238302, 1, 0, 0, 0, 0, 0, 0, 0, 0, 0, 0, 0, 0
NKF3, 211238302, 0, 0, 0, -0.08, 0.21, -0.01, 0, 0, 0, 0, 0
NKF4, 211238302, 0, 0, 0, 0, 0, 7.726798E-06, 0, 0, 0, 19, 229, 0, 0
NKF5, 211238302, 0, 0, 0, 0, 0.21, 0.13, 0, 0.19, 0.5, 6.32073E-05, 0.001541935, 0.003638323
NKQ1, 211238302, 0.6571562, -0.006459874, 0.009358388, 0.7536687
AHR2, 211238345, 0.59, 0.48, 93.64, -1.45, 0, 0, 0.6842433, 0.0004284381, 0.006666095, 0.7292233
MOTB, 211238352, 1, 1, 0, 1
RCIN, 211238356, 0, 0, 0, 0, 0, 0, 0, 0, 0, 0, 0, 0, 0, 0
RCOU, 211238361, 1234, 1237, 1221, 1245, 0, 0, 0, 0, 0, 0, 0, 0, 0, 0
VIBE, 211238370, 0.3764029, 0.48681, 0.4596555, 0, 0, 0
CTRL, 211238377, 0.0090003, 0.0006572253, 0.004978064, 0.001041929, 0.0006716649
PRX, 211238410, 2, 0.72, 0, 0.58, 0, 3.6, 0, 2.48, 0, 0, 90, 0.58
IMU, 211263283, 0.00344584, 0.001075698, 0.01987419, 0.1626068, -0.09111426, -9.775517, 0, 0, 37.32347, 1, 1, 1000, 1000
RFND, 211288064, 0.2, 25, 0, 0
IMU, 211303473, 0.01397384, 0.006756569, 0.01213122, 0.2994003, -0.03960706, -9.811093, 0, 0, 37.32355, 1, 1, 1000, 1000
MAG, 211338169, 327, 510, 217, 0, 0, 0, 0, 0, 0, 1, 211338161
RFND, 211338204, 0.2, 25, 0, 0
BARO, 211338234, -1.385713, 992.6573, 35.48, -0.3629081, 211338, 0, 32.75
CTUN, 211338247, 0, 0, 0, 0.5890791, 0.07904305, 0.07904305, -1.38, 0, 0.19, 0, 0, 0
DU32, 211338266, 7, 33611992
ATT, 211338362, 0, 0.84, 0, 0.47, 97.85, 97.86, 0, 1
RATE, 211338368, -3.819713, -0.05302555, -0.01240517, -2.15634, 0.4630278, -0.01159179, 0.01590576, -0.1196285, -0.0003347959, -213.0797, 2.6618, 0
NKF1, 211338376, 0.84, 0.47, 97.86, -0.06877809, 0.07604582, -0.005261228, 0, 0, 0, -0.07904305, -0.02, 0, -0.03
NKF2, 211338376, 1, 0, 0, 0, 0, 0, 0, 0, 0, 0, 0, 0, 0
NKF3, 211338376, 0, 0, 0, -0.08, 0.21, -0.01, 0, 0, 0, 0, 0
NKF4, 211338376, 0, 0, 0, 0, 0, 8.54625E-06, 0, 0, 0, 19, 229, 0, 0
NKF5, 211338376, 0, 0, 0, 0, 0.21, 0.13, 0, 0.19, 0.5, 5.947818E-05, 0.001480236, 0.003556346
NKQ1, 211338376, 0.6569279, -0.006456349, 0.00942823, 0.7538669
AHR2, 211338421, 0.59, 0.49, 93.67, -1.38, 0, 0, 0.6840431, 0.0004013281, 0.006729077, 0.7294105
MOTB, 211338428, 1, 1, 0, 1
RCIN, 211338433, 0, 0, 0, 0, 0, 0, 0, 0, 0, 0, 0, 0, 0, 0
RCOU, 211338438, 1241, 1240, 1221, 1260, 0, 0, 0, 0, 0, 0, 0, 0, 0, 0
VIBE, 211338447, 0.4045898, 0.4483582, 0.4656313, 0, 0, 0
CTRL, 211338453, 0.008981686, 0.001697064, 0.004987365, 0.001531887, 0.0006400224
PRX, 211338486, 2, 0.72, 0, 0.58, 0, 3.6, 0, 2.48, 0, 0, 90, 0.58
IMU, 211343532, 0.006169254, 0.01267274, -0.006325895, 0.4047321, 0.02502376, -9.790685, 0, 0, 37.32359, 1, 1, 1000, 1000
IMU, 211383114, -0.0120764, 0.00389403, -0.005335244, 0.5383497, -0.005166915, -9.848885, 0, 0, 37.32302, 1, 1, 1000, 1000
RFND, 211387997, 0.2, 25, 0, 0
IMU, 211423401, 0.005080325, 0.004268577, -0.02209006, 0.3989781, -0.0218076, -9.754801, 0, 0, 37.32186, 1, 1, 1000, 1000
MAG, 211438024, 323, 510, 219, 0, 0, 0, 0, 0, 0, 1, 211438016
RFND, 211438059, 0.2, 25, 0, 0
BARO, 211438103, -1.324001, 992.6506, 35.48, -0.2086283, 211438, 0, 32.75
CTUN, 211438116, 0, 0, 0, 0.5890791, 0.07868087, 0.07868087, -1.32, 0, 0.19, 0, 0, 0
ATT, 211438166, 0, 0.85, 0, 0.45, 97.86, 97.87, 0, 1
RATE, 211438172, -3.84519, -0.5343432, -0.005282156, -2.041898, -0.6136357, -0.0007978473, 0.01529091, 1.145253, -9.494523E-06, -208.8304, -0.6056786, 0
NKF1, 211438180, 0.85, 0.45, 97.87, -0.06971265, 0.07293265, -0.005156305, 0, 0, 0, -0.07868087, -0.02, 0, -0.03
NKF2, 211438180, 1, 0, 0, 0, 0, 0, 0, 0, 0, 0, 0, 0, 0
NKF3, 211438180, 0, 0, 0, -0.09, 0.22, -0.01, 0, 0, 0, 0, 0
NKF4, 211438180, 0, 0, 0, 0, 0, 9.227921E-06, 0, 0, 0, 19, 229, 0, 0
NKF5, 211438180, 0, 0, 0, 0, 0.21, 0.13, 0, 0.19, 0.5, 6.652246E-05, 0.001415326, 0.00321
NKQ1, 211438180, 0.6568678, -0.00629775, 0.009328321, 0.7539217
AHR2, 211438223, 0.59, 0.47, 93.68, -1.32, 0, 0, 0.6840034, 0.0005249999, 0.006615988, 0.7294486
MOTB, 211438232, 1, 1, 0, 1
RCIN, 211438236, 0, 0, 0, 0, 0, 0, 0, 0, 0, 0, 0, 0, 0, 0
RCOU, 211438242, 1230, 1222, 1221, 1231, 0, 0, 0, 0, 0, 0, 0, 0, 0, 0
VIBE, 211438250, 0.4643886, 0.4772362, 0.4683426, 0, 0, 0
CTRL, 211438257, 0.009147878, 0.002093527, 0.004947194, 0.001845536, 0.0005386436
PRX, 211438289, 2, 0.72, 0, 0.58, 0, 3.6, 0, 2.47, 0, 0, 90, 0.58
IMU, 211463402, 0.006538776, 0.005685096, -3.677979E-05, 0.2807315, 0.0794632, -9.790293, 0, 0, 37.31982, 1, 1, 1000, 1000
RFND, 211488182, 0.2, 25, 0, 0
IMU, 211503429, -0.009973737, -0.006450687, 0.01406448, 0.07231733, 0.03245606, -9.783865, 0, 0, 37.3158, 1, 1, 1000, 1000
MAG, 211538151, 329, 506, 221, 0, 0, 0, 0, 0, 0, 1, 211538143
RFND, 211538187, 0.2, 25, 0, 0
BARO, 211538218, -1.335222, 992.652, 35.48, 0.07188037, 211538, 0, 32.75
CTUN, 211538231, 0, 0, 0, 0.5890791, 0.07810767, 0.07810767, -1.33, 0, 0.19, 0, 0, 0
ATT, 211538288, 0, 0.86, 0, 0.45, 97.85, 97.86, 0, 1
RATE, 211538294, -3.891026, -0.03933969, -0.008296516, -2.042329, -0.7115916, -0.0007859331, 0.01541361, 0.5741156, -6.968997E-05, -81.86797, 0.3582954, 0
NKF1, 211538301, 0.86, 0.45, 97.86, -0.06834371, 0.07031059, -0.002021431, 0, 0, 0, -0.07810767, -0.02, 0, -0.03
NKF2, 211538301, 1, 0, 0, 0, 0, 0, 0, 0, 0, 0, 0, 0, 0
NKF3, 211538301, 0, 0, 0, -0.09, 0.22, -0.01, 0, 0, 0, 0, 0
NKF4, 211538301, 0, 0, 0, 0, 0, 1.007336E-05, 0, 0, 0, 19, 229, 0, 0
