FMT, 128, 89, FMT, BBnNZ, Type,Length,Name,Format,Columns
FMT, 129, 31, PARM, QNf, TimeUS,Name,Value
FMT, 130, 46, GPS, QBIHBcLLefffB, TimeUS,Status,GMS,GWk,NSats,HDop,Lat,Lng,Alt,Spd,GCrs,VZ,U
FMT, 131, 46, GPS2, QBIHBcLLefffB, TimeUS,Status,GMS,GWk,NSats,HDop,Lat,Lng,Alt,Spd,GCrs,VZ,U
FMT, 132, 46, GPSB, QBIHBcLLefffB, TimeUS,Status,GMS,GWk,NSats,HDop,Lat,Lng,Alt,Spd,GCrs,VZ,U
FMT, 193, 24, GPA, QCCCCBI, TimeUS,VDop,HAcc,VAcc,SAcc,VV,SMS
FMT, 194, 24, GPA2, QCCCCBI, TimeUS,VDop,HAcc,VAcc,SAcc,VV,SMS
FMT, 195, 24, GPAB, QCCCCBI, TimeUS,VDop,HAcc,VAcc,SAcc,VV,SMS
FMT, 133, 53, IMU, QffffffIIfBBHH, TimeUS,GyrX,GyrY,GyrZ,AccX,AccY,AccZ,EG,EA,T,GH,AH,GHz,AHz
FMT, 134, 75, MSG, QZ, TimeUS,Message
FMT, 135, 39, RCIN, QHHHHHHHHHHHHHH, TimeUS,C1,C2,C3,C4,C5,C6,C7,C8,C9,C10,C11,C12,C13,C14
FMT, 136, 39, RCOU, QHHHHHHHHHHHHHH, TimeUS,C1,C2,C3,C4,C5,C6,C7,C8,C9,C10,C11,C12,C13,C14
FMT, 137, 15, RSSI, Qf, TimeUS,RXRSSI
FMT, 139, 37, BARO, QffcfIff, TimeUS,Alt,Press,Temp,CRt,SMS,Offset,GndTemp
FMT, 140, 22, POWR, QffHB, TimeUS,Vcc,VServo,Flags,Safety
FMT, 143, 45, CMD, QHHHfffffff, TimeUS,CTot,CNum,CId,Prm1,Prm2,Prm3,Prm4,Lat,Lng,Alt
FMT, 144, 20, RAD, QBBBBBHH, TimeUS,RSSI,RemRSSI,TxBuf,Noise,RemNoise,RxErrors,Fixed
FMT, 146, 43, CAM, QIHLLeeeccC, TimeUS,GPSTime,GPSWeek,Lat,Lng,Alt,RelAlt,GPSAlt,Roll,Pitch,Yaw
FMT, 232, 43, TRIG, QIHLLeeeccC, TimeUS,GPSTime,GPSWeek,Lat,Lng,Alt,RelAlt,GPSAlt,Roll,Pitch,Yaw
FMT, 162, 30, ARSP, QffcffB, TimeUS,Airspeed,DiffPress,Temp,RawPress,Offset,U
FMT, 164, 45, CURR, QfffcHHHHHHHHHH, TimeUS,Volt,Curr,CurrTot,Temp,V1,V2,V3,V4,V5,V6,V7,V8,V9,V10
FMT, 165, 45, CUR2, QfffcHHHHHHHHHH, TimeUS,Volt,Curr,CurrTot,Temp,V1,V2,V3,V4,V5,V6,V7,V8,V9,V10
FMT, 163, 27, ATT, QccccCCCC, TimeUS,DesRoll,Roll,DesPitch,Pitch,DesYaw,Yaw,ErrRP,ErrYaw
FMT, 166, 34, MAG, QhhhhhhhhhBI, TimeUS,MagX,MagY,MagZ,OfsX,OfsY,OfsZ,MOfsX,MOfsY,MOfsZ,Health,S
FMT, 169, 14, MODE, QMBB, TimeUS,Mode,ModeNum,Rsn
FMT, 196, 17, RFND, QCBCB, TimeUS,Dist1,Orient1,Dist2,Orient2
FMT, 223, 33, DMS, IIIIIBBBBBBBBBB, TimeMS,N,Dp,RT,RS,Er,Fa,Fmn,Fmx,Pa,Pmn,Pmx,Sa,Smn,Smx
FMT, 240, 41, BCN, QBBfffffff, TimeUS,Health,Cnt,D0,D1,D2,D3,PosX,PosY,PosZ
FMT, 138, 53, IMU2, QffffffIIfBBHH, TimeUS,GyrX,GyrY,GyrZ,AccX,AccY,AccZ,EG,EA,T,GH,AH,GHz,AHz
FMT, 147, 53, IMU3, QffffffIIfBBHH, TimeUS,GyrX,GyrY,GyrZ,AccX,AccY,AccZ,EG,EA,T,GH,AH,GHz,AHz
FMT, 141, 45, AHR2, QccCfLLffff, TimeUS,Roll,Pitch,Yaw,Alt,Lat,Lng,Q1,Q2,Q3,Q4
FMT, 180, 31, POS, QLLfff, TimeUS,Lat,Lng,Alt,RelHomeAlt,RelOriginAlt
FMT, 142, 45, SIM, QccCfLLffff, TimeUS,Roll,Pitch,Yaw,Alt,Lat,Lng,Q1,Q2,Q3,Q4
FMT, 198, 51, NKF1, QccCfffffffccc, TimeUS,Roll,Pitch,Yaw,VN,VE,VD,dPD,PN,PE,PD,GX,GY,GZ
FMT, 199, 35, NKF2, QbccccchhhhhhB, TimeUS,AZbias,GSX,GSY,GSZ,VWN,VWE,MN,ME,MD,MX,MY,MZ,MI
FMT, 200, 33, NKF3, Qcccccchhhcc, TimeUS,IVN,IVE,IVD,IPN,IPE,IPD,IMX,IMY,IMZ,IYAW,IVT
FMT, 201, 35, NKF4, QcccccfbbHBHHb, TimeUS,SV,SP,SH,SM,SVT,errRP,OFN,OFE,FS,TS,SS,GPS,PI
FMT, 202, 40, NKF5, QBhhhcccCCfff, TimeUS,NI,FIX,FIY,AFI,HAGL,offset,RI,rng,Herr,eAng,eVel,ePos
FMT, 203, 51, NKF6, QccCfffffffccc, TimeUS,Roll,Pitch,Yaw,VN,VE,VD,dPD,PN,PE,PD,GX,GY,GZ
FMT, 204, 35, NKF7, QbccccchhhhhhB, TimeUS,AZbias,GSX,GSY,GSZ,VWN,VWE,MN,ME,MD,MX,MY,MZ,MI
FMT, 205, 33, NKF8, Qcccccchhhcc, TimeUS,IVN,IVE,IVD,IPN,IPE,IPD,IMX,IMY,IMZ,IYAW,IVT
FMT, 206, 35, NKF9, QcccccfbbHBHHb, TimeUS,SV,SP,SH,SM,SVT,errRP,OFN,OFE,FS,TS,SS,GPS,PI
FMT, 207, 36, NKF0, QBccCCcccccccc, TimeUS,ID,rng,innov,SIV,TR,BPN,BPE,BPD,OFH,OFL,OFN,OFE,OFD
FMT, 208, 27, NKQ1, Qffff, TimeUS,Q1,Q2,Q3,Q4
FMT, 209, 27, NKQ2, Qffff, TimeUS,Q1,Q2,Q3,Q4
FMT, 210, 51, XKF1, QccCfffffffccc, TimeUS,Roll,Pitch,Yaw,VN,VE,VD,dPD,PN,PE,PD,GX,GY,GZ
FMT, 211, 34, XKF2, QccccchhhhhhB, TimeUS,AX,AY,AZ,VWN,VWE,MN,ME,MD,MX,MY,MZ,MI
FMT, 212, 33, XKF3, Qcccccchhhcc, TimeUS,IVN,IVE,IVD,IPN,IPE,IPD,IMX,IMY,IMZ,IYAW,IVT
FMT, 213, 35, XKF4, QcccccfbbHBHHb, TimeUS,SV,SP,SH,SM,SVT,errRP,OFN,OFE,FS,TS,SS,GPS,PI
FMT, 214, 40, XKF5, QBhhhcccCCfff, TimeUS,NI,FIX,FIY,AFI,HAGL,offset,RI,rng,Herr,eAng,eVel,ePos
FMT, 215, 51, XKF6, QccCfffffffccc, TimeUS,Roll,Pitch,Yaw,VN,VE,VD,dPD,PN,PE,PD,GX,GY,GZ
FMT, 216, 34, XKF7, QccccchhhhhhB, TimeUS,AX,AY,AZ,VWN,VWE,MN,ME,MD,MX,MY,MZ,MI
FMT, 217, 33, XKF8, Qcccccchhhcc, TimeUS,IVN,IVE,IVD,IPN,IPE,IPD,IMX,IMY,IMZ,IYAW,IVT
FMT, 218, 35, XKF9, QcccccfbbHBHHb, TimeUS,SV,SP,SH,SM,SVT,errRP,OFN,OFE,FS,TS,SS,GPS,PI
FMT, 219, 36, XKF0, QBccCCcccccccc, TimeUS,ID,rng,innov,SIV,TR,BPN,BPE,BPD,OFH,OFL,OFN,OFE,OFD
FMT, 220, 27, XKQ1, Qffff, TimeUS,Q1,Q2,Q3,Q4
FMT, 221, 27, XKQ2, Qffff, TimeUS,Q1,Q2,Q3,Q4
FMT, 222, 35, XKFD, Qffffff, TimeUS,IX,IY,IZ,IVX,IVY,IVZ
FMT, 148, 34, TERR, QBLLHffHH, TimeUS,Status,Lat,Lng,Spacing,TerrH,CHeight,Pending,Loaded
FMT, 149, 18, UBX1, QBHBBH, TimeUS,Instance,noisePerMS,jamInd,aPower,agcCnt
FMT, 150, 16, UBX2, QBbBbB, TimeUS,Instance,ofsI,magI,ofsQ,magQ
FMT, 151, 18, UBY1, QBHBBH, TimeUS,Instance,noisePerMS,jamInd,aPower,agcCnt
FMT, 152, 16, UBY2, QBbBbB, TimeUS,Instance,ofsI,magI,ofsQ,magQ
FMT, 170, 42, GRAW, QIHBBddfBbB, TimeUS,WkMS,Week,numSV,sv,cpMes,prMes,doMes,mesQI,cno,lli
FMT, 171, 24, GRXH, QdHbBB, TimeUS,rcvTime,week,leapS,numMeas,recStat
FMT, 172, 41, GRXS, QddfBBBHBBBBB, TimeUS,prMes,cpMes,doMes,gnss,sv,freq,lock,cno,prD,cpD,doD,trk
FMT, 173, 63, SBFE, QIHBBdddfffff, TimeUS,TOW,WN,Mode,Err,Lat,Lng,Height,Undul,Vn,Ve,Vu,COG
FMT, 153, 19, ESC1, Qcccc, TimeUS,RPM,Volt,Curr,Temp
FMT, 154, 19, ESC2, Qcccc, TimeUS,RPM,Volt,Curr,Temp
FMT, 155, 19, ESC3, Qcccc, TimeUS,RPM,Volt,Curr,Temp
FMT, 156, 19, ESC4, Qcccc, TimeUS,RPM,Volt,Curr,Temp
FMT, 157, 19, ESC5, Qcccc, TimeUS,RPM,Volt,Curr,Temp
FMT, 158, 19, ESC6, Qcccc, TimeUS,RPM,Volt,Curr,Temp
FMT, 159, 19, ESC7, Qcccc, TimeUS,RPM,Volt,Curr,Temp
FMT, 160, 19, ESC8, Qcccc, TimeUS,RPM,Volt,Curr,Temp
FMT, 167, 34, MAG2, QhhhhhhhhhBI, TimeUS,MagX,MagY,MagZ,OfsX,OfsY,OfsZ,MOfsX,MOfsY,MOfsZ,Health,S
FMT, 168, 34, MAG3, QhhhhhhhhhBI, TimeUS,MagX,MagY,MagZ,OfsX,OfsY,OfsZ,MOfsX,MOfsY,MOfsZ,Health,S
FMT, 174, 31, ACC1, QQfff, TimeUS,SampleUS,AccX,AccY,AccZ
FMT, 175, 31, ACC2, QQfff, TimeUS,SampleUS,AccX,AccY,AccZ
FMT, 176, 31, ACC3, QQfff, TimeUS,SampleUS,AccX,AccY,AccZ
FMT, 177, 31, GYR1, QQfff, TimeUS,SampleUS,GyrX,GyrY,GyrZ
FMT, 178, 31, GYR2, QQfff, TimeUS,SampleUS,GyrX,GyrY,GyrZ
FMT, 179, 31, GYR3, QQfff, TimeUS,SampleUS,GyrX,GyrY,GyrZ
FMT, 181, 35, PIDR, Qffffff, TimeUS,Des,P,I,D,FF,AFF
FMT, 182, 35, PIDP, Qffffff, TimeUS,Des,P,I,D,FF,AFF
FMT, 183, 35, PIDY, Qffffff, TimeUS,Des,P,I,D,FF,AFF
FMT, 184, 35, PIDA, Qffffff, TimeUS,Des,P,I,D,FF,AFF
FMT, 185, 35, PIDS, Qffffff, TimeUS,Des,P,I,D,FF,AFF
FMT, 186, 35, PIDL, Qffffff, TimeUS,Des,P,I,D,FF,AFF
FMT, 161, 37, BAR2, QffcfIff, TimeUS,Alt,Press,Temp,CRt,SMS,Offset,GndTemp
FMT, 197, 37, BAR3, QffcfIff, TimeUS,Alt,Press,Temp,CRt,SMS,Offset,GndTemp
FMT, 187, 35, VIBE, QfffIII, TimeUS,VibeX,VibeY,VibeZ,Clip0,Clip1,Clip2
FMT, 188, 47, IMT, Qfffffffff, TimeUS,DelT,DelvT,DelaT,DelAX,DelAY,DelAZ,DelVX,DelVY,DelVZ
FMT, 189, 47, IMT2, Qfffffffff, TimeUS,DelT,DelvT,DelaT,DelAX,DelAY,DelAZ,DelVX,DelVY,DelVZ
FMT, 190, 47, IMT3, Qfffffffff, TimeUS,DelT,DelvT,DelaT,DelAX,DelAY,DelAZ,DelVX,DelVY,DelVZ
FMT, 191, 24, ORGN, QBLLe, TimeUS,Type,Lat,Lng,Alt
FMT, 192, 19, RPM, Qff, TimeUS,rpm1,rpm2
FMT, 233, 47, GMB1, Iffffffffff, TimeMS,dt,dax,day,daz,dvx,dvy,dvz,jx,jy,jz
FMT, 234, 44, GMB2, IBfffffffff, TimeMS,es,ex,ey,ez,rx,ry,rz,tx,ty,tz
FMT, 235, 13, GMB3, Ihhh, TimeMS,rl_torque_cmd,el_torque_cmd,az_torque_cmd
FMT, 236, 59, RATE, Qffffffffffff, TimeUS,RDes,R,ROut,PDes,P,POut,YDes,Y,YOut,ADes,A,AOut
FMT, 237, 23, RALY, QBBLLh, TimeUS,Tot,Seq,Lat,Lng,Alt
FMT, 238, 43, VISO, Qffffffff, TimeUS,dt,AngDX,AngDY,AngDZ,PosDX,PosDY,PosDZ,conf
FMT, 224, 23, SBPH, QIII, TimeUS,CrcError,LastInject,IARhyp
FMT, 229, 80, SBR1, QHHBZ, TimeUS,msg_type,sender_id,msg_len,d1
FMT, 230, 205, SBR2, QHZZZ, TimeUS,msg_type,d2,d3,d4
FMT, 25, 41, ATUN, QBBfffffff, TimeUS,Axis,TuneStep,Targ,Min,Max,RP,RD,SP,ddt
FMT, 26, 19, ATDE, Qff, TimeUS,Angle,Rate
FMT, 31, 22, PTUN, QBfHHH, TimeUS,Param,TunVal,CtrlIn,TunLo,TunHi
FMT, 12, 28, OF, QBffff, TimeUS,Qual,flowX,flowY,bodyX,bodyY
FMT, 5, 51, NTUN, Qffffffffff, TimeUS,DPosX,DPosY,PosX,PosY,DVelX,DVelY,VelX,VelY,DAccX,DAccY
FMT, 4, 51, CTUN, Qffffffeccfhh, TimeUS,ThI,ABst,ThO,ThH,DAlt,Alt,BAlt,DSAlt,SAlt,TAlt,DCRt,CRt
FMT, 6, 32, PM, QHHIhBHII, TimeUS,NLon,NLoop,MaxT,PMT,I2CErr,INSErr,LogDrop,Mem
FMT, 30, 27, MOTB, Qffff, TimeUS,LiftMax,BatVolt,BatRes,ThLimit
FMT, 13, 12, EV, QB, TimeUS,Id
FMT, 20, 14, D16, QBh, TimeUS,Id,Value
FMT, 21, 14, DU16, QBH, TimeUS,Id,Value
FMT, 22, 16, D32, QBi, TimeUS,Id,Value
FMT, 23, 16, DU32, QBI, TimeUS,Id,Value
FMT, 24, 16, DFLT, QBf, TimeUS,Id,Value
FMT, 19, 13, ERR, QBB, TimeUS,Subsys,ECode
FMT, 32, 19, HELI, Qff, TimeUS,DRRPM,ERRPM
FMT, 33, 29, PL, QBBffff, TimeUS,Heal,TAcq,pX,pY,vX,vY
FMT, 34, 36, GUID, QBffffff, TimeUS,Type,pX,pY,pZ,vX,vY,vZ
FMT, 35, 32, THRO, QBffffbbbb, TimeUS,Stage,Vel,VelZ,Acc,AccEfZ,Throw,AttOk,HgtOk,PosOk
FMT, 36, 56, PRX, QBfffffffffff, TimeUS,Health,D0,D45,D90,D135,D180,D225,D270,D315,DUp,CAn,CDis
MODE, 18308744, 100, 100, 2
MAG, 18371906, 401, 548, 335, 0, 0, 0, 0, 0, 0, 1, 18371897
RFND, 18371937, 0.2, 25, 0, 0
BARO, 18371975, 0.3373654, 992.6264, 28.8, -0.02851706, 18371, 0, 28.41
CTUN, 18371989, 0, 0, 0, 0.5423428, 0.07107767, 0.07107767, 0.33, 0, 0.19, 0, 0, 0
ATT, 18372088, 0, 0.52, 0, 0.68, 359.97, 359.99, 0, 1
RATE, 18372094, -2.382802, -0.09758957, -0.004955502, -3.095622, -0.01484463, -0.007144573, 0.01549297, 0.002908253, 2.264134E-05, -7.597574, -0.444603, 0
NKF1, 18372102, 0.52, 0.68, 359.98, 0.0003661642, -0.002905379, -0.0001875944, 0, 0, 0, -0.07107767, -0.02, 0, 0
NKF2, 18372102, 1, 0, 0, 0, 0, 0, 0, 0, 0, 0, 0, 0, 0
NKF3, 18372102, 0, 0, 0, 0, 0, 0, 0, 0, 0, 0, 0
NKF4, 18372102, 0, 0, 0, 0, 0, 1.401227E-05, 0, 0, 0, 19, 229, 0, 0
NKF5, 18372102, 0, 0, 0, 0, 0.2, 0.13, 0, 0.19, 0.5, 7.63468E-06, 0.000244144, 0.0004614903
NKQ1, 18372102, 0.999917, 7.896242E-05, 0.01288684, -0.0001667552
FMT, 254, 47, NKT1, QIffffffff, TimeUS,Cnt,IMUMin,IMUMax,EKFMin,EKFMax,AngMin,AngMax,VelMin,VelM
NKT1, 18372102, 1160, 0.0025, 0.0025, 0.009941494, 0.010138, 0.0009998295, 0.01599128, 0.0009998297, 0.01599127
AHR2, 18372206, 0.52, 0.69, 359.97, 0.33, 0, 0, 0.9999713, 0.004552859, 0.00606154, -0.0002257302
MOTB, 18372214, 1, 1, 0, 1
RCIN, 18372219, 0, 0, 0, 0, 0, 0, 0, 0, 0, 0, 0, 0, 0, 0
RCOU, 18372225, 1101, 1101, 1101, 1101, 0, 0, 0, 0, 0, 0, 0, 0, 0, 0
VIBE, 18372233, 0.017734, 0.01807267, 0.02745288, 0, 0, 0
FMT, 253, 31, CTRL, Qfffff, TimeUS,RMSRollP,RMSRollD,RMSPitchP,RMSPitchD,RMSYaw
CTRL, 18372240, 0.005622669, 0.0002169166, 0.007305434, 0.0001886344, 5.505415E-05
PRX, 18372275, 2, 0.64, 0, 0.55, 0, 0.89, 0, 2.54, 0, 0, 90, 0.55
IMU, 18372282, -0.002172439, -0.0002326676, 3.856779E-05, 0.255335, -0.00286334, -9.784575, 0, 0, 30.77527, 1, 1, 1000, 1000
MSG, 18490003, APM:Copter V3.5.7 (38483450)
MSG, 18490008, New mission
MSG, 18490018, Frame: QUAD
MODE, 18490024, Autonomous, 100, 2
IMU, 18492279, -0.001029996, -0.0006126194, 0.0006454559, 0.2555698, 0.0003759659, -9.762632, 0, 0, 30.79023, 1, 1, 1000, 1000
RFND, 18522026, 0.2, 25, 0, 0
IMU, 18532015, 0.0004306953, 0.0006960088, -0.0002545347, 0.2543254, -0.004087653, -9.798086, 0, 0, 30.79545, 1, 1, 1000, 1000
MAG, 18571975, 398, 549, 331, 0, 0, 0, 0, 0, 0, 1, 18571967
RFND, 18572006, 0.2, 25, 0, 0
BARO, 18572046, 0.400967, 992.6192, 28.81, 0.2946029, 18572, 0, 28.41
CTUN, 18572084, 0, 0, 0, 0.5423428, 0.07069661, 0.07069661, 0.4, 0, 0.19, 0, 0, 0
ATT, 18572389, 0, 0.52, 0, 0.68, 359.96, 359.98, 0, 1
RATE, 18572395, -2.379015, -0.03972056, -0.005458852, -3.08571, -0.01294546, -0.007162826, 0.01526785, -0.01863222, 5.870006E-05, 23.97746, 0.4429817, 0
NKF1, 18572403, 0.52, 0.68, 359.97, 0.0009015126, -0.003146467, 0.0005920361, 0, 0, 0, -0.07069661, -0.02, 0, 0
NKF2, 18572403, 1, 0, 0, 0, 0, 0, 0, 0, 0, 0, 0, 0, 0
NKF3, 18572403, 0, 0, 0, 0, 0, 0, 0, 0, 0, 0, 0
NKF4, 18572403, 0, 0, 0, 0, 0, 8.252126E-06, 0, 0, 0, 19, 229, 0, 0
NKF5, 18572403, 0, 0, 0, 0, 0.2, 0.13, 0, 0.19, 0.5, 1.474867E-05, 0.0004176229, 0.0005474273
NKQ1, 18572403, 0.9999173, 7.235496E-05, 0.01286691, -0.0002052948
AHR2, 18572532, 0.51, 0.69, 359.97, 0.4, 0, 0, 0.9999714, 0.004515211, 0.006051141, -0.0002643072
MOTB, 18572542, 1, 1, 0, 1
RCIN, 18572546, 0, 0, 0, 0, 0, 0, 0, 0, 0, 0, 0, 0, 0, 0
RCOU, 18572552, 1101, 1101, 1101, 1101, 0, 0, 0, 0, 0, 0, 0, 0, 0, 0
VIBE, 18572561, 0.01950366, 0.01958885, 0.029465, 0, 0, 0
CTRL, 18572567, 0.005610803, 0.0002042035, 0.007280727, 0.0001886526, 8.489741E-05
PRX, 18572597, 2, 0.64, 0, 0.55, 0, 0.85, 0, 2.5, 0, 0, 90, 0.55
IMU, 18572605, -0.001162634, -0.0001995092, -0.0003373895, 0.2540165, -0.006666911, -9.793491, 0, 0, 30.79983, 1, 1, 1000, 1000
IMU, 18611972, 0.001798186, 0.0004146618, -0.0001366112, 0.2554252, -0.005985982, -9.77729, 0, 0, 30.80422, 1, 1, 1000, 1000
RFND, 18621922, 0.2, 25, 0, 0
IMU, 18652033, -0.0005934609, 0.0006257203, -0.0002507679, 0.2538485, -0.003828969, -9.797236, 0, 0, 30.80851, 1, 1, 1000, 1000
MAG, 18671921, 399, 545, 330, 0, 0, 0, 0, 0, 0, 1, 18671912
RFND, 18671951, 0.2, 25, 0, 0
BARO, 18671990, 0.3954364, 992.6201, 28.82, 0.3571991, 18671, 0, 28.41
CTUN, 18672003, 0, 0, 0, 0.5423428, 0.07050611, 0.07050611, 0.39, 0, 0.19, 0, 0, 0
ATT, 18672105, 0, 0.53, 0, 0.68, 359.96, 359.98, 0, 1
RATE, 18672111, -2.391304, -0.02107914, -0.005457445, -3.085207, -0.08981452, -0.006634017, 0.0139856, 0.06335866, 7.155384E-05, 6.460174, 0.2122879, 0
NKF1, 18672118, 0.53, 0.68, 359.97, 0.00105136, -0.003484219, 0.0001595104, 0, 0, 0, -0.07050611, -0.02, 0, 0
NKF2, 18672118, 1, 0, 0, 0, 0, 0, 0, 0, 0, 0, 0, 0, 0
NKF3, 18672118, 0, 0, 0, 0, 0, 0, 0, 0, 0, 0, 0
NKF4, 18672118, 0, 0, 0, 0, 0, 5.562239E-06, 0, 0, 0, 19, 229, 0, 0
NKF5, 18672118, 0, 0, 0, 0, 0.2, 0.13, 0, 0.19, 0.5, 2.209675E-05, 0.0004892591, 0.0006600749
NKQ1, 18672118, 0.9999173, 9.410967E-05, 0.01286722, -0.000201949
AHR2, 18672162, 0.51, 0.69, 359.97, 0.39, 0, 0, 0.9999714, 0.004520464, 0.006052335, -0.0002612036
MOTB, 18672169, 1, 1, 0, 1
RCIN, 18672173, 0, 0, 0, 0, 0, 0, 0, 0, 0, 0, 0, 0, 0, 0
RCOU, 18672179, 1101, 1101, 1101, 1101, 0, 0, 0, 0, 0, 0, 0, 0, 0, 0
VIBE, 18672187, 0.01806227, 0.02022322, 0.03030801, 0, 0, 0
CTRL, 18672194, 0.005640091, 0.0002221595, 0.007282757, 0.0001919285, 8.300926E-05
PRX, 18672226, 2, 0.64, 0, 0.55, 0, 0.83, 0, 2.5, 0, 0, 90, 0.55
IMU, 18691927, -0.001517186, -0.001332575, 0.000418486, 0.2584762, -0.009495624, -9.800674, 0, 0, 30.8134, 1, 1, 1000, 1000
RFND, 18722035, 0.2, 25, 0, 0
IMU, 18733086, 0.0002419764, -0.0002038919, -0.0002632253, 0.2689158, -0.007369287, -9.79735, 0, 0, 30.81804, 1, 1, 1000, 1000
MAG, 18772018, 400, 547, 332, 0, 0, 0, 0, 0, 0, 1, 18772009
RFND, 18772050, 0.2, 25, 0, 0
BARO, 18772109, 0.3567224, 992.6244, 28.82, 0.2725075, 18772, 0, 28.41
CTUN, 18772122, 0, 0, 0, 0.5423428, 0.07039492, 0.07039492, 0.35, 0, 0.19, 0, 0, 0
DU32, 18772158, 7, 50389208
ATT, 18772296, 0, 0.52, 0, 0.68, 359.96, 359.98, 0, 1
RATE, 18772302, -2.377978, -0.05319591, -0.005309297, -3.064592, -0.03125126, -0.007204686, 0.01491985, 0.005601507, 0.0001334634, -20.81168, -0.2036095, 0
NKF1, 18772310, 0.52, 0.68, 359.97, 0.001715148, -0.004183029, -0.0005138685, 0, 0, 0, -0.07039492, -0.02, 0, 0
NKF2, 18772310, 1, 0, 0, 0, 0, 0, 0, 0, 0, 0, 0, 0, 0
NKF3, 18772310, 0, 0, 0, 0, 0, 0, 0, 0, 0, 0, 0
NKF4, 18772310, 0, 0, 0, 0, 0, 3.758063E-06, 0, 0, 0, 19, 229, 0, 0
NKF5, 18772310, 0, 0, 0, 0, 0.2, 0.13, 0, 0.19, 0.5, 2.808564E-05, 0.0005175296, 0.0006764487
NKQ1, 18772310, 0.9999178, 7.004646E-05, 0.01282636, -0.0002287855
AHR2, 18772355, 0.51, 0.68, 359.97, 0.35, 0, 0, 0.9999719, 0.00448075, 0.006013707, -0.000287778
MOTB, 18772362, 1, 1, 0, 1
RCIN, 18772366, 0, 0, 0, 0, 0, 0, 0, 0, 0, 0, 0, 0, 0, 0
RCOU, 18772371, 1101, 1101, 1101, 1101, 0, 0, 0, 0, 0, 0, 0, 0, 0, 0
VIBE, 18772379, 0.01773931, 0.01923447, 0.03017625, 0, 0, 0
CTRL, 18772386, 0.005613628, 0.0002151087, 0.007233546, 0.0001737061, 8.368387E-05
PRX, 18772417, 2, 0.64, 0, 0.55, 0, 0.83, 0, 2.51, 0, 0, 90, 0.55
IMU, 18772424, -0.001397963, -0.0005189977, 8.556517E-05, 0.2534975, -0.008900709, -9.787042, 0, 0, 30.82302, 1, 1, 1000, 1000
IMU, 18817373, 0.0002446866, -0.000335484, 0.0004277459, 0.2560495, -0.003265312, -9.789865, 0, 0, 30.82886, 1, 1, 1000, 1000
RFND, 18827218, 0.2, 25, 0, 0
IMU, 18857235, -0.001013662, -0.0006934601, -0.0001639352, 0.2613194, 0.002114452, -9.795517, 0, 0, 30.83377, 1, 1, 1000, 1000
MAG, 18876991, 401, 546, 330, 0, 0, 0, 0, 0, 0, 1, 18876983
RFND, 18877023, 0.2, 25, 0, 0
BARO, 18877064, 0.2599372, 992.6351, 28.83, 0.07521508, 18877, 0, 28.41
CTUN, 18877077, 0, 0, 0, 0.5423428, 0.07033266, 0.07033266, 0.25, 0, 0.19, 0, 0, 0
ATT, 18877180, 0, 0.53, 0, 0.67, 359.96, 359.98, 0, 1
RATE, 18877186, -2.392245, 0.09556834, -0.006194766, -3.045667, -0.033911, -0.007019237, 0.01426845, -0.008703057, 3.190733E-05, -37.76713, 0.4254341, 0
NKF1, 18877194, 0.53, 0.67, 359.97, 0.002588187, -0.00444186, -0.0009325217, 0, 0, 0, -0.07033266, -0.02, 0, 0
NKF2, 18877194, 1, 0, 0, 0, 0, 0, 0, 0, 0, 0, 0, 0, 0
NKF3, 18877194, 0, 0, 0, 0, 0, 0, 0, 0, 0, 0, 0
NKF4, 18877194, 0, 0, 0, 0, 0, 2.533428E-06, 0, 0, 0, 19, 229, 0, 0
NKF5, 18877194, 0, 0, 0, 0, 0.2, 0.13, 0, 0.19, 0.5, 3.290614E-05, 0.0005491824, 0.000733209
NKQ1, 18877194, 0.9999183, 9.804518E-05, 0.0127896, -0.0002167808
AHR2, 18877238, 0.51, 0.68, 359.97, 0.25, 0, 0, 0.999972, 0.004494465, 0.005981287, -0.0002759015
MOTB, 18877246, 1, 1, 0, 1
RCIN, 18877251, 0, 0, 0, 0, 0, 0, 0, 0, 0, 0, 0, 0, 0, 0
RCOU, 18877256, 1101, 1101, 1101, 1101, 0, 0, 0, 0, 0, 0, 0, 0, 0, 0
VIBE, 18877264, 0.02002322, 0.01967534, 0.02777384, 0, 0, 0
CTRL, 18877271, 0.005627673, 0.0002057422, 0.007196352, 0.000162888, 7.82334E-05
PRX, 18877303, 2, 0.64, 0, 0.55, 0, 0.84, 0, 2.53, 0, 0, 90, 0.55
IMU, 18897153, -4.912684E-05, -0.0006480407, -0.0005623477, 0.2544696, -0.0145782, -9.784942, 0, 0, 30.83798, 1, 1, 1000, 1000
RFND, 18926954, 0.2, 25, 0, 0
IMU, 18937326, -0.0005909594, 0.0002998398, 0.001113422, 0.2582034, -0.004717189, -9.789837, 0, 0, 30.84217, 1, 1, 1000, 1000
MAG, 18976988, 397, 543, 328, 0, 0, 0, 0, 0, 0, 1, 18976980
RFND, 18977024, 0.2, 25, 0, 0
BARO, 18977093, 0.3594877, 992.6239, 28.84, -0.181481, 18977, 0, 28.41
CTUN, 18977107, 0, 0, 0, 0.5423428, 0.07029943, 0.07029943, 0.35, 0, 0.19, 0, 0, 0
ATT, 18977299, 0, 0.53, 0, 0.67, 359.97, 359.98, 0, 1
RATE, 18977305, -2.396159, 0.003063818, -0.005640501, -3.041286, -0.006705356, -0.007211607, 0.01544113, -0.06444253, -2.372874E-05, -25.70717, -0.7439613, 0
NKF1, 18977313, 0.53, 0.67, 359.97, 0.00338315, -0.004973619, -0.0006347448, 0, 0, 0, -0.07029943, -0.02, 0, 0
NKF2, 18977313, 1, 0, 0, 0, 0, 0, 0, 0, 0, 0, 0, 0, 0
NKF3, 18977313, 0, 0, 0, 0, 0, 0, 0, 0, 0, 0, 0
NKF4, 18977313, 0, 0, 0, 0, 0, 1.726467E-06, 0, 0, 0, 19, 229, 0, 0
NKF5, 18977313, 0, 0, 0, 0, 0.2, 0.13, 0, 0.19, 0.5, 3.617449E-05, 0.0005574601, 0.0007389606
NKQ1, 18977313, 0.9999184, 0.0001063386, 0.01277967, -0.0001991588
AHR2, 18977358, 0.51, 0.68, 359.97, 0.35, 0, 0, 0.999972, 0.004491645, 0.005978765, -0.0002583949
MOTB, 18977365, 1, 1, 0, 1
RCIN, 18977370, 0, 0, 0, 0, 0, 0, 0, 0, 0, 0, 0, 0, 0, 0
RCOU, 18977375, 1101, 1101, 1101, 1101, 0, 0, 0, 0, 0, 0, 0, 0, 0, 0
VIBE, 18977384, 0.01906743, 0.02060569, 0.02944556, 0, 0, 0
CTRL, 18977391, 0.005652791, 0.0002004125, 0.007172557, 0.0001506604, 7.015261E-05
PRX, 18977421, 2, 0.64, 0, 0.55, 0, 0.84, 0, 2.51, 0, 0, 90, 0.55
IMU, 18977429, -0.0004128912, -9.076873E-05, -0.001136852, 0.2578912, -0.005488866, -9.781626, 0, 0, 30.84668, 1, 1, 1000, 1000
IMU, 19017183, -0.0008430976, -0.00140465, 0.0009668185, 0.2562314, -0.006040546, -9.770691, 0, 0, 30.85095, 1, 1, 1000, 1000
RFND, 19027018, 0.2, 25, 0, 0
IMU, 19057259, 0.0009623915, -0.0009154269, 0.001164749, 0.2482473, -0.003571402, -9.776659, 0, 0, 30.85517, 1, 1, 1000, 1000
MAG, 19077035, 404, 543, 334, 0, 0, 0, 0, 0, 0, 1, 19077027
RFND, 19077071, 0.2, 25, 0, 0
BARO, 19077108, 0.3401306, 992.626, 28.85, -0.2618937, 19077, 0, 28.41
CTUN, 19077120, 0, 0, 0, 0.5423428, 0.07018579, 0.07018579, 0.34, 0, 0.19, 0, 0, 0
ATT, 19077425, 0, 0.53, 0, 0.66, 359.97, 359.99, 0, 1
RATE, 19077431, -2.402171, -0.01558855, -0.005532444, -3.010309, -0.104698, -0.006807457, 0.01381852, 0.01574922, -6.403316E-05, 21.89145, -0.8499146, 0
NKF1, 19077438, 0.53, 0.66, 359.98, 0.00408512, -0.005426505, 0.0005405297, 0, 0, 0, -0.07018579, -0.02, 0, 0
NKF2, 19077438, 1, 0, 0, 0, 0, 0, 0, 0, 0, 0, 0, 0, 0
NKF3, 19077438, 0, 0, 0, 0, 0, 0, 0, 0, 0, 0, 0
NKF4, 19077438, 0, 0, 0, 0, 0, 1.186611E-06, 0, 0, 0, 19, 229, 0, 0
NKF5, 19077438, 0, 0, 0, 0, 0.2, 0.13, 0, 0.19, 0.5, 3.837457E-05, 0.0005624982, 0.0007583894
NKQ1, 19077438, 0.9999191, 0.000116029, 0.01272144, -0.000164764
AHR2, 19077481, 0.51, 0.67, 359.97, 0.34, 0, 0, 0.9999723, 0.004489897, 0.005928395, -0.0002239054
MOTB, 19077488, 1, 1, 0, 1
RCIN, 19077493, 0, 0, 0, 0, 0, 0, 0, 0, 0, 0, 0, 0, 0, 0
RCOU, 19077498, 1101, 1101, 1101, 1101, 0, 0, 0, 0, 0, 0, 0, 0, 0, 0
VIBE, 19077506, 0.01799172, 0.01932869, 0.03591253, 0, 0, 0
CTRL, 19077511, 0.005667157, 0.0002070359, 0.007113943, 0.0001596155, 6.384041E-05
PRX, 19077542, 2, 0.64, 0, 0.55, 0, 0.87, 0, 2.51, 0, 0, 90, 0.55
IMU, 19097379, -0.0008962604, 2.898217E-05, 0.0002698418, 0.2586628, 0.005834908, -9.808699, 0, 0, 30.85928, 1, 1, 1000, 1000
RFND, 19127416, 0.2, 25, 0, 0
IMU, 19137937, -0.001134659, -0.0003857422, 0.000494786, 0.2687608, -0.01080586, -9.789196, 0, 0, 30.8623, 1, 1, 1000, 1000
MAG, 19177289, 404, 545, 333, 0, 0, 0, 0, 0, 0, 1, 19177281
RFND, 19177321, 0.2, 25, 0, 0
BARO, 19177360, 0.2931207, 992.6316, 28.85, -0.09731869, 19177, 0, 28.41
CTUN, 19177373, 0, 0, 0, 0.5423428, 0.07004804, 0.07004804, 0.29, 0, 0.19, 0, 0, 0
ATT, 19177568, 0, 0.53, 0, 0.66, 359.97, 359.99, 0, 1
RATE, 19177574, -2.397897, 0.05382363, -0.005912904, -2.999207, -0.0154893, -0.007208987, 0.01307789, 0.03019584, -1.373551E-05, 31.45488, -1.358604, 0
NKF1, 19177581, 0.53, 0.66, 359.98, 0.004992529, -0.005603527, 0.0007766635, 0, 0, 0, -0.07004804, -0.02, 0, 0
NKF2, 19177581, 1, 0, 0, 0, 0, 0, 0, 0, 0, 0, 0, 0, 0
NKF3, 19177581, 0, 0, 0, 0, 0, 0, 0, 0, 0, 0, 0
NKF4, 19177581, 0, 0, 0, 0, 0, 8.373318E-07, 0, 0, 0, 19, 229, 0, 0
NKF5, 19177581, 0, 0, 0, 0, 0.2, 0.13, 0, 0.19, 0.5, 3.891089E-05, 0.0005548049, 0.0007609843
NKQ1, 19177581, 0.9999194, 0.0001073011, 0.01270032, -0.0001475048
AHR2, 19177719, 0.51, 0.67, 359.97, 0.29, 0, 0, 0.9999725, 0.004469554, 0.005915679, -0.0002066021
MOTB, 19177728, 1, 1, 0, 1
RCIN, 19177733, 0, 0, 0, 0, 0, 0, 0, 0, 0, 0, 0, 0, 0, 0
RCOU, 19177739, 1101, 1101, 1101, 1101, 0, 0, 0, 0, 0, 0, 0, 0, 0, 0
VIBE, 19177747, 0.02037075, 0.01841987, 0.03147656, 0, 0, 0
CTRL, 19177754, 0.005656227, 0.0002073149, 0.007080333, 0.0001634287, 5.677479E-05
PRX, 19177786, 2, 0.64, 0, 0.55, 0, 0.85, 0, 2.51, 0, 0, 90, 0.55
IMU, 19177793, 0.0004718306, -0.0002440141, 0.0005148683, 0.2556779, -0.002871101, -9.775509, 0, 0, 30.86518, 1, 1, 1000, 1000
IMU, 19217326, -0.0001300806, -8.07318E-05, 0.001571139, 0.2550587, -0.009895488, -9.792434, 0, 0, 30.86778, 1, 1, 1000, 1000
RFND, 19227424, 0.2, 25, 0, 0
IMU, 19258335, 0.0001161578, -0.0002313407, 1.801245E-05, 0.2627856, -0.01235159, -9.772014, 0, 0, 30.86991, 1, 1, 1000, 1000
MAG, 19277323, 397, 545, 327, 0, 0, 0, 0, 0, 0, 1, 19277315
RFND, 19277412, 0.2, 25, 0, 0
BARO, 19277453, 0.3124777, 992.6294, 28.86, 0.02111369, 19277, 0, 28.41
CTUN, 19277465, 0, 0, 0, 0.5423428, 0.06988842, 0.06988842, 0.31, 0, 0.19, 0, 0, 0
ATT, 19277569, 0, 0.53, 0, 0.66, 359.97, 359.99, 0, 1
RATE, 19277575, -2.39204, -0.03169726, -0.005323424, -3.001238, -0.02276337, -0.006944294, 0.01345736, -0.01837049, 1.070287E-05, 12.29411, 2.997589, 0
NKF1, 19277583, 0.53, 0.66, 359.98, 0.005544122, -0.006227916, 0.0003035584, 0, 0, 0, -0.06988842, -0.02, 0, 0
NKF2, 19277583, 1, 0, 0, 0, 0, 0, 0, 0, 0, 0, 0, 0, 0
NKF3, 19277583, 0, 0, 0, 0, 0, 0, 0, 0, 0, 0, 0
NKF4, 19277583, 0, 0, 0, 0, 0, 6.256196E-07, 0, 0, 0, 19, 229, 0, 0
NKF5, 19277583, 0, 0, 0, 0, 0.2, 0.13, 0, 0.19, 0.5, 3.911409E-05, 0.0005417308, 0.0007430758
NKQ1, 19277583, 0.9999194, 9.66295E-05, 0.01270293, -0.0001440039
AHR2, 19277700, 0.5, 0.67, 359.97, 0.31, 0, 0, 0.9999725, 0.004447162, 0.005926129, -0.0002031534
MOTB, 19277711, 1, 1, 0, 1
RCIN, 19277716, 0, 0, 0, 0, 0, 0, 0, 0, 0, 0, 0, 0, 0, 0
RCOU, 19277721, 1101, 1101, 1101, 1101, 0, 0, 0, 0, 0, 0, 0, 0, 0, 0
VIBE, 19277730, 0.01911498, 0.0186148, 0.03882202, 0, 0, 0
CTRL, 19277737, 0.005653961, 0.0001915246, 0.007077503, 0.0001697519, 4.816788E-05
PRX, 19277768, 2, 0.64, 0, 0.55, 0, 0.83, 0, 2.51, 0, 0, 90, 0.55
IMU, 19297516, -0.0006088885, -0.0001165742, 0.001572071, 0.2464069, -0.01142221, -9.798387, 0, 0, 30.87198, 1, 1, 1000, 1000
RFND, 19327923, 0.2, 25, 0, 0
IMU, 19337461, -0.0008792428, -0.0008724541, -0.0001522247, 0.2544805, -0.009191342, -9.788707, 0, 0, 30.87365, 1, 1, 1000, 1000
MAG, 19377433, 404, 547, 330, 0, 0, 0, 0, 0, 0, 1, 19377425
RFND, 19377465, 0.2, 25, 0, 0
BARO, 19377505, 0.3235389, 992.6281, 28.86, -0.04830685, 19377, 0, 28.41
CTUN, 19377518, 0, 0, 0, 0.5423428, 0.06978293, 0.06978293, 0.32, 0, 0.19, 0, 0, 0
ATT, 19377882, 0, 0.53, 0, 0.66, 359.97, 359.99, 0, 1
RATE, 19377889, -2.393277, 0.01837241, -0.005638115, -2.99496, 0.04410172, -0.007402244, 0.01386508, 0.05771348, -4.9812E-05, 14.23323, -0.6299019, 0
NKF1, 19377897, 0.53, 0.66, 359.98, 0.006243155, -0.007549467, 0.0003514379, 0, 0, 0, -0.06978293, -0.02, 0, 0
NKF2, 19377897, 1, 0, 0, 0, 0, 0, 0, 0, 0, 0, 0, 0, 0
NKF3, 19377897, 0, 0, 0, 0, 0, 0, 0, 0, 0, 0, 0
NKF4, 19377897, 0, 0, 0, 0, 0, 4.989395E-07, 0, 0, 0, 19, 229, 0, 0
NKF5, 19377897, 0, 0, 0, 0, 0.2, 0.13, 0, 0.19, 0.5, 3.839871E-05, 0.0005239558, 0.0007247381
NKQ1, 19377897, 0.9999195, 9.700036E-05, 0.01269223, -0.0001127206
AHR2, 19377939, 0.5, 0.67, 359.98, 0.32, 0, 0, 0.9999726, 0.004436393, 0.005922602, -0.0001719321
MOTB, 19377946, 1, 1, 0, 1
RCIN, 19377951, 0, 0, 0, 0, 0, 0, 0, 0, 0, 0, 0, 0, 0, 0
RCOU, 19377957, 1101, 1101, 1101, 1101, 0, 0, 0, 0, 0, 0, 0, 0, 0, 0
VIBE, 19377965, 0.02012748, 0.01997757, 0.03764514, 0, 0, 0
CTRL, 19377972, 0.005651047, 0.0001735995, 0.007059325, 0.0001665152, 4.324922E-05
PRX, 19378003, 2, 0.64, 0, 0.55, 0, 0.85, 0, 2.51, 0, 0, 90, 0.55
IMU, 19378011, -0.0001478055, 0.0007960887, 0.0009951185, 0.2638817, -0.017034, -9.782564, 0, 0, 30.87508, 1, 1, 1000, 1000
IMU, 19417365, 0.0003372808, -0.001422692, -0.001582136, 0.2566278, -0.00370671, -9.798489, 0, 0, 30.87625, 1, 1, 1000, 1000
RFND, 19427448, 0.2, 25, 0, 0
IMU, 19457329, -0.0005732854, -0.0004661646, -0.001293053, 0.2552101, -0.0008522764, -9.800253, 0, 0, 30.87706, 1, 1, 1000, 1000
MAG, 19477304, 402, 547, 335, 0, 0, 0, 0, 0, 0, 1, 19477296
RFND, 19477335, 0.2, 25, 0, 0
BARO, 19477375, 0.210162, 992.6408, 28.87, -0.1036983, 19477, 0, 28.41
CTUN, 19477388, 0, 0, 0, 0.5423428, 0.069691, 0.069691, 0.21, 0, 0.19, 0, 0, 0
ATT, 19477490, 0, 0.53, 0, 0.66, 359.97, 359.99, 0, 1
RATE, 19477496, -2.398681, 0.02473637, -0.005806305, -2.99196, 0.004603336, -0.00718014, 0.01442984, -0.02376801, 0.0001696185, -5.145867, 0.7691383, 0
NKF1, 19477503, 0.53, 0.66, 359.98, 0.007172553, -0.007665724, -0.0001270585, 0, 0, 0, -0.069691, -0.02, 0, 0
NKF2, 19477503, 1, 0, 0, 0, 0, 0, 0, 0, 0, 0, 0, 0, 0
NKF3, 19477503, 0, 0, 0, 0, 0, 0, 0, 0, 0, 0, 0
NKF4, 19477503, 0, 0, 0, 0, 0, 4.226777E-07, 0, 0, 0, 19, 229, 0, 0
NKF5, 19477503, 0, 0, 0, 0, 0.2, 0.13, 0, 0.19, 0.5, 3.781432E-05, 0.0005068042, 0.0007015708
NKQ1, 19477503, 0.9999195, 0.0001098683, 0.01268472, -0.0001704139
AHR2, 19477545, 0.5, 0.67, 359.97, 0.21, 0, 0, 0.9999726, 0.004439458, 0.005921442, -0.0002297734
MOTB, 19477552, 1, 1, 0, 1
RCIN, 19477556, 0, 0, 0, 0, 0, 0, 0, 0, 0, 0, 0, 0, 0, 0
RCOU, 19477561, 1101, 1101, 1101, 1101, 0, 0, 0, 0, 0, 0, 0, 0, 0, 0
VIBE, 19477570, 0.01880711, 0.02072985, 0.03386048, 0, 0, 0
CTRL, 19477577, 0.005663685, 0.0001528156, 0.007048202, 0.0001916144, 8.35109E-05
PRX, 19477701, 2, 0.64, 0, 0.55, 0, 0.86, 0, 2.52, 0, 0, 90, 0.55
IMU, 19497446, -0.0006110618, 0.0003081622, -0.0003041218, 0.2602643, -0.002030892, -9.786168, 0, 0, 30.87773, 1, 1, 1000, 1000
RFND, 19527990, 0.2, 25, 0, 0
IMU, 19537422, -0.001098935, -0.0005877377, 0.0007922774, 0.2678999, -0.009082369, -9.782899, 0, 0, 30.87801, 1, 1, 1000, 1000
MAG, 19577322, 397, 549, 328, 0, 0, 0, 0, 0, 0, 1, 19577313
RFND, 19577354, 0.2, 25, 0, 0
BARO, 19577394, 0.2212232, 992.6395, 28.87, -0.15814, 19577, 0, 28.41
CTUN, 19577406, 0, 0, 0, 0.5423428, 0.06963485, 0.06963485, 0.22, 0, 0.19, 0, 0, 0
ATT, 19578242, 0, 0.53, 0, 0.66, 359.97, 359.99, 0, 1
RATE, 19578249, -2.395482, -0.02856606, -0.005455781, -2.983909, -0.01984311, -0.00679174, 0.01371002, 0.03134968, -1.425407E-05, -22.86459, 1.768303, 0
NKF1, 19578257, 0.53, 0.66, 359.98, 0.008170092, -0.007786306, -0.0005645577, 0, 0, 0, -0.06963485, -0.02, 0, 0
NKF2, 19578257, 1, 0, 0, 0, 0, 0, 0, 0, 0, 0, 0, 0, 0
NKF3, 19578257, 0, 0, 0, 0, 0, 0, 0, 0, 0, 0, 0
NKF4, 19578257, 0, 0, 0, 0, 0, 4.04682E-07, 0, 0, 0, 19, 229, 0, 0
NKF5, 19578257, 0, 0, 0, 0, 0.2, 0.13, 0, 0.19, 0.5, 3.686251E-05, 0.0004830652, 0.0006702563
NKQ1, 19578257, 0.9999198, 0.0001024082, 0.01267055, -0.0001408894
AHR2, 19578303, 0.5, 0.67, 359.98, 0.22, 0, 0, 0.9999727, 0.004426145, 0.005913367, -0.0002002029
MOTB, 19578310, 1, 1, 0, 1
RCIN, 19578314, 0, 0, 0, 0, 0, 0, 0, 0, 0, 0, 0, 0, 0, 0
RCOU, 19578320, 1101, 1101, 1101, 1101, 0, 0, 0, 0, 0, 0, 0, 0, 0, 0
VIBE, 19578328, 0.02074949, 0.02046293, 0.03068642, 0, 0, 0
CTRL, 19578333, 0.005658257, 0.0001417325, 0.007039307, 0.0001933869, 8.707915E-05
PRX, 19578364, 2, 0.64, 0, 0.55, 0, 0.84, 0, 2.53, 0, 0, 90, 0.55
IMU, 19578372, -0.0009677567, -0.0003199322, 0.0005349648, 0.2475695, -6.088696E-06, -9.806953, 0, 0, 30.87801, 1, 1, 1000, 1000
IMU, 19617486, -5.639422E-05, 9.923268E-05, 0.0001932305, 0.2527929, -0.006561131, -9.776611, 0, 0, 30.87811, 1, 1, 1000, 1000
RFND, 19627374, 0.2, 25, 0, 0
IMU, 19658672, 0.0003694414, -0.0004477527, 0.001235157, 0.2611635, -0.01380634, -9.786093, 0, 0, 30.87811, 1, 1, 1000, 1000
MAG, 19677337, 399, 547, 330, 0, 0, 0, 0, 0, 0, 1, 19677329
RFND, 19677369, 0.2, 25, 0, 0
BARO, 19677408, 0.2599372, 992.6353, 28.88, -0.2748007, 19677, 0, 28.41
CTUN, 19677420, 0, 0, 0, 0.5423428, 0.06965633, 0.06965633, 0.25, 0, 0.19, 0, 0, 0
ATT, 19677520, 0, 0.53, 0, 0.66, 359.97, 359.99, 0, 1
RATE, 19677527, -2.407749, -0.03409688, -0.005304247, -2.978018, -0.01056467, -0.007041486, 0.01274448, 0.02522493, -5.643916E-05, -50.87668, 2.611065, 0
NKF1, 19677535, 0.53, 0.66, 359.98, 0.009055795, -0.008317105, -0.001256214, 0, 0, 0, -0.06965633, -0.02, 0, 0
NKF2, 19677535, 1, 0, 0, 0, 0, 0, 0, 0, 0, 0, 0, 0, 0
NKF3, 19677535, 0, 0, 0, 0, 0, 0, 0, 0, 0, 0, 0
NKF4, 19677535, 0, 0, 0, 0, 0, 4.056516E-07, 0, 0, 0, 19, 229, 0, 0
NKF5, 19677535, 0, 0, 0, 0, 0.2, 0.13, 0, 0.19, 0.5, 3.589519E-05, 0.0004544737, 0.0006288929
NKQ1, 19677535, 0.99992, 0.0001254154, 0.01265831, -0.0001135679
AHR2, 19677580, 0.5, 0.67, 359.98, 0.25, 0, 0, 0.9999727, 0.004440821, 0.005907966, -0.0001730759
MOTB, 19677587, 1, 1, 0, 1
RCIN, 19677591, 0, 0, 0, 0, 0, 0, 0, 0, 0, 0, 0, 0, 0, 0
RCOU, 19677683, 1101, 1101, 1101, 1101, 0, 0, 0, 0, 0, 0, 0, 0, 0, 0
VIBE, 19677692, 0.020952, 0.02008661, 0.03119924, 0, 0, 0
CTRL, 19677698, 0.005688597, 0.0001467785, 0.007021579, 0.0001653701, 7.334738E-05
PRX, 19677730, 2, 0.64, 0, 0.55, 0, 0.84, 0, 2.53, 0, 0, 90, 0.55
IMU, 19697471, -0.0002305014, 0.0003852759, 0.0005316148, 0.254082, -0.004304399, -9.790635, 0, 0, 30.87811, 1, 1, 1000, 1000
RFND, 19727249, 0.2, 25, 0, 0
IMU, 19737293, 5.370224E-05, -0.0001859686, -0.0001421685, 0.2489635, -0.009233782, -9.777405, 0, 0, 30.87811, 1, 1, 1000, 1000
MAG, 19777667, 398, 549, 333, 0, 0, 0, 0, 0, 0, 1, 19777659
RFND, 19777699, 0.2, 25, 0, 0
BARO, 19777738, 0.2516414, 992.6361, 28.89, -0.2385062, 19777, 0, 28.41
CTUN, 19777750, 0, 0, 0, 0.5423428, 0.06971954, 0.06971954, 0.25, 0, 0.19, 0, 0, 0
DU32, 19777788, 7, 50389208
ATT, 19778013, 0, 0.53, 0, 0.66, 359.97, 359.99, 0, 1
RATE, 19778019, -2.411702, -0.03111383, -0.005346712, -2.977482, 9.759314E-05, -0.006920855, 0.01362164, 0.03824403, 3.895439E-05, -37.254, -1.883125, 0
NKF1, 19778027, 0.53, 0.66, 359.98, 0.009526479, -0.009104063, -0.0009198517, 0, 0, 0, -0.06971954, -0.02, 0, 0
NKF2, 19778027, 1, 0, 0, 0, 0, 0, 0, 0, 0, 0, 0, 0, 0
NKF3, 19778027, 0, 0, 0, 0, 0, 0, 0, 0, 0, 0, 0
NKF4, 19778027, 0, 0, 0, 0, 0, 4.435372E-07, 0, 0, 0, 19, 229, 0, 0
NKF5, 19778027, 0, 0, 0, 0, 0.2, 0.13, 0, 0.19, 0.5, 3.559597E-05, 0.0004401261, 0.0006101546
NKQ1, 19778027, 0.99992, 0.0001330897, 0.01265789, -0.0001121946
AHR2, 19778071, 0.5, 0.67, 359.98, 0.25, 0, 0, 0.9999726, 0.004436382, 0.005915611, -0.0001718722
MOTB, 19778078, 1, 1, 0, 1
RCIN, 19778083, 0, 0, 0, 0, 0, 0, 0, 0, 0, 0, 0, 0, 0, 0
RCOU, 19778089, 1101, 1101, 1101, 1101, 0, 0, 0, 0, 0, 0, 0, 0, 0, 0
VIBE, 19778097, 0.02013259, 0.01761007, 0.03924616, 0, 0, 0
CTRL, 19778104, 0.005696774, 0.0001418604, 0.007021653, 0.0001490774, 6.462538E-05
PRX, 19778134, 2, 0.64, 0, 0.55, 0, 0.84, 0, 2.53, 0, 0, 90, 0.55
IMU, 19778142, -0.001012799, 2.81084E-05, 0.000655279, 0.2520831, -0.01649137, -9.770295, 0, 0, 30.87811, 1, 1, 1000, 1000
IMU, 19817402, -0.0008241926, -0.0001251945, -0.0009797651, 0.2659862, -0.007320343, -9.794632, 0, 0, 30.87811, 1, 1, 1000, 1000
RFND, 19827670, 0.2, 25, 0, 0
IMU, 19857470, -0.0007687813, -0.0009976238, 0.001172363, 0.2591783, -0.004635182, -9.779202, 0, 0, 30.87835, 1, 1, 1000, 1000
MAG, 19878102, 406, 540, 325, 0, 0, 0, 0, 0, 0, 1, 19878094
RFND, 19878134, 0.2, 25, 0, 0
BARO, 19878174, 0.276529, 992.6333, 28.89, -0.02331344, 19878, 0, 28.41
CTUN, 19878188, 0, 0, 0, 0.5423428, 0.06978595, 0.06978595, 0.27, 0, 0.19, 0, 0, 0
ATT, 19878292, 0, 0.53, 0, 0.65, 359.98, 359.99, 0, 1
RATE, 19878299, -2.414696, 0.04757513, -0.006050792, -2.963033, 0.01407589, -0.007265273, 0.01395936, 0.01899296, -3.628996E-06, -23.72765, -1.183605, 0
NKF1, 19878307, 0.53, 0.65, 359.98, 0.01025039, -0.009527616, -0.0005858678, 0, 0, 0, -0.06978595, -0.02, 0, 0
NKF2, 19878307, 1, 0, 0, 0, 0, 0, 0, 0, 0, 0, 0, 0, 0
NKF3, 19878307, 0, 0, 0, 0, 0, 0, 0, 0, 0, 0, 0
NKF4, 19878307, 0, 0, 0, 0, 0, 5.044712E-07, 0, 0, 0, 19, 229, 0, 0
NKF5, 19878307, 0, 0, 0, 0, 0.2, 0.13, 0, 0.19, 0.5, 3.490152E-05, 0.0004111546, 0.0005643148
NKQ1, 19878307, 0.9999203, 0.0001385514, 0.01262873, -0.0001024237
AHR2, 19878354, 0.5, 0.67, 359.98, 0.27, 0, 0, 0.9999728, 0.00443005, 0.005894317, -0.0001621163
MOTB, 19878361, 1, 1, 0, 1
RCIN, 19878365, 0, 0, 0, 0, 0, 0, 0, 0, 0, 0, 0, 0, 0, 0
RCOU, 19878371, 1101, 1101, 1101, 1101, 0, 0, 0, 0, 0, 0, 0, 0, 0, 0
VIBE, 19878379, 0.02099306, 0.0199307, 0.0328868, 0, 0, 0
CTRL, 19878387, 0.005688661, 0.0001551369, 0.006983969, 0.0001428813, 5.645753E-05
PRX, 19878419, 2, 0.64, 0, 0.55, 0, 0.84, 0, 2.55, 0, 0, 90, 0.55
IMU, 19897577, -9.39656E-05, -0.0005068502, 0.0001259065, 0.257618, -0.01693411, -9.776999, 0, 0, 30.87877, 1, 1, 1000, 1000
RFND, 19927385, 0.2, 25, 0, 0
IMU, 19937455, -0.0004696762, -0.0006846, -0.000559691, 0.2655051, -0.01436728, -9.788383, 0, 0, 30.87919, 1, 1, 1000, 1000
MAG, 19977219, 399, 549, 324, 0, 0, 0, 0, 0, 0, 1, 19977210
RFND, 19977250, 0.2, 25, 0, 0
BARO, 19977290, 0.3041819, 992.6303, 28.89, 0.1242312, 19977, 0, 28.41
CTUN, 19977303, 0, 0, 0, 0.5423428, 0.0697999, 0.0697999, 0.3, 0, 0.19, 0, 0, 0
ATT, 19977912, 0, 0.53, 0, 0.65, 359.98, 359.99, 0, 1
RATE, 19977919, -2.407796, -0.01805831, -0.00557683, -2.952572, 0.005159411, -0.007096474, 0.01361001, 0.0007359765, 5.132179E-06, -17.57927, 0.8940697, 0
NKF1, 19977929, 0.53, 0.65, 359.98, 0.0116683, -0.01026552, -0.0004340562, 0, 0, 0, -0.0697999, -0.02, 0, 0
NKF2, 19977929, 1, 0, 0, 0, 0, 0, 0, 0, 0, 0, 0, 0, 0
NKF3, 19977929, 0, 0, 0, 0, 0, 0, 0, 0, 0, 0, 0
NKF4, 19977929, 0, 0, 0, 0, 0, 5.728299E-07, 0, 0, 0, 19, 229, 0, 0
NKF5, 19977929, 0, 0, 0, 0, 0.2, 0.13, 0, 0.19, 0.5, 3.491525E-05, 0.0003995335, 0.0005480417
NKQ1, 19977929, 0.9999205, 0.000126169, 0.01260893, -9.760521E-05
AHR2, 19977977, 0.5, 0.67, 359.98, 0.3, 0, 0, 0.999973, 0.004408539, 0.005881745, -0.0001572132
MOTB, 19977985, 1, 1, 0, 1
RCIN, 19977989, 0, 0, 0, 0, 0, 0, 0, 0, 0, 0, 0, 0, 0, 0
RCOU, 19977995, 1101, 1101, 1101, 1101, 0, 0, 0, 0, 0, 0, 0, 0, 0, 0
VIBE, 19978003, 0.01726347, 0.02033437, 0.0352393, 0, 0, 0
CTRL, 19978011, 0.005683785, 0.0001457847, 0.006957139, 0.0001503826, 4.703905E-05
PRX, 19978041, 2, 0.64, 0, 0.55, 0, 0.84, 0, 2.5, 0, 0, 90, 0.55
IMU, 19978048, -0.0007845295, 0.000116395, 6.504288E-07, 0.2592591, -0.008247536, -9.797913, 0, 0, 30.87966, 1, 1, 1000, 1000
IMU, 20017312, -0.0004554469, 0.0004877377, -0.00112007, 0.2686004, 0.00276557, -9.780744, 0, 0, 30.87992, 1, 1, 1000, 1000
RFND, 20027865, 0.2, 25, 0, 0
IMU, 20057306, 0.0005598134, -0.0003344524, 0.00011909, 0.2623392, -0.007237119, -9.810018, 0, 0, 30.88055, 1, 1, 1000, 1000
MAG, 20077151, 401, 545, 333, 0, 0, 0, 0, 0, 0, 1, 20077143
RFND, 20077180, 0.2, 25, 0, 0
BARO, 20077217, 0.2378149, 992.6378, 28.9, 0.1381356, 20077, 0, 28.41
CTUN, 20077229, 0, 0, 0, 0.5423428, 0.06977442, 0.06977442, 0.23, 0, 0.19, 0, 0, 0
ATT, 20077351, 0, 0.53, 0, 0.65, 359.97, 359.99, 0, 1
RATE, 20077356, -2.405962, -0.03510715, -0.005378789, -2.95675, 0.02061956, -0.007108014, 0.01441127, -0.02251611, 9.172125E-05, -12.03074, -0.2925873, 0
NKF1, 20077364, 0.53, 0.65, 359.98, 0.01281626, -0.01029573, -0.0002970552, 0, 0, 0, -0.06977442, -0.02, 0, 0
NKF2, 20077364, 1, 0, 0, 0, 0, 0, 0, 0, 0, 0, 0, 0, 0
NKF3, 20077364, 0, 0, 0, 0, -0.01, 0, 0, 0, 0, 0, 0
NKF4, 20077364, 0, 0, 0, 0, 0, 6.825914E-07, 0, 0, 0, 19, 229, 0, 0
NKF5, 20077364, 0, 0, 0, 0, 0.2, 0.13, 0, 0.19, 0.5, 3.411275E-05, 0.0003696842, 0.0004998498
NKQ1, 20077364, 0.9999205, 0.0001238488, 0.01261722, -0.0001151581
AHR2, 20077405, 0.5, 0.67, 359.98, 0.23, 0, 0, 0.9999729, 0.004396951, 0.005898241, -0.0001748919
MOTB, 20077413, 1, 1, 0, 1
RCIN, 20077417, 0, 0, 0, 0, 0, 0, 0, 0, 0, 0, 0, 0, 0, 0
RCOU, 20077422, 1101, 1101, 1101, 1101, 0, 0, 0, 0, 0, 0, 0, 0, 0, 0
VIBE, 20077430, 0.0177658, 0.02013906, 0.03479453, 0, 0, 0
CTRL, 20077437, 0.005683863, 0.0001644711, 0.006968059, 0.0001430113, 5.47161E-05
PRX, 20077468, 2, 0.64, 0, 0.55, 0, 0.84, 0, 2.54, 0, 0, 90, 0.55
IMU, 20098120, -0.000414581, 0.0008280901, 0.0003189554, 0.2640251, 0.002788741, -9.768908, 0, 0, 30.88156, 1, 1, 1000, 1000
RFND, 20127224, 0.2, 25, 0, 0
IMU, 20137458, 0.0007124004, -0.0001560257, -5.608728E-05, 0.2462605, 0.003598968, -9.803636, 0, 0, 30.88249, 1, 1, 1000, 1000
MAG, 20177464, 399, 546, 328, 0, 0, 0, 0, 0, 0, 1, 20177456
RFND, 20177495, 0.2, 25, 0, 0
BARO, 20177534, 0.3069472, 992.6298, 28.9, 0.08123041, 20177, 0, 28.41
CTUN, 20177547, 0, 0, 0, 0.5423428, 0.06974582, 0.06974582, 0.3, 0, 0.19, 0, 0, 0
ATT, 20177732, 0, 0.53, 0, 0.65, 359.98, 359.99, 0, 1
RATE, 20177739, -2.415806, 0.03487792, -0.005969446, -2.952745, -0.002721885, -0.007295867, 0.01283976, 0.07557195, -2.761157E-06, 3.484087, -0.8054733, 0
NKF1, 20177747, 0.53, 0.65, 359.98, 0.01356114, -0.01012563, 8.602683E-05, 0, 0, 0, -0.06974582, -0.02, 0, 0
NKF2, 20177747, 1, 0, 0, 0, 0, 0, 0, 0, 0, 0, 0, 0, 0
NKF3, 20177747, 0, 0, 0, 0, -0.01, 0, 0, 0, 0, 0, 0
NKF4, 20177747, 0, 0, 0, 0, 0, 7.781357E-07, 0, 0, 0, 19, 229, 0, 0
NKF5, 20177747, 0, 0, 0, 0, 0.2, 0.13, 0, 0.19, 0.5, 3.335656E-05, 0.0003362206, 0.0004464087
NKQ1, 20177747, 0.9999205, 0.0001406323, 0.01261127, -0.0001016633
AHR2, 20178368, 0.5, 0.67, 359.98, 0.3, 0, 0, 0.9999729, 0.00440635, 0.005903124, -0.0001615913
MOTB, 20178378, 1, 1, 0, 1
RCIN, 20178383, 0, 0, 0, 0, 0, 0, 0, 0, 0, 0, 0, 0, 0, 0
RCOU, 20178389, 1101, 1101, 1101, 1101, 0, 0, 0, 0, 0, 0, 0, 0, 0, 0
VIBE, 20178397, 0.01671189, 0.02068128, 0.0317789, 0, 0, 0
CTRL, 20178405, 0.005689853, 0.00018409, 0.006956778, 0.0001474512, 6.259092E-05
PRX, 20178437, 2, 0.64, 0, 0.55, 0, 0.85, 0, 2.54, 0, 0, 90, 0.55
IMU, 20178445, 0.0001387473, -2.125656E-05, 0.001306767, 0.2562411, 0.0005239843, -9.780983, 0, 0, 30.88336, 1, 1, 1000, 1000
IMU, 20217568, 0.0003426785, -0.0009089446, 0.0005457935, 0.253686, -0.01482825, -9.779943, 0, 0, 30.88418, 1, 1, 1000, 1000
RFND, 20227391, 0.2, 25, 0, 0
IMU, 20257434, -0.0005249387, -0.000497866, -0.0001473708, 0.2544506, -0.002444604, -9.788872, 0, 0, 30.88498, 1, 1, 1000, 1000
MAG, 20277179, 402, 546, 332, 0, 0, 0, 0, 0, 0, 1, 20277171
RFND, 20277207, 0.2, 25, 0, 0
BARO, 20277245, 0.2709984, 992.634, 28.91, 0.01179418, 20277, 0, 28.41
CTUN, 20277258, 0, 0, 0, 0.5423428, 0.0697185, 0.0697185, 0.27, 0, 0.19, 0, 0, 0
ATT, 20277350, 0, 0.53, 0, 0.65, 359.98, 0, 0, 1
RATE, 20277357, -2.424345, 0.0113977, -0.0058298, -2.928185, 0.01880971, -0.007218211, 0.01355905, 0.07629623, -4.045219E-05, -17.19685, 1.664066, 0
NKF1, 20277365, 0.53, 0.65, 359.99, 0.01441405, -0.01064233, -0.0004246136, 0, 0, 0, -0.0697185, -0.02, 0, 0
NKF2, 20277365, 1, 0, 0, 0, 0, 0, 0, 0, 0, 0, 0, 0, 0
NKF3, 20277365, 0, 0, 0, 0, -0.01, 0, 0, 0, 0, 0, 0
NKF4, 20277365, 0, 0, 0, 0, 0, 9.504618E-07, 0, 0, 0, 19, 229, 0, 0
NKF5, 20277365, 0, 0, 0, 0, 0.2, 0.13, 0, 0.19, 0.5, 3.357745E-05, 0.0003325637, 0.0004387088
NKQ1, 20277365, 0.9999211, 0.0001563995, 0.01256326, -6.600317E-05
AHR2, 20277407, 0.5, 0.67, 359.98, 0.27, 0, 0, 0.9999731, 0.004413155, 0.005864879, -0.0001259235
MOTB, 20277415, 1, 1, 0, 1
RCIN, 20277419, 0, 0, 0, 0, 0, 0, 0, 0, 0, 0, 0, 0, 0, 0
RCOU, 20277425, 1101, 1101, 1101, 1101, 0, 0, 0, 0, 0, 0, 0, 0, 0, 0
VIBE, 20277433, 0.02038179, 0.02131017, 0.02986426, 0, 0, 0
CTRL, 20277440, 0.005717423, 0.0001723485, 0.006901919, 0.0001644172, 5.925735E-05
PRX, 20277472, 2, 0.64, 0, 0.55, 0, 0.85, 0, 3.6, 0, 0, 90, 0.55
IMU, 20297516, -0.001215767, 0.0003621376, 0.0001571359, 0.2557315, -0.004616136, -9.795504, 0, 0, 30.88612, 1, 1, 1000, 1000
EV, 20309351, 57
RFND, 20327177, 0.2, 25, 0, 0
IMU, 20337221, 0.0007341271, 0.0005200086, 0.0004338549, 0.2508006, -0.01201853, -9.78148, 0, 0, 30.8877, 1, 1, 1000, 1000
MAG, 20377204, 400, 548, 331, 0, 0, 0, 0, 0, 0, 1, 20377196
RFND, 20377234, 0.2, 25, 0, 0
BARO, 20377272, 0.3124777, 992.6292, 28.91, 0.01640157, 20377, 0, 28.41
CTUN, 20377284, 0, 0, 0, 0.5423428, 0.06976124, 0.06976124, 0.31, 0, 0.19, 0, 0, 0
ATT, 20377382, 0, 0.53, 0, 0.65, 359.98, 0, 0, 1
RATE, 20377388, -2.423692, -0.01281288, -0.005570971, -2.934136, 0.06802832, -0.007261624, 0.0137839, 0.02086188, -4.131009E-05, -39.43242, 0.7918358, 0
NKF1, 20377396, 0.53, 0.65, 359.99, 0.01486477, -0.01105931, -0.00097364, 0, 0, 0, -0.06976124, -0.02, 0, 0
NKF2, 20377396, 1, 0, 0, 0, 0, 0, 0, 0, 0, 0, 0, 0, 0
NKF3, 20377396, 0, 0, 0, 0, -0.01, 0, 0, 0, 0, 0, 0
NKF4, 20377396, 0, 0, 0, 0, 0, 1.106283E-06, 0, 0, 0, 19, 229, 0, 0
NKF5, 20377396, 0, 0, 0, 0, 0.2, 0.13, 0, 0.19, 0.5, 3.268732E-05, 0.000300243, 0.0003899099
NKQ1, 20377396, 0.999921, 0.000155608, 0.01257315, -4.90461E-05
AHR2, 20377439, 0.5, 0.67, 359.99, 0.31, 0, 0, 0.9999731, 0.004400812, 0.005881774, -0.0001091243
MOTB, 20377447, 1, 1, 0, 1
RCIN, 20377451, 0, 0, 0, 0, 0, 0, 0, 0, 0, 0, 0, 0, 0, 0
RCOU, 20377456, 1116, 1116, 1116, 1116, 0, 0, 0, 0, 0, 0, 0, 0, 0, 0
VIBE, 20377464, 0.02127932, 0.01942129, 0.03252585, 0, 0, 0
CTRL, 20377471, 0.005720494, 0.0001755111, 0.006909533, 0.0001633881, 5.422075E-05
PRX, 20377502, 2, 0.64, 0, 0.55, 0, 3.6, 0, 2.52, 0, 0, 90, 0.55
IMU, 20377509, -0.0006930898, 0.00121343, 0.0003519091, 0.2418892, -0.009076369, -9.797341, 0, 0, 30.88899, 1, 1, 1000, 1000
IMU, 20417486, -6.50745E-05, 0.0008328432, 0.001271738, 0.2692843, -0.008015155, -9.796759, 0, 0, 30.89045, 1, 1, 1000, 1000
RFND, 20427425, 0.2, 25, 0, 0
IMU, 20457251, -0.001122202, -0.0003386339, -0.001336811, 0.2507973, -0.004180904, -9.790608, 0, 0, 30.89139, 1, 1, 1000, 1000
MAG, 20477333, 402, 542, 328, 0, 0, 0, 0, 0, 0, 1, 20477325
RFND, 20477365, 0.2, 25, 0, 0
BARO, 20477459, 0.4452116, 992.6144, 28.91, 0.1150203, 20477, 0, 28.41
CTUN, 20477473, 0, 0, 0, 0.5423428, 0.06982704, 0.06982704, 0.44, 0, 0.19, 0, 0, 0
ATT, 20477574, 0, 0.54, 0, 0.65, 359.98, 0, 0, 1
RATE, 20477581, -2.433193, -0.04237412, -0.005612384, -2.927618, -0.05328477, -0.006575725, 0.01380616, -0.02213688, 8.053018E-05, -36.31037, -0.8236885, 0
NKF1, 20477588, 0.54, 0.65, 359.99, 0.0160831, -0.01124856, -0.0008965523, 0, 0, 0, -0.06982704, -0.02, 0, 0
NKF2, 20477588, 1, 0, 0, 0, 0, 0, 0, 0, 0, 0, 0, 0, 0
NKF3, 20477588, 0, 0, 0, 0, -0.01, 0, 0, 0, 0, 0, 0
NKF4, 20477588, 0, 0, 0, 0, 0, 1.300268E-06, 0, 0, 0, 19, 229, 0, 0
NKF5, 20477588, 0, 0, 0, 0, 0.2, 0.13, 0, 0.19, 0.5, 3.310911E-05, 0.0002992505, 0.0003841541
NKQ1, 20477588, 0.9999211, 0.0001747315, 0.01255936, -5.312231E-05
AHR2, 20477701, 0.5, 0.67, 359.98, 0.44, 0, 0, 0.9999731, 0.004408486, 0.005874724, -0.0001133827
MOTB, 20477708, 1, 1, 0, 1
RCIN, 20477713, 0, 0, 0, 0, 0, 0, 0, 0, 0, 0, 0, 0, 0, 0
RCOU, 20477719, 1140, 1140, 1140, 1140, 0, 0, 0, 0, 0, 0, 0, 0, 0, 0
VIBE, 20477727, 0.0207926, 0.01848495, 0.03335278, 0, 0, 0
CTRL, 20477734, 0.005741187, 0.0002040811, 0.006906227, 0.0001586046, 4.989294E-05
PRX, 20477765, 2, 0.64, 0, 0.55, 0, 3.6, 0, 2.51, 0, 0, 90, 0.55
IMU, 20497777, 8.852464E-05, -0.0007482276, -0.0003305021, 0.2615618, -0.01209102, -9.773606, 0, 0, 30.89177, 1, 1, 1000, 1000
RFND, 20527528, 0.2, 25, 0, 0
IMU, 20537407, 0.0002803722, -0.001027993, -0.0005597321, 0.2593717, -0.01725284, -9.807093, 0, 0, 30.89138, 1, 1, 1000, 1000
MAG, 20577322, 404, 543, 335, 0, 0, 0, 0, 0, 0, 1, 20577313
RFND, 20577354, 0.2, 25, 0, 0
BARO, 20577393, 0.4230893, 992.6169, 28.92, 0.305046, 20577, 0, 28.41
CTUN, 20577406, 0, 0, 0, 0.5423428, 0.06984559, 0.06984559, 0.42, 0, 0.19, 0, 0, 0
ATT, 20577652, 0, 0.54, 0, 0.64, 359.98, 0, 0, 1
RATE, 20577660, -2.439801, 0.01565759, -0.006013045, -2.916678, 0.0163622, -0.006965485, 0.01379351, 0.002299223, 0.0001479157, -9.217981, -1.33934, 0
NKF1, 20577669, 0.54, 0.64, 359.99, 0.01781111, -0.01211684, -0.0002276045, 0, 0, 0, -0.06984559, -0.02, 0, 0
NKF2, 20577669, 1, 0, 0, 0, 0, 0, 0, 0, 0, 0, 0, 0, 0
NKF3, 20577669, 0, 0, 0, 0.01, -0.01, 0, 0, 0, 0, 0, 0
NKF4, 20577669, 0, 0, 0, 0, 0, 1.525882E-06, 0, 0, 0, 19, 229, 0, 0
NKF5, 20577669, 0, 0, 0, 0, 0.2, 0.13, 0, 0.19, 0.5, 3.19416E-05, 0.0002681612, 0.0003504209
NKQ1, 20577669, 0.9999214, 0.0001878069, 0.01253904, -8.685714E-05
AHR2, 20577712, 0.5, 0.67, 359.98, 0.42, 0, 0, 0.9999731, 0.004409794, 0.005860757, -0.0001472255
MOTB, 20577721, 1, 1, 0, 1
RCIN, 20577726, 0, 0, 0, 0, 0, 0, 0, 0, 0, 0, 0, 0, 0, 0
RCOU, 20577731, 1164, 1164, 1164, 1164, 0, 0, 0, 0, 0, 0, 0, 0, 0, 0
VIBE, 20577739, 0.01960156, 0.0198684, 0.02946151, 0, 0, 0
CTRL, 20577747, 0.005751323, 0.000189063, 0.006879681, 0.000155001, 8.500136E-05
PRX, 20577779, 2, 0.64, 0, 0.55, 0, 0.82, 0, 2.53, 0, 0, 90, 0.55
IMU, 20577787, -0.0001975329, 0.0003116127, 2.789334E-05, 0.2636449, -0.008198877, -9.775444, 0, 0, 30.89085, 1, 1, 1000, 1000
IMU, 20617457, -0.0003744614, -0.0004212414, 0.0001269216, 0.2484671, -0.01061475, -9.794888, 0, 0, 30.8917, 1, 1, 1000, 1000
RFND, 20627384, 0.2, 25, 0, 0
IMU, 20657429, 0.0001476453, 0.0001799611, 0.0007737535, 0.2601907, -0.00775855, -9.80203, 0, 0, 30.89259, 1, 1, 1000, 1000
MAG, 20677440, 403, 545, 333, 0, 0, 0, 0, 0, 0, 1, 20677432
RFND, 20677476, 0.2, 25, 0, 0
BARO, 20677513, 0.4369158, 992.6153, 28.92, 0.479605, 20677, 0, 28.41
CTUN, 20677526, 0, 0, 0, 0.5423428, 0.06985706, 0.06985706, 0.43, 0, 0.19, 0, 0, 0
ATT, 20677712, 0, 0.54, 0, 0.64, 359.98, 359.99, 0, 1
RATE, 20677718, -2.432404, -0.04712533, -0.005042546, -2.91606, 0.0381062, -0.007142925, 0.01375641, -0.1572117, 0.0001341753, -29.49981, 0.1030922, 0
NKF1, 20677727, 0.54, 0.64, 359.98, 0.01839803, -0.01227325, -0.0007283905, 0, 0, 0, -0.06985706, -0.02, 0, 0
NKF2, 20677727, 1, 0, 0, 0, 0, 0, 0, 0, 0, 0, 0, 0, 0
NKF3, 20677727, 0, 0, 0, 0.01, -0.01, 0, 0, 0, 0, 0, 0
NKF4, 20677727, 0, 0, 0, 0, 0, 1.753301E-06, 0, 0, 0, 19, 229, 0, 0
NKF5, 20677727, 0, 0, 0, 0, 0.2, 0.13, 0, 0.19, 0.5, 3.252842E-05, 0.0002689643, 0.0003408759
NKQ1, 20677727, 0.9999214, 0.0001778871, 0.01253585, -9.924974E-05
AHR2, 20677770, 0.5, 0.67, 359.98, 0.43, 0, 0, 0.9999732, 0.004388987, 0.005865386, -0.0001596503
MOTB, 20677778, 1, 1, 0, 1
RCIN, 20677782, 0, 0, 0, 0, 0, 0, 0, 0, 0, 0, 0, 0, 0, 0
RCOU, 20677788, 1188, 1188, 1188, 1188, 0, 0, 0, 0, 0, 0, 0, 0, 0, 0
VIBE, 20677796, 0.06589208, 0.06444843, 0.07584408, 0, 0, 0
CTRL, 20677803, 0.005760735, 0.0001832739, 0.006867125, 0.0001638538, 9.295655E-05
PRX, 20677834, 2, 0.64, 0, 0.55, 0, 0.82, 0, 2.5, 0, 0, 90, 0.55
IMU, 20697546, -0.004292092, 0.0002310084, 0.00774012, 0.2626708, -0.04073264, -9.795875, 0, 0, 30.89336, 1, 1, 1000, 1000
RFND, 20728264, 0.2, 25, 0, 0
IMU, 20737465, -0.001424244, 2.773511E-05, 0.0171767, 0.2513974, -0.01846536, -9.783792, 0, 0, 30.89506, 1, 1, 1000, 1000
MAG, 20777382, 401, 547, 328, 0, 0, 0, 0, 0, 0, 1, 20777374
RFND, 20777418, 0.2, 25, 0, 0
BARO, 20777457, 0.3539571, 992.6245, 28.93, 0.3949179, 20777, 0, 28.41
CTUN, 20777469, 0, 0, 0, 0.5423428, 0.06988814, 0.06988814, 0.35, 0, 0.19, 0, 0, 0
DU32, 20777505, 7, 33611992
ATT, 20777717, 0, 0.53, 0, 0.65, 359.99, 0, 0, 1
RATE, 20777724, -2.439473, -0.06954604, -0.005074133, -2.917017, 0.1873245, -0.008070625, 0.01377054, 1.285619, 0.0002697644, -19.20451, -0.1796722, 0
NKF1, 20777733, 0.53, 0.65, 0, 0.01830531, -0.0114421, -0.0004741855, 0, 0, 0, -0.06988814, -0.02, 0, 0
NKF2, 20777733, 1, 0, 0, 0, 0, 0, 0, 0, 0, 0, 0, 0, 0
NKF3, 20777733, 0, 0, 0, 0.01, -0.01, 0, 0, 0, 0, 0, 0
NKF4, 20777733, 0, 0, 0, 0, 0, 2.059618E-06, 0, 0, 0, 19, 229, 0, 0
NKF5, 20777733, 0, 0, 0, 0, 0.2, 0.13, 0, 0.19, 0.5, 3.09855E-05, 0.000242205, 0.0003324679
NKQ1, 20777733, 0.9999211, 0.0001575411, 0.01256368, 6.018412E-05
AHR2, 20777776, 0.49, 0.67, 0, 0.35, 0, 0, 0.9999731, 0.004361963, 0.005905427, -3.334061E-07
MOTB, 20777784, 1, 1, 0, 1
RCIN, 20777788, 0, 0, 0, 0, 0, 0, 0, 0, 0, 0, 0, 0, 0, 0
RCOU, 20777794, 1212, 1212, 1212, 1212, 0, 0, 0, 0, 0, 0, 0, 0, 0, 0
VIBE, 20777802, 0.2606283, 0.2875947, 0.2869909, 0, 0, 0
CTRL, 20777809, 0.0057477, 0.0003701371, 0.006871568, 0.0002325711, 0.0001817577
PRX, 20777841, 2, 0.64, 0, 0.55, 0, 3.6, 0, 2.5, 0, 0, 90, 0.55
IMU, 20777848, -0.001684914, 0.003295287, 0.02242604, 0.2085074, 0.06185818, -9.788452, 0, 0, 30.8967, 1, 1, 1000, 1000
IMU, 20817741, -0.001085854, 0.002020315, -0.008778884, 0.3163973, 0.006938149, -9.778206, 0, 0, 30.8988, 1, 1, 1000, 1000
RFND, 20827481, 0.2, 25, 0, 0
IMU, 20857485, 0.0004711361, -0.001753332, -0.0193425, 0.3172665, 0.009558078, -9.814604, 0, 0, 30.90044, 1, 1, 1000, 1000
MAG, 20877380, 401, 545, 330, 0, 0, 0, 0, 0, 0, 1, 20877371
RFND, 20877415, 0.2, 25, 0, 0
BARO, 20877452, 0.3207736, 992.6283, 28.93, 0.05444165, 20877, 0, 28.41
CTUN, 20877465, 0, 0, 0, 0.5423428, 0.06990555, 0.06990555, 0.32, 0, 0.19, 0, 0, 0
ATT, 20877715, 0, 0.53, 0, 0.65, 359.98, 359.99, 0, 1
RATE, 20877722, -2.416945, 0.09186902, -0.006985009, -2.939719, 0.1362426, -0.007043194, 0.01375423, 0.775054, 4.675649E-05, -43.32608, -0.04444122, 0
NKF1, 20877730, 0.53, 0.65, 359.98, 0.02208764, -0.01250394, -0.00106978, 0, 0, 0, -0.06990555, -0.02, 0, 0
NKF2, 20877730, 1, 0, 0, 0, 0, 0, 0, 0, 0, 0, 0, 0, 0
NKF3, 20877730, 0, 0, 0, 0.01, -0.01, 0, 0, 0, 0, 0, 0
NKF4, 20877730, 0, 0, 0, 0, 0, 2.318487E-06, 0, 0, 0, 19, 229, 0, 0
NKF5, 20877730, 0, 0, 0, 0, 0.2, 0.13, 0, 0.19, 0.5, 3.182278E-05, 0.0002423527, 0.0003063291
NKQ1, 20877730, 0.9999207, 0.0001262216, 0.01259731, -0.0001008119
AHR2, 20877773, 0.49, 0.68, 359.98, 0.32, 0, 0, 0.999973, 0.004317621, 0.005948616, -0.0001614046
MOTB, 20877781, 1, 1, 0, 1
RCIN, 20877785, 0, 0, 0, 0, 0, 0, 0, 0, 0, 0, 0, 0, 0, 0
RCOU, 20877790, 1233, 1233, 1221, 1244, 0, 0, 0, 0, 0, 0, 0, 0, 0, 0
VIBE, 20877799, 0.529201, 0.5185784, 0.4622202, 0, 0, 0
CTRL, 20877806, 0.005671526, 0.0005757611, 0.006926278, 0.0005829838, 0.0003089746
PRX, 20877837, 2, 0.64, 0, 0.55, 0, 0.81, 0, 2.49, 0, 0, 90, 0.55
IMU, 20897533, -0.0005030685, 0.003296732, -0.04520762, 0.1881561, -0.01283414, -9.825798, 0, 0, 30.90294, 1, 1, 1000, 1000
RFND, 20927908, 0.2, 25, 0, 0
IMU, 20937405, -0.0002114125, 0.0005483803, -0.003464002, 0.2095116, -0.0475717, -9.843363, 0, 0, 30.90664, 1, 1, 1000, 1000
MAG, 20977313, 401, 545, 331, 0, 0, 0, 0, 0, 0, 1, 20977305
RFND, 20977349, 0.2, 25, 0, 0
BARO, 20977387, 0.2737637, 992.6337, 28.93, -0.2756648, 20977, 0, 28.41
CTUN, 20977400, 0, 0, 0, 0.5423428, 0.06997426, 0.06997426, 0.27, 0, 0.19, 0, 0, 0
ATT, 20977503, 0, 0.52, 0, 0.67, 359.95, 359.97, 0, 1
RATE, 20977510, -2.394083, -0.1749392, -0.004336478, -3.029925, 0.3815974, -0.008641089, 0.01402751, 1.330356, 0.0006351512, -22.50464, -1.590157, 0
NKF1, 20977517, 0.52, 0.67, 359.96, 0.02360939, -0.01242621, -0.0005556701, 0, 0, 0, -0.06997426, -0.02, 0, 0
NKF2, 20977517, 1, 0, 0, 0, 0, 0, 0, 0, 0, 0, 0, 0, 0
NKF3, 20977517, 0, 0, 0, 0.01, -0.01, 0, 0, 0, 0, 0, 0
NKF4, 20977517, 0, 0, 0, 0, 0, 2.724061E-06, 0, 0, 0, 19, 229, 0, 0
NKF5, 20977517, 0, 0, 0, 0, 0.2, 0.13, 0, 0.19, 0.5, 3.034592E-05, 0.0002250148, 0.0003443688
NKQ1, 20977517, 0.9999182, 7.186831E-05, 0.01278251, -0.0003171518
AHR2, 20977561, 0.48, 0.7, 359.95, 0.27, 0, 0, 0.9999721, 0.004240636, 0.006139966, -0.00037844
MOTB, 20977570, 1, 1, 0, 1
RCIN, 20977574, 0, 0, 0, 0, 0, 0, 0, 0, 0, 0, 0, 0, 0, 0
RCOU, 20977580, 1229, 1237, 1221, 1243, 0, 0, 0, 0, 0, 0, 0, 0, 0, 0
VIBE, 20977588, 0.4574439, 0.4822591, 0.541144, 0, 0, 0
CTRL, 20977688, 0.005682062, 0.0008322013, 0.007107871, 0.0006448521, 0.0006479395
PRX, 20977721, 2, 0.64, 0, 0.55, 0, 0.81, 0, 2.51, 0, 0, 90, 0.55
IMU, 20977729, -0.003524755, 0.006685752, 0.02320683, 0.2545593, -0.03824539, -9.773158, 0, 0, 30.91107, 1, 1, 1000, 1000
IMU, 21017728, 0.007686391, 0.007363738, 0.03895475, 0.2109058, -0.03846229, -9.755906, 0, 0, 30.91539, 1, 1, 1000, 1000
RFND, 21027553, 0.2, 25, 0, 0
IMU, 21057702, 0.006624615, 0.001809211, 0.007775404, 0.3526245, 0.01126423, -9.805227, 0, 0, 30.91885, 1, 1, 1000, 1000
MAG, 21077385, 394, 547, 330, 0, 0, 0, 0, 0, 0, 1, 21077376
RFND, 21077421, 0.2, 25, 0, 0
BARO, 21077458, 0.2986513, 992.6308, 28.93, -0.4139293, 21077, 0, 28.41
CTUN, 21077472, 0, 0, 0, 0.5423428, 0.07012954, 0.07012954, 0.29, 0, 0.19, 0, 0, 0
ATT, 21077831, 0, 0.53, 0, 0.67, 359.96, 359.98, 0, 1
RATE, 21077838, -2.401474, 0.008093469, -0.002753013, -3.018756, -0.2061539, -0.004991468, 0.01405796, -0.0321586, -0.0001457783, -104.3935, -2.058506, 0
NKF1, 21077845, 0.53, 0.67, 359.97, 0.02244781, -0.01278227, -0.002577618, 0, 0, 0, -0.07012954, -0.02, 0, 0
NKF2, 21077845, 1, 0, 0, 0, 0, 0, 0, 0, 0, 0, 0, 0, 0
NKF3, 21077845, 0, 0, 0, 0.01, -0.02, 0, 0, 0, 0, 0, 0
NKF4, 21077845, 0, 0, 0, 0, 0, 3.084392E-06, 0, 0, 0, 19, 229, 0, 0
NKF5, 21077845, 0, 0, 0, 0, 0.2, 0.13, 0, 0.19, 0.5, 2.857437E-05, 0.0002516629, 0.0005401743
NKQ1, 21077845, 0.9999189, 0.0001168693, 0.01273714, -0.0002395229
AHR2, 21077887, 0.48, 0.7, 359.96, 0.29, 0, 0, 0.9999722, 0.004262287, 0.006113306, -0.0003011541
MOTB, 21077895, 1, 1, 0, 1
RCIN, 21077900, 0, 0, 0, 0, 0, 0, 0, 0, 0, 0, 0, 0, 0, 0
RCOU, 21077905, 1225, 1229, 1221, 1234, 0, 0, 0, 0, 0, 0, 0, 0, 0, 0
VIBE, 21077913, 0.4492784, 0.5201397, 0.6411712, 0, 0, 0
CTRL, 21077920, 0.005800535, 0.001280401, 0.00716331, 0.0007668049, 0.0006134681
PRX, 21077951, 2, 0.64, 0, 0.55, 0, 0.84, 0, 2.51, 0, 0, 90, 0.55
IMU, 21097688, -0.006216179, 0.0008902719, -0.003429637, 0.4218174, -0.007244269, -9.807574, 0, 0, 30.92097, 1, 1, 1000, 1000
RFND, 21127362, 0.2, 25, 0, 0
IMU, 21137485, -0.002745662, -0.009375859, 0.01433775, 0.3049836, -0.08521786, -9.793488, 0, 0, 30.92274, 1, 1, 1000, 1000
MAG, 21177729, 402, 545, 336, 0, 0, 0, 0, 0, 0, 1, 21177720
RFND, 21177765, 0.2, 25, 0, 0
BARO, 21177802, 0.295886, 992.6312, 28.94, -0.3378839, 21177, 0, 28.41
CTUN, 21177815, 0, 0, 0, 0.5423428, 0.07029256, 0.07029256, 0.29, 0, 0.19, 0, 0, 0
ATT, 21177917, 0, 0.54, 0, 0.65, 359.95, 359.97, 0, 1
RATE, 21177923, -2.47774, 1.285637, -0.0134216, -2.945768, -0.5066467, -0.00326142, 0.01413222, 0.9945282, 0.0003322806, -81.48922, -6.437874, 0
NKF1, 21177931, 0.54, 0.65, 359.96, 0.02603412, -0.01285194, -0.002012079, 0, 0, 0, -0.07029256, -0.02, 0, 0
NKF2, 21177931, 1, 0, 0, 0, 0, 0, 0, 0, 0, 0, 0, 0, 0
NKF3, 21177931, 0, 0, 0, 0.01, -0.02, 0, 0, 0, 0, 0, 0
NKF4, 21177931, 0, 0, 0, 0, 0, 3.551094E-06, 0, 0, 0, 19, 229, 0, 0
NKF5, 21177931, 0, 0, 0, 0, 0.2, 0.13, 0, 0.19, 0.5, 2.955883E-05, 0.0002141487, 0.0003920324
NKQ1, 21177931, 0.9999204, 0.0002433278, 0.01261455, -0.0003489576
AHR2, 21177976, 0.49, 0.69, 359.95, 0.29, 0, 0, 0.9999722, 0.004358198, 0.006041487, -0.0004113145
MOTB, 21177983, 1, 1, 0, 1
RCIN, 21177987, 0, 0, 0, 0, 0, 0, 0, 0, 0, 0, 0, 0, 0, 0
RCOU, 21177993, 1244, 1227, 1221, 1249, 0, 0, 0, 0, 0, 0, 0, 0, 0, 0
VIBE, 21178001, 0.4763156, 0.4716322, 0.5925144, 0, 0, 0
CTRL, 21178008, 0.005837766, 0.002308199, 0.00707941, 0.001676842, 0.0006022461
PRX, 21178039, 2, 0.64, 0, 0.55, 0, 0.84, 0, 2.52, 0, 0, 90, 0.55
IMU, 21178046, 0.02196756, -0.00881738, 0.01734554, 0.1840634, -0.05490373, -9.726452, 0, 0, 30.92561, 1, 1, 1000, 1000
IMU, 21217863, 0.006732257, 0.003530691, 0.006459418, 0.3263162, 0.02553447, -9.754124, 0, 0, 30.92815, 1, 1, 1000, 1000
RFND, 21227562, 0.2, 25, 0, 0
IMU, 21257428, -0.01700676, 0.002605373, 0.002039595, 0.51278, -0.008044376, -9.817186, 0, 0, 30.92898, 1, 1, 1000, 1000
MAG, 21277419, 400, 541, 334, 0, 0, 0, 0, 0, 0, 1, 21277411
RFND, 21277455, 0.2, 25, 0, 0
BARO, 21277492, 0.2129273, 992.6404, 28.94, -0.1771514, 21277, 0, 28.41
CTUN, 21277504, 0, 0, 0, 0.5423428, 0.07038561, 0.07038561, 0.21, 0, 0.19, 0, 0, 0
ATT, 21277781, 0, 0.54, 0, 0.65, 359.94, 359.96, 0, 1
RATE, 21277787, -2.443788, 0.5935611, -0.01310656, -2.925565, 0.142861, -0.006169456, 0.01385329, 0.2166972, 9.047697E-05, 36.55153, -6.665993, 0
NKF1, 21277795, 0.54, 0.65, 359.95, 0.02633326, -0.0119475, 0.0009025069, 0, 0, 0, -0.07038561, -0.02, 0, 0
NKF2, 21277795, 1, 0, 0, 0, 0, 0, 0, 0, 0, 0, 0, 0, 0
NKF3, 21277795, 0, 0, 0, 0.02, -0.02, 0, 0, 0, 0, 0, 0
NKF4, 21277795, 0, 0, 0, 0, 0, 4.016062E-06, 0, 0, 0, 19, 229, 0, 0
NKF5, 21277795, 0, 0, 0, 0, 0.2, 0.13, 0, 0.19, 0.5, 2.774171E-05, 0.0002715428, 0.0006431922
NKQ1, 21277795, 0.9999211, 0.0001945318, 0.01256, -0.0003917459
AHR2, 21277839, 0.49, 0.69, 359.95, 0.21, 0, 0, 0.9999725, 0.004287042, 0.006029838, -0.0004538341
MOTB, 21277846, 1, 1, 0, 1
RCIN, 21277851, 0, 0, 0, 0, 0, 0, 0, 0, 0, 0, 0, 0, 0, 0
RCOU, 21277857, 1243, 1232, 1221, 1253, 0, 0, 0, 0, 0, 0, 0, 0, 0, 0
VIBE, 21277865, 0.4666919, 0.4142714, 0.5557091, 0, 0, 0
CTRL, 21277872, 0.005777008, 0.002960379, 0.006988105, 0.00196632, 0.0005161306
PRX, 21277903, 2, 0.64, 0, 0.55, 0, 0.82, 0, 2.5, 0, 0, 90, 0.55
IMU, 21297693, -0.001540734, -0.003775681, -0.01056845, 0.3039719, 0.02089814, -9.845925, 0, 0, 30.92854, 1, 1, 1000, 1000
RFND, 21327529, 0.2, 25, 0, 0
IMU, 21337474, 0.004030367, 0.008318774, 0.001422366, 0.04313366, -0.0194189, -9.8557, 0, 0, 30.92695, 1, 1, 1000, 1000
MAG, 21377584, 399, 542, 332, 0, 0, 0, 0, 0, 0, 1, 21377576
RFND, 21377698, 0.2, 25, 0, 0
BARO, 21377737, 0.1991009, 992.6421, 28.94, -0.1486343, 21377, 0, 28.41
CTUN, 21377750, 0, 0, 0, 0.5423428, 0.07034607, 0.07034607, 0.19, 0, 0.19, 0, 0, 0
ATT, 21377851, 0, 0.53, 0, 0.64, 359.96, 359.98, 0, 1
RATE, 21377858, -2.438358, 0.04755543, -0.006475648, -2.874105, -0.133872, -0.007717967, 0.01356984, 0.9802253, -0.0003620901, -24.29768, 9.848118, 0
NKF1, 21377865, 0.53, 0.64, 359.97, 0.0274425, -0.01208882, -0.0005999428, 0, 0, 0, -0.07034607, -0.02, 0, 0
NKF2, 21377865, 1, 0, 0, 0, 0, 0, 0, 0, 0, 0, 0, 0, 0
NKF3, 21377865, 0, 0, 0, 0.02, -0.02, 0, 0, 0, 0, 0, 0
NKF4, 21377865, 0, 0, 0, 0, 0, 4.52134E-06, 0, 0, 0, 19, 229, 0, 0
NKF5, 21377865, 0, 0, 0, 0, 0.2, 0.13, 0, 0.19, 0.5, 2.886872E-05, 0.0002117031, 0.0004117691
NKQ1, 21377865, 0.9999222, 0.0001662466, 0.01247504, -0.0002337302
AHR2, 21377910, 0.48, 0.68, 359.96, 0.19, 0, 0, 0.9999731, 0.004261345, 0.005965239, -0.0002953038
MOTB, 21377917, 1, 1, 0, 1
RCIN, 21377921, 0, 0, 0, 0, 0, 0, 0, 0, 0, 0, 0, 0, 0, 0
RCOU, 21377926, 1231, 1233, 1221, 1245, 0, 0, 0, 0, 0, 0, 0, 0, 0, 0
VIBE, 21377935, 0.5317255, 0.4034394, 0.6127828, 0, 0, 0
