FMT, 128, 89, FMT, BBnNZ, Type,Length,Name,Format,Columns
FMT, 129, 31, PARM, QNf, TimeUS,Name,Value
FMT, 130, 46, GPS, QBIHBcLLefffB, TimeUS,Status,GMS,GWk,NSats,HDop,Lat,Lng,Alt,Spd,GCrs,VZ,U
FMT, 131, 46, GPS2, QBIHBcLLefffB, TimeUS,Status,GMS,GWk,NSats,HDop,Lat,Lng,Alt,Spd,GCrs,VZ,U
FMT, 132, 46, GPSB, QBIHBcLLefffB, TimeUS,Status,GMS,GWk,NSats,HDop,Lat,Lng,Alt,Spd,GCrs,VZ,U
FMT, 193, 24, GPA, QCCCCBI, TimeUS,VDop,HAcc,VAcc,SAcc,VV,SMS
FMT, 194, 24, GPA2, QCCCCBI, TimeUS,VDop,HAcc,VAcc,SAcc,VV,SMS
FMT, 195, 24, GPAB, QCCCCBI, TimeUS,VDop,HAcc,VAcc,SAcc,VV,SMS
FMT, 133, 53, IMU, QffffffIIfBBHH, TimeUS,GyrX,GyrY,GyrZ,AccX,AccY,AccZ,EG,EA,T,GH,AH,GHz,AHz
FMT, 134, 75, MSG, QZ, TimeUS,Message
FMT, 135, 39, RCIN, QHHHHHHHHHHHHHH, TimeUS,C1,C2,C3,C4,C5,C6,C7,C8,C9,C10,C11,C12,C13,C14
FMT, 136, 39, RCOU, QHHHHHHHHHHHHHH, TimeUS,C1,C2,C3,C4,C5,C6,C7,C8,C9,C10,C11,C12,C13,C14
FMT, 137, 15, RSSI, Qf, TimeUS,RXRSSI
FMT, 139, 37, BARO, QffcfIff, TimeUS,Alt,Press,Temp,CRt,SMS,Offset,GndTemp
FMT, 140, 22, POWR, QffHB, TimeUS,Vcc,VServo,Flags,Safety
FMT, 143, 45, CMD, QHHHfffffff, TimeUS,CTot,CNum,CId,Prm1,Prm2,Prm3,Prm4,Lat,Lng,Alt
FMT, 144, 20, RAD, QBBBBBHH, TimeUS,RSSI,RemRSSI,TxBuf,Noise,RemNoise,RxErrors,Fixed
FMT, 146, 43, CAM, QIHLLeeeccC, TimeUS,GPSTime,GPSWeek,Lat,Lng,Alt,RelAlt,GPSAlt,Roll,Pitch,Yaw
FMT, 232, 43, TRIG, QIHLLeeeccC, TimeUS,GPSTime,GPSWeek,Lat,Lng,Alt,RelAlt,GPSAlt,Roll,Pitch,Yaw
FMT, 162, 30, ARSP, QffcffB, TimeUS,Airspeed,DiffPress,Temp,RawPress,Offset,U
FMT, 164, 45, CURR, QfffcHHHHHHHHHH, TimeUS,Volt,Curr,CurrTot,Temp,V1,V2,V3,V4,V5,V6,V7,V8,V9,V10
FMT, 165, 45, CUR2, QfffcHHHHHHHHHH, TimeUS,Volt,Curr,CurrTot,Temp,V1,V2,V3,V4,V5,V6,V7,V8,V9,V10
FMT, 163, 27, ATT, QccccCCCC, TimeUS,DesRoll,Roll,DesPitch,Pitch,DesYaw,Yaw,ErrRP,ErrYaw
FMT, 166, 34, MAG, QhhhhhhhhhBI, TimeUS,MagX,MagY,MagZ,OfsX,OfsY,OfsZ,MOfsX,MOfsY,MOfsZ,Health,S
FMT, 169, 14, MODE, QMBB, TimeUS,Mode,ModeNum,Rsn
FMT, 196, 17, RFND, QCBCB, TimeUS,Dist1,Orient1,Dist2,Orient2
FMT, 223, 33, DMS, IIIIIBBBBBBBBBB, TimeMS,N,Dp,RT,RS,Er,Fa,Fmn,Fmx,Pa,Pmn,Pmx,Sa,Smn,Smx
FMT, 240, 41, BCN, QBBfffffff, TimeUS,Health,Cnt,D0,D1,D2,D3,PosX,PosY,PosZ
FMT, 138, 53, IMU2, QffffffIIfBBHH, TimeUS,GyrX,GyrY,GyrZ,AccX,AccY,AccZ,EG,EA,T,GH,AH,GHz,AHz
FMT, 147, 53, IMU3, QffffffIIfBBHH, TimeUS,GyrX,GyrY,GyrZ,AccX,AccY,AccZ,EG,EA,T,GH,AH,GHz,AHz
FMT, 141, 45, AHR2, QccCfLLffff, TimeUS,Roll,Pitch,Yaw,Alt,Lat,Lng,Q1,Q2,Q3,Q4
FMT, 180, 31, POS, QLLfff, TimeUS,Lat,Lng,Alt,RelHomeAlt,RelOriginAlt
FMT, 142, 45, SIM, QccCfLLffff, TimeUS,Roll,Pitch,Yaw,Alt,Lat,Lng,Q1,Q2,Q3,Q4
FMT, 198, 51, NKF1, QccCfffffffccc, TimeUS,Roll,Pitch,Yaw,VN,VE,VD,dPD,PN,PE,PD,GX,GY,GZ
FMT, 199, 35, NKF2, QbccccchhhhhhB, TimeUS,AZbias,GSX,GSY,GSZ,VWN,VWE,MN,ME,MD,MX,MY,MZ,MI
FMT, 200, 33, NKF3, Qcccccchhhcc, TimeUS,IVN,IVE,IVD,IPN,IPE,IPD,IMX,IMY,IMZ,IYAW,IVT
FMT, 201, 35, NKF4, QcccccfbbHBHHb, TimeUS,SV,SP,SH,SM,SVT,errRP,OFN,OFE,FS,TS,SS,GPS,PI
FMT, 202, 40, NKF5, QBhhhcccCCfff, TimeUS,NI,FIX,FIY,AFI,HAGL,offset,RI,rng,Herr,eAng,eVel,ePos
FMT, 203, 51, NKF6, QccCfffffffccc, TimeUS,Roll,Pitch,Yaw,VN,VE,VD,dPD,PN,PE,PD,GX,GY,GZ
FMT, 204, 35, NKF7, QbccccchhhhhhB, TimeUS,AZbias,GSX,GSY,GSZ,VWN,VWE,MN,ME,MD,MX,MY,MZ,MI
FMT, 205, 33, NKF8, Qcccccchhhcc, TimeUS,IVN,IVE,IVD,IPN,IPE,IPD,IMX,IMY,IMZ,IYAW,IVT
FMT, 206, 35, NKF9, QcccccfbbHBHHb, TimeUS,SV,SP,SH,SM,SVT,errRP,OFN,OFE,FS,TS,SS,GPS,PI
FMT, 207, 36, NKF0, QBccCCcccccccc, TimeUS,ID,rng,innov,SIV,TR,BPN,BPE,BPD,OFH,OFL,OFN,OFE,OFD
FMT, 208, 27, NKQ1, Qffff, TimeUS,Q1,Q2,Q3,Q4
FMT, 209, 27, NKQ2, Qffff, TimeUS,Q1,Q2,Q3,Q4
FMT, 210, 51, XKF1, QccCfffffffccc, TimeUS,Roll,Pitch,Yaw,VN,VE,VD,dPD,PN,PE,PD,GX,GY,GZ
FMT, 211, 34, XKF2, QccccchhhhhhB, TimeUS,AX,AY,AZ,VWN,VWE,MN,ME,MD,MX,MY,MZ,MI
FMT, 212, 33, XKF3, Qcccccchhhcc, TimeUS,IVN,IVE,IVD,IPN,IPE,IPD,IMX,IMY,IMZ,IYAW,IVT
FMT, 213, 35, XKF4, QcccccfbbHBHHb, TimeUS,SV,SP,SH,SM,SVT,errRP,OFN,OFE,FS,TS,SS,GPS,PI
FMT, 214, 40, XKF5, QBhhhcccCCfff, TimeUS,NI,FIX,FIY,AFI,HAGL,offset,RI,rng,Herr,eAng,eVel,ePos
FMT, 215, 51, XKF6, QccCfffffffccc, TimeUS,Roll,Pitch,Yaw,VN,VE,VD,dPD,PN,PE,PD,GX,GY,GZ
FMT, 216, 34, XKF7, QccccchhhhhhB, TimeUS,AX,AY,AZ,VWN,VWE,MN,ME,MD,MX,MY,MZ,MI
FMT, 217, 33, XKF8, Qcccccchhhcc, TimeUS,IVN,IVE,IVD,IPN,IPE,IPD,IMX,IMY,IMZ,IYAW,IVT
FMT, 218, 35, XKF9, QcccccfbbHBHHb, TimeUS,SV,SP,SH,SM,SVT,errRP,OFN,OFE,FS,TS,SS,GPS,PI
FMT, 219, 36, XKF0, QBccCCcccccccc, TimeUS,ID,rng,innov,SIV,TR,BPN,BPE,BPD,OFH,OFL,OFN,OFE,OFD
FMT, 220, 27, XKQ1, Qffff, TimeUS,Q1,Q2,Q3,Q4
FMT, 221, 27, XKQ2, Qffff, TimeUS,Q1,Q2,Q3,Q4
FMT, 222, 35, XKFD, Qffffff, TimeUS,IX,IY,IZ,IVX,IVY,IVZ
FMT, 148, 34, TERR, QBLLHffHH, TimeUS,Status,Lat,Lng,Spacing,TerrH,CHeight,Pending,Loaded
FMT, 149, 18, UBX1, QBHBBH, TimeUS,Instance,noisePerMS,jamInd,aPower,agcCnt
FMT, 150, 16, UBX2, QBbBbB, TimeUS,Instance,ofsI,magI,ofsQ,magQ
FMT, 151, 18, UBY1, QBHBBH, TimeUS,Instance,noisePerMS,jamInd,aPower,agcCnt
FMT, 152, 16, UBY2, QBbBbB, TimeUS,Instance,ofsI,magI,ofsQ,magQ
FMT, 170, 42, GRAW, QIHBBddfBbB, TimeUS,WkMS,Week,numSV,sv,cpMes,prMes,doMes,mesQI,cno,lli
FMT, 171, 24, GRXH, QdHbBB, TimeUS,rcvTime,week,leapS,numMeas,recStat
FMT, 172, 41, GRXS, QddfBBBHBBBBB, TimeUS,prMes,cpMes,doMes,gnss,sv,freq,lock,cno,prD,cpD,doD,trk
FMT, 173, 63, SBFE, QIHBBdddfffff, TimeUS,TOW,WN,Mode,Err,Lat,Lng,Height,Undul,Vn,Ve,Vu,COG
FMT, 153, 19, ESC1, Qcccc, TimeUS,RPM,Volt,Curr,Temp
FMT, 154, 19, ESC2, Qcccc, TimeUS,RPM,Volt,Curr,Temp
FMT, 155, 19, ESC3, Qcccc, TimeUS,RPM,Volt,Curr,Temp
FMT, 156, 19, ESC4, Qcccc, TimeUS,RPM,Volt,Curr,Temp
FMT, 157, 19, ESC5, Qcccc, TimeUS,RPM,Volt,Curr,Temp
FMT, 158, 19, ESC6, Qcccc, TimeUS,RPM,Volt,Curr,Temp
FMT, 159, 19, ESC7, Qcccc, TimeUS,RPM,Volt,Curr,Temp
FMT, 160, 19, ESC8, Qcccc, TimeUS,RPM,Volt,Curr,Temp
FMT, 167, 34, MAG2, QhhhhhhhhhBI, TimeUS,MagX,MagY,MagZ,OfsX,OfsY,OfsZ,MOfsX,MOfsY,MOfsZ,Health,S
FMT, 168, 34, MAG3, QhhhhhhhhhBI, TimeUS,MagX,MagY,MagZ,OfsX,OfsY,OfsZ,MOfsX,MOfsY,MOfsZ,Health,S
FMT, 174, 31, ACC1, QQfff, TimeUS,SampleUS,AccX,AccY,AccZ
FMT, 175, 31, ACC2, QQfff, TimeUS,SampleUS,AccX,AccY,AccZ
FMT, 176, 31, ACC3, QQfff, TimeUS,SampleUS,AccX,AccY,AccZ
FMT, 177, 31, GYR1, QQfff, TimeUS,SampleUS,GyrX,GyrY,GyrZ
FMT, 178, 31, GYR2, QQfff, TimeUS,SampleUS,GyrX,GyrY,GyrZ
FMT, 179, 31, GYR3, QQfff, TimeUS,SampleUS,GyrX,GyrY,GyrZ
FMT, 181, 35, PIDR, Qffffff, TimeUS,Des,P,I,D,FF,AFF
FMT, 182, 35, PIDP, Qffffff, TimeUS,Des,P,I,D,FF,AFF
FMT, 183, 35, PIDY, Qffffff, TimeUS,Des,P,I,D,FF,AFF
FMT, 184, 35, PIDA, Qffffff, TimeUS,Des,P,I,D,FF,AFF
FMT, 185, 35, PIDS, Qffffff, TimeUS,Des,P,I,D,FF,AFF
FMT, 186, 35, PIDL, Qffffff, TimeUS,Des,P,I,D,FF,AFF
FMT, 161, 37, BAR2, QffcfIff, TimeUS,Alt,Press,Temp,CRt,SMS,Offset,GndTemp
FMT, 197, 37, BAR3, QffcfIff, TimeUS,Alt,Press,Temp,CRt,SMS,Offset,GndTemp
FMT, 187, 35, VIBE, QfffIII, TimeUS,VibeX,VibeY,VibeZ,Clip0,Clip1,Clip2
FMT, 188, 47, IMT, Qfffffffff, TimeUS,DelT,DelvT,DelaT,DelAX,DelAY,DelAZ,DelVX,DelVY,DelVZ
FMT, 189, 47, IMT2, Qfffffffff, TimeUS,DelT,DelvT,DelaT,DelAX,DelAY,DelAZ,DelVX,DelVY,DelVZ
FMT, 190, 47, IMT3, Qfffffffff, TimeUS,DelT,DelvT,DelaT,DelAX,DelAY,DelAZ,DelVX,DelVY,DelVZ
FMT, 191, 24, ORGN, QBLLe, TimeUS,Type,Lat,Lng,Alt
FMT, 192, 19, RPM, Qff, TimeUS,rpm1,rpm2
FMT, 233, 47, GMB1, Iffffffffff, TimeMS,dt,dax,day,daz,dvx,dvy,dvz,jx,jy,jz
FMT, 234, 44, GMB2, IBfffffffff, TimeMS,es,ex,ey,ez,rx,ry,rz,tx,ty,tz
FMT, 235, 13, GMB3, Ihhh, TimeMS,rl_torque_cmd,el_torque_cmd,az_torque_cmd
FMT, 236, 59, RATE, Qffffffffffff, TimeUS,RDes,R,ROut,PDes,P,POut,YDes,Y,YOut,ADes,A,AOut
FMT, 237, 23, RALY, QBBLLh, TimeUS,Tot,Seq,Lat,Lng,Alt
FMT, 238, 43, VISO, Qffffffff, TimeUS,dt,AngDX,AngDY,AngDZ,PosDX,PosDY,PosDZ,conf
FMT, 224, 23, SBPH, QIII, TimeUS,CrcError,LastInject,IARhyp
FMT, 229, 80, SBR1, QHHBZ, TimeUS,msg_type,sender_id,msg_len,d1
FMT, 230, 205, SBR2, QHZZZ, TimeUS,msg_type,d2,d3,d4
FMT, 25, 41, ATUN, QBBfffffff, TimeUS,Axis,TuneStep,Targ,Min,Max,RP,RD,SP,ddt
FMT, 26, 19, ATDE, Qff, TimeUS,Angle,Rate
FMT, 31, 22, PTUN, QBfHHH, TimeUS,Param,TunVal,CtrlIn,TunLo,TunHi
FMT, 12, 28, OF, QBffff, TimeUS,Qual,flowX,flowY,bodyX,bodyY
FMT, 5, 51, NTUN, Qffffffffff, TimeUS,DPosX,DPosY,PosX,PosY,DVelX,DVelY,VelX,VelY,DAccX,DAccY
FMT, 4, 51, CTUN, Qffffffeccfhh, TimeUS,ThI,ABst,ThO,ThH,DAlt,Alt,BAlt,DSAlt,SAlt,TAlt,DCRt,CRt
FMT, 6, 32, PM, QHHIhBHII, TimeUS,NLon,NLoop,MaxT,PMT,I2CErr,INSErr,LogDrop,Mem
FMT, 30, 27, MOTB, Qffff, TimeUS,LiftMax,BatVolt,BatRes,ThLimit
FMT, 13, 12, EV, QB, TimeUS,Id
FMT, 20, 14, D16, QBh, TimeUS,Id,Value
FMT, 21, 14, DU16, QBH, TimeUS,Id,Value
FMT, 22, 16, D32, QBi, TimeUS,Id,Value
FMT, 23, 16, DU32, QBI, TimeUS,Id,Value
FMT, 24, 16, DFLT, QBf, TimeUS,Id,Value
FMT, 19, 13, ERR, QBB, TimeUS,Subsys,ECode
FMT, 32, 19, HELI, Qff, TimeUS,DRRPM,ERRPM
FMT, 33, 29, PL, QBBffff, TimeUS,Heal,TAcq,pX,pY,vX,vY
FMT, 34, 36, GUID, QBffffff, TimeUS,Type,pX,pY,pZ,vX,vY,vZ
FMT, 35, 32, THRO, QBffffbbbb, TimeUS,Stage,Vel,VelZ,Acc,AccEfZ,Throw,AttOk,HgtOk,PosOk
FMT, 36, 56, PRX, QBfffffffffff, TimeUS,Health,D0,D45,D90,D135,D180,D225,D270,D315,DUp,CAn,CDis
MODE, 31196964, 100, 100, 2
EV, 31207837, 15
IMU, 31227879, 0.0005206232, 0.0003011755, 0.0006528944, 0.2517678, -0.03607461, -9.77329, 0, 0, 32.36876, 1, 1, 1000, 1000
FMT, 254, 47, NKT1, QIffffffff, TimeUS,Cnt,IMUMin,IMUMax,EKFMin,EKFMax,AngMin,AngMax,VelMin,VelM
FMT, 253, 31, CTRL, Qfffff, TimeUS,RMSRollP,RMSRollD,RMSPitchP,RMSPitchD,RMSYaw
MSG, 31338489, APM:Copter V3.5.7 (38483450)
MSG, 31338495, New mission
MSG, 31338505, Frame: QUAD
MODE, 31338510, Autonomous, 100, 2
IMU, 31348244, 0.0004938054, -0.0005112526, -0.0002541715, 0.2348238, -0.0481414, -9.799621, 0, 0, 32.37092, 1, 1, 1000, 1000
MAG, 31368128, 358, 491, 230, 0, 0, 0, 0, 0, 0, 1, 31368119
RFND, 31368162, 0.2, 25, 0, 0
BARO, 31368198, 0.1913808, 992.6364, 30.41, -0.4567559, 31368, 0, 29.32
CTUN, 31368211, 0, 0, 0, 0.5423428, 0.04846617, 0.04846617, 0.19, 0, 0.19, 0, 0, -1
ATT, 31368971, 0, 0.77, 0, 0.62, 359.87, 359.89, 0, 1
RATE, 31368980, -3.473621, 0.02784714, -0.008132831, -2.815637, -0.01260464, -0.006818164, 0.01872921, 0.003312736, 4.83603E-05, 434.1962, 0.1318932, 0
NKF1, 31368990, 0.77, 0.62, 359.88, 0.002592691, 0.0005775824, 0.01072089, 0, 0, 0, -0.04846617, 0, 0, 0
NKF2, 31368990, 2, 0, 0, 0, 0, 0, 0, 0, 0, 0, 0, 0, 0
NKF3, 31368990, 0, 0, 0, 0, 0, 0.01, 0, 0, 0, 0, 0
NKF4, 31368990, 0, 0, 0, 0, 0, 8.615279E-06, 0, 0, 0, 19, 229, 0, 0
NKF5, 31368990, 0, 0, 0, 0, 0.18, 0.13, 0, 0.19, 0.5, 2.060299E-05, 0.001393364, 0.002853765
NKQ1, 31368990, 0.9999209, 0.002203462, 0.01234037, -0.001013388
AHR2, 31369041, 0.76, 0.64, 359.85, 0.19, 0, 0, 0.9999613, 0.00664181, 0.005627397, -0.001259358
MOTB, 31369049, 1, 1, 0, 1
RCIN, 31369054, 0, 0, 0, 0, 0, 0, 0, 0, 0, 0, 0, 0, 0, 0
RCOU, 31369060, 1101, 1101, 1101, 1101, 0, 0, 0, 0, 0, 0, 0, 0, 0, 0
VIBE, 31369068, 0.02012658, 0.01705127, 0.03279632, 0, 0, 0
CTRL, 31369076, 0.008184185, 0.0002004425, 0.006625117, 0.0001737848, 0.0001156698
PRX, 31369107, 2, 0.71, 0, 0.62, 0, 3.6, 0, 2.43, 0, 0, 90, 0.62
IMU, 31388144, 0.0004772836, 0.0006337662, 0.0008267637, 0.2395454, -0.03739166, -9.785172, 0, 0, 32.3714, 1, 1, 1000, 1000
RFND, 31417932, 0.2, 25, 0, 0
IMU, 31428041, 0.0002430545, 0.0004356696, 0.0007569785, 0.2472436, -0.03647431, -9.760113, 0, 0, 32.37126, 1, 1, 1000, 1000
MAG, 31467946, 356, 493, 231, 0, 0, 0, 0, 0, 0, 1, 31467938
RFND, 31468102, 0.2, 25, 0, 0
BARO, 31468147, 0.1275872, 992.6436, 30.41, -0.2001471, 31468, 0, 29.32
CTUN, 31468161, 0, 0, 0, 0.5423428, 0.04878766, 0.04878766, 0.12, 0, 0.19, 0, 0, -1
ATT, 31468234, 0, 0.77, 0, 0.62, 359.87, 359.89, 0, 1
RATE, 31468240, -3.479013, -0.03306161, -0.008034604, -2.810383, -0.07260811, -0.00606343, 0.01714023, -0.000371132, 1.296279E-05, 443.7904, -0.1532555, 0
NKF1, 31468249, 0.77, 0.62, 359.88, 0.00244146, 0.0006531143, 0.01095779, 0, 0, 0, -0.04878766, 0, 0, 0
NKF2, 31468249, 2, 0, 0, 0, 0, 0, 0, 0, 0, 0, 0, 0, 0
NKF3, 31468249, 0, 0, 0, 0, 0, 0.01, 0, 0, 0, 0, 0
NKF4, 31468249, 0, 0, 0, 0, 0, 5.6339E-06, 0, 0, 0, 19, 229, 0, 0
NKF5, 31468249, 0, 0, 0, 0, 0.18, 0.13, 0, 0.19, 0.5, 2.562681E-05, 0.001325372, 0.002492345
NKQ1, 31468249, 0.9999211, 0.002214875, 0.012331, -0.0009960359
AHR2, 31468295, 0.76, 0.64, 359.86, 0.12, 0, 0, 0.9999613, 0.00665242, 0.005617979, -0.0012424
MOTB, 31468302, 1, 1, 0, 1
RCIN, 31468306, 0, 0, 0, 0, 0, 0, 0, 0, 0, 0, 0, 0, 0, 0
RCOU, 31468312, 1101, 1101, 1101, 1101, 0, 0, 0, 0, 0, 0, 0, 0, 0, 0
VIBE, 31468321, 0.01954577, 0.01884714, 0.03160001, 0, 0, 0
CTRL, 31468328, 0.008201609, 0.0002021082, 0.006631151, 0.0001770949, 9.529559E-05
PRX, 31468358, 2, 0.71, 0, 0.62, 0, 3.6, 0, 2.43, 0, 0, 90, 0.62
IMU, 31468366, -0.0006924939, -0.001189406, -1.49404E-05, 0.235045, -0.04381261, -9.781176, 0, 0, 32.37118, 1, 1, 1000, 1000
IMU, 31508196, -0.0003868003, 0.001352904, -0.001243433, 0.2453513, -0.04618979, -9.774481, 0, 0, 32.37117, 1, 1, 1000, 1000
RFND, 31518132, 0.2, 25, 0, 0
IMU, 31548329, -2.278362E-05, 0.0003730232, -0.0002354653, 0.2413283, -0.03216217, -9.770338, 0, 0, 32.37131, 1, 1, 1000, 1000
MAG, 31567956, 356, 488, 229, 0, 0, 0, 0, 0, 0, 1, 31567948
RFND, 31567991, 0.2, 25, 0, 0
BARO, 31568028, 0.0804354, 992.649, 30.42, -0.0333511, 31568, 0, 29.32
CTUN, 31568041, 0, 0, 0, 0.5423428, 0.04907738, 0.04907738, 0.08, 0, 0.19, 0, 0, -1
ATT, 31568115, 0, 0.77, 0, 0.62, 359.87, 359.89, 0, 1
RATE, 31568121, -3.48276, 0.02309346, -0.008479163, -2.818428, -0.04185846, -0.006368032, 0.01877721, 0.04230588, 5.835349E-05, 415.4845, 1.138878, 0
NKF1, 31568129, 0.77, 0.62, 359.88, 0.002365006, 0.0007554354, 0.01025888, 0, 0, 0, -0.04907738, 0, 0, 0
NKF2, 31568129, 2, 0, 0, 0, 0, 0, 0, 0, 0, 0, 0, 0, 0
NKF3, 31568129, 0, 0, 0, 0, 0, 0.01, 0, 0, 0, 0, 0
NKF4, 31568129, 0, 0, 0, 0, 0, 3.748047E-06, 0, 0, 0, 19, 229, 0, 0
NKF5, 31568129, 0, 0, 0, 0, 0.18, 0.13, 0, 0.19, 0.5, 3.007146E-05, 0.001412176, 0.002760831
NKQ1, 31568129, 0.9999208, 0.002221344, 0.01234762, -0.001009182
AHR2, 31568173, 0.76, 0.64, 359.86, 0.08, 0, 0, 0.9999612, 0.006659137, 0.005633403, -0.001255988
MOTB, 31568181, 1, 1, 0, 1
RCIN, 31568185, 0, 0, 0, 0, 0, 0, 0, 0, 0, 0, 0, 0, 0, 0
RCOU, 31568190, 1101, 1101, 1101, 1101, 0, 0, 0, 0, 0, 0, 0, 0, 0, 0
VIBE, 31568337, 0.02078563, 0.02003338, 0.03339544, 0, 0, 0
CTRL, 31568345, 0.008205399, 0.0001853925, 0.006643615, 0.0001838432, 9.097761E-05
PRX, 31568376, 2, 0.71, 0, 0.61, 0, 3.6, 0, 2.41, 0, 0, 90, 0.61
IMU, 31588203, -0.0003146276, -0.0003000252, -0.0008509769, 0.2353729, -0.02926015, -9.77112, 0, 0, 32.37125, 1, 1, 1000, 1000
RFND, 31618164, 0.2, 25, 0, 0
IMU, 31628000, -0.0007110565, 0.001316157, 0.0002540236, 0.247084, -0.04274296, -9.779789, 0, 0, 32.37125, 1, 1, 1000, 1000
MAG, 31667975, 355, 494, 231, 0, 0, 0, 0, 0, 0, 1, 31667967
RFND, 31668011, 0.2, 25, 0, 0
BARO, 31668048, 0.1525499, 992.641, 30.42, -0.1481824, 31668, 0, 29.32
CTUN, 31668061, 0, 0, 0, 0.5423428, 0.04929679, 0.04929679, 0.15, 0, 0.19, 0, 0, -1
ATT, 31668187, 0, 0.77, 0, 0.62, 359.87, 359.89, 0, 1
RATE, 31668194, -3.470008, -0.03578915, -0.008014126, -2.820088, -0.02219181, -0.006621854, 0.01831876, -0.04042524, 7.142966E-05, 426.0736, -1.575184, 0
NKF1, 31668201, 0.77, 0.62, 359.88, 0.002933498, 0.0009213641, 0.01052034, 0, 0, 0, -0.04929679, 0, 0, 0
NKF2, 31668201, 2, 0, 0, 0, 0, 0, 0, 0, 0, 0, 0, 0, 0
NKF3, 31668201, 0, 0, 0, 0, 0, 0.01, 0, 0, 0, 0, 0
NKF4, 31668201, 0, 0, 0, 0, 0, 2.507734E-06, 0, 0, 0, 19, 229, 0, 0
NKF5, 31668201, 0, 0, 0, 0, 0.18, 0.13, 0, 0.19, 0.5, 3.360556E-05, 0.001352095, 0.002534158
NKQ1, 31668201, 0.9999209, 0.002198176, 0.01234843, -0.001018838
AHR2, 31668245, 0.75, 0.64, 359.85, 0.15, 0, 0, 0.9999613, 0.00663541, 0.005634013, -0.001265794
MOTB, 31668252, 1, 1, 0, 1
RCIN, 31668257, 0, 0, 0, 0, 0, 0, 0, 0, 0, 0, 0, 0, 0, 0
RCOU, 31668262, 1101, 1101, 1101, 1101, 0, 0, 0, 0, 0, 0, 0, 0, 0, 0
VIBE, 31668270, 0.02123194, 0.02066818, 0.03225718, 0, 0, 0
CTRL, 31668278, 0.008188115, 0.0001586313, 0.00664066, 0.0001792455, 8.660372E-05
PRX, 31668309, 2, 0.7, 0, 0.62, 0, 3.6, 0, 2.47, 0, 0, 90, 0.62
IMU, 31668316, -0.0007398405, -0.0003096521, -0.0007139978, 0.2423218, -0.04386893, -9.766783, 0, 0, 32.37125, 1, 1, 1000, 1000
IMU, 31708130, 0.0004847072, -0.000303066, -0.0007530074, 0.238841, -0.04870334, -9.763891, 0, 0, 32.37125, 1, 1, 1000, 1000
RFND, 31718085, 0.2, 25, 0, 0
IMU, 31748181, 0.0005079503, -0.001174149, -0.0008302786, 0.2381662, -0.03083605, -9.757237, 0, 0, 32.37122, 1, 1, 1000, 1000
MAG, 31767954, 355, 487, 231, 0, 0, 0, 0, 0, 0, 1, 31767946
RFND, 31768051, 0.2, 25, 0, 0
BARO, 31768089, 0.174739, 992.6384, 30.42, -0.1960234, 31768, 0, 29.32
CTUN, 31768103, 0, 0, 0, 0.5423428, 0.04960539, 0.04960539, 0.17, 0, 0.19, 0, 0, -1
ATT, 31768225, 0, 0.77, 0, 0.62, 359.87, 359.89, 0, 1
RATE, 31768231, -3.475866, -0.01086349, -0.007950221, -2.822716, 0.1035105, -0.007384903, 0.01823249, -0.03359291, 0.0002072252, 446.7002, -0.4507065, 0
NKF1, 31768291, 0.77, 0.62, 359.88, 0.002852104, 0.0008760344, 0.01102963, 0, 0, 0, -0.04960539, 0, 0, 0
NKF2, 31768291, 2, 0, 0, 0, 0, 0, 0, 0, 0, 0, 0, 0, 0
NKF3, 31768291, 0, 0, 0, 0, 0, 0.01, 0, 0, 0, 0, 0
NKF4, 31768291, 0, 0, 0, 0, 0, 1.697042E-06, 0, 0, 0, 19, 229, 0, 0
NKF5, 31768291, 0, 0, 0, 0, 0.18, 0.13, 0, 0.19, 0.5, 3.58461E-05, 0.001364529, 0.002609728
NKQ1, 31768291, 0.9999207, 0.002210269, 0.01235392, -0.001057663
AHR2, 31768337, 0.76, 0.64, 359.85, 0.17, 0, 0, 0.9999612, 0.0066461, 0.005639907, -0.001305027
MOTB, 31768345, 1, 1, 0, 1
RCIN, 31768350, 0, 0, 0, 0, 0, 0, 0, 0, 0, 0, 0, 0, 0, 0
RCOU, 31768356, 1101, 1101, 1101, 1101, 0, 0, 0, 0, 0, 0, 0, 0, 0, 0
VIBE, 31768364, 0.01969954, 0.01836798, 0.03539144, 0, 0, 0
CTRL, 31768371, 0.008202327, 0.0001548686, 0.00663688, 0.0002046859, 0.0001116494
PRX, 31768462, 2, 0.71, 0, 0.61, 0, 0.52, 0, 2.47, 0, 0, 180, 0.52
IMU, 31788648, -0.001209153, 0.0001991459, 0.001880018, 0.2450416, -0.04391799, -9.770593, 0, 0, 32.37123, 1, 1, 1000, 1000
RFND, 31817918, 0.2, 25, 0, 0
IMU, 31827988, 0.0009832332, 8.982722E-06, -7.162863E-05, 0.2364282, -0.03640825, -9.778403, 0, 0, 32.37128, 1, 1, 1000, 1000
MAG, 31868120, 356, 489, 232, 0, 0, 0, 0, 0, 0, 1, 31868112
RFND, 31868156, 0.2, 25, 0, 0
BARO, 31868194, 0.1636444, 992.6397, 30.42, 0.01214476, 31868, 0, 29.32
CTUN, 31868207, 0, 0, 0, 0.5423428, 0.04964343, 0.04964343, 0.16, 0, 0.19, 0, 0, -1
DU32, 31868245, 7, 50357752
ATT, 31868345, 0, 0.77, 0, 0.62, 359.87, 359.89, 0, 1
RATE, 31868351, -3.474104, -0.02622923, -0.007985519, -2.826284, 0.002612985, -0.006513966, 0.01988164, -0.03941599, 0.0001463563, 449.1212, -0.9007454, 0
NKF1, 31868358, 0.77, 0.62, 359.88, 0.002513658, 0.001040686, 0.01108941, 0, 0, 0, -0.04964343, 0, 0, 0
NKF2, 31868358, 2, 0, 0, 0, 0, 0, 0, 0, 0, 0, 0, 0, 0
NKF3, 31868358, 0, 0, 0, 0, 0, 0.01, 0, 0, 0, 0, 0
NKF4, 31868358, 0, 0, 0, 0, 0, 1.14017E-06, 0, 0, 0, 19, 229, 0, 0
NKF5, 31868358, 0, 0, 0, 0, 0.18, 0.13, 0, 0.19, 0.5, 3.728413E-05, 0.001315878, 0.002485615
NKQ1, 31868358, 0.9999206, 0.002206689, 0.01236033, -0.001068353
AHR2, 31868479, 0.76, 0.64, 359.85, 0.16, 0, 0, 0.9999611, 0.006642523, 0.005648354, -0.001316008
MOTB, 31868487, 1, 1, 0, 1
RCIN, 31868491, 0, 0, 0, 0, 0, 0, 0, 0, 0, 0, 0, 0, 0, 0
RCOU, 31868497, 1101, 1101, 1101, 1101, 0, 0, 0, 0, 0, 0, 0, 0, 0, 0
VIBE, 31868506, 0.01738016, 0.01832216, 0.03064922, 0, 0, 0
CTRL, 31868512, 0.008199099, 0.0001551486, 0.006660944, 0.0002054371, 0.0001120679
PRX, 31868544, 2, 0.71, 0, 0.61, 0, 0.52, 0, 2.41, 0, 0, 180, 0.52
IMU, 31868552, -0.0005733114, 0.0001234883, -0.0006964068, 0.230707, -0.0400191, -9.773739, 0, 0, 32.3712, 1, 1, 1000, 1000
IMU, 31909775, -0.0001157529, 0.0001062243, 0.001152844, 0.2465603, -0.03172918, -9.771536, 0, 0, 32.3712, 1, 1, 1000, 1000
RFND, 31919710, 0.2, 25, 0, 0
IMU, 31949912, 0.0006726916, 0.001032965, 4.491477E-05, 0.2368758, -0.04131921, -9.775706, 0, 0, 32.37125, 1, 1, 1000, 1000
MAG, 31969594, 359, 491, 230, 0, 0, 0, 0, 0, 0, 1, 31969587
RFND, 31969630, 0.2, 25, 0, 0
BARO, 31969666, 0.1303608, 992.6434, 30.42, 0.1733839, 31969, 0, 29.32
CTUN, 31969680, 0, 0, 0, 0.5423428, 0.04991393, 0.04991393, 0.13, 0, 0.19, 0, 0, -1
ATT, 31969756, 0, 0.77, 0, 0.62, 359.87, 359.89, 0, 1
RATE, 31969762, -3.476297, -0.04404681, -0.007922301, -2.829198, -0.005872515, -0.006577933, 0.01955605, 0.04199424, 5.06251E-05, 425.165, 1.636982, 0
NKF1, 31969770, 0.77, 0.62, 359.88, 0.002288236, 0.001307291, 0.0104979, 0, 0, 0, -0.04991393, 0, 0, 0
NKF2, 31969770, 2, 0, 0, 0, 0, 0, 0, 0, 0, 0, 0, 0, 0
NKF3, 31969770, 0, 0, 0, 0, 0, 0.01, 0, 0, 0, 0, 0
NKF4, 31969770, 0, 0, 0, 0, 0, 7.832716E-07, 0, 0, 0, 19, 229, 0, 0
NKF5, 31969770, 0, 0, 0, 0, 0.18, 0.13, 0, 0.19, 0.5, 3.775097E-05, 0.0012818, 0.002422369
NKQ1, 31969770, 0.9999206, 0.002209205, 0.01236821, -0.001057994
AHR2, 31969815, 0.76, 0.64, 359.85, 0.13, 0, 0, 0.9999611, 0.006645862, 0.00565977, -0.001305998
MOTB, 31969822, 1, 1, 0, 1
RCIN, 31969826, 0, 0, 0, 0, 0, 0, 0, 0, 0, 0, 0, 0, 0, 0
RCOU, 31969831, 1101, 1101, 1101, 1101, 0, 0, 0, 0, 0, 0, 0, 0, 0, 0
VIBE, 31969840, 0.0187563, 0.01815323, 0.03410017, 0, 0, 0
CTRL, 31969846, 0.008203561, 0.0001973099, 0.006666556, 0.0001911293, 0.0001089175
PRX, 31969879, 2, 0.71, 0, 0.62, 0, 3.6, 0, 2.41, 0, 0, 90, 0.62
IMU, 31989646, -0.0002347388, 0.000310152, -0.001285048, 0.2429131, -0.02845426, -9.769427, 0, 0, 32.3713, 1, 1, 1000, 1000
RFND, 32020059, 0.2, 25, 0, 0
IMU, 32029643, 0.0008914261, -0.0007379213, 1.876394E-05, 0.2373013, -0.0529587, -9.774738, 0, 0, 32.37119, 1, 1, 1000, 1000
MAG, 32069604, 356, 493, 228, 0, 0, 0, 0, 0, 0, 1, 32069596
RFND, 32069639, 0.2, 25, 0, 0
BARO, 32069677, 0.1830599, 992.6375, 30.43, 0.09689274, 32069, 0, 29.32
CTUN, 32069690, 0, 0, 0, 0.5423428, 0.05001755, 0.05001755, 0.18, 0, 0.19, 0, 0, -1
ATT, 32069766, 0, 0.77, 0, 0.62, 359.86, 359.88, 0, 1
RATE, 32069772, -3.473582, -0.04433694, -0.008293397, -2.831132, 0.004723416, -0.006665862, 0.01770808, -0.03194106, 0.0001508839, 441.1447, -0.3152847, 0
NKF1, 32069780, 0.77, 0.62, 359.87, 0.002667467, 0.001448458, 0.01089246, 0, 0, 0, -0.05001755, 0, 0, 0
NKF2, 32069780, 2, 0, 0, 0, 0, 0, 0, 0, 0, 0, 0, 0, 0
NKF3, 32069780, 0, 0, 0, 0, 0, 0.01, 0, 0, 0, 0, 0
NKF4, 32069780, 0, 0, 0, 0, 0, 5.420404E-07, 0, 0, 0, 19, 229, 0, 0
NKF5, 32069780, 0, 0, 0, 0, 0.18, 0.13, 0, 0.19, 0.5, 3.797317E-05, 0.001327717, 0.002618113
NKQ1, 32069780, 0.9999205, 0.002205659, 0.01236976, -0.001089754
AHR2, 32069825, 0.76, 0.64, 359.85, 0.18, 0, 0, 0.999961, 0.006640766, 0.005661048, -0.001338008
MOTB, 32069832, 1, 1, 0, 1
RCIN, 32069837, 0, 0, 0, 0, 0, 0, 0, 0, 0, 0, 0, 0, 0, 0
RCOU, 32069842, 1101, 1101, 1101, 1101, 0, 0, 0, 0, 0, 0, 0, 0, 0, 0
VIBE, 32069851, 0.01927119, 0.01964844, 0.03452167, 0, 0, 0
CTRL, 32069857, 0.008198876, 0.000212643, 0.006666706, 0.000177878, 0.0001113697
PRX, 32069888, 2, 0.71, 0, 0.62, 0, 3.6, 0, 3.6, 0, 0, 90, 0.62
IMU, 32069896, -0.0008894574, 0.0001603863, -0.0005659527, 0.2524638, -0.04122792, -9.778963, 0, 0, 32.3713, 1, 1, 1000, 1000
IMU, 32109791, 0.0005353288, 0.001452052, 0.0001868267, 0.2455896, -0.03437608, -9.780097, 0, 0, 32.37121, 1, 1, 1000, 1000
RFND, 32120482, 0.2, 25, 0, 0
IMU, 32150130, 0.0007741625, -1.002963E-05, 0.0001014623, 0.2573937, -0.04041448, -9.763898, 0, 0, 32.37124, 1, 1, 1000, 1000
MAG, 32169615, 356, 489, 228, 0, 0, 0, 0, 0, 0, 1, 32169606
RFND, 32169649, 0.2, 25, 0, 0
BARO, 32170064, 0.2080226, 992.6346, 30.43, 0.008851122, 32169, 0, 29.32
CTUN, 32170084, 0, 0, 0, 0.5423428, 0.05023457, 0.05023457, 0.2, 0, 0.19, 0, 0, -1
ATT, 32170168, 0, 0.77, 0, 0.63, 359.86, 359.88, 0, 1
RATE, 32170174, -3.496002, 0.096984, -0.008569845, -2.845512, 0.05520654, -0.007100886, 0.01850961, 0.04352976, 8.881922E-05, 453.4072, -0.3499985, 0
NKF1, 32170182, 0.77, 0.63, 359.87, 0.003538118, 0.002015967, 0.01119524, 0, 0, 0, -0.05023456, 0, 0, 0
NKF2, 32170182, 2, 0, 0, 0, 0, 0, 0, 0, 0, 0, 0, 0, 0
NKF3, 32170182, 0, 0, 0, 0, 0, 0.01, 0, 0, 0, 0, 0
NKF4, 32170182, 0, 0, 0, 0, 0, 3.842222E-07, 0, 0, 0, 19, 229, 0, 0
NKF5, 32170182, 0, 0, 0, 0, 0.18, 0.13, 0, 0.19, 0.5, 3.798589E-05, 0.001190175, 0.002237482
NKQ1, 32170182, 0.99992, 0.002247849, 0.01239964, -0.001102874
AHR2, 32170230, 0.76, 0.65, 359.84, 0.2, 0, 0, 0.9999606, 0.006679698, 0.005687873, -0.001351822
MOTB, 32170237, 1, 1, 0, 1
RCIN, 32170241, 0, 0, 0, 0, 0, 0, 0, 0, 0, 0, 0, 0, 0, 0
RCOU, 32170247, 1101, 1101, 1101, 1101, 0, 0, 0, 0, 0, 0, 0, 0, 0, 0
VIBE, 32170256, 0.01958812, 0.0198777, 0.02934064, 0, 0, 0
CTRL, 32170262, 0.008235786, 0.0001979067, 0.006693465, 0.0001652529, 0.0001259313
PRX, 32170295, 2, 0.71, 0, 0.62, 0, 3.6, 0, 2.49, 0, 0, 90, 0.62
IMU, 32190061, 4.041312E-06, 0.0001807556, -0.000166915, 0.2467601, -0.02687236, -9.788894, 0, 0, 32.37122, 1, 1, 1000, 1000
RFND, 32221628, 0.2, 25, 0, 0
IMU, 32229713, -0.0005712776, -0.0007675519, -0.0008178528, 0.2405743, -0.03148451, -9.771928, 0, 0, 32.37123, 1, 1, 1000, 1000
MAG, 32269620, 360, 487, 234, 0, 0, 0, 0, 0, 0, 1, 32269612
RFND, 32269655, 0.2, 25, 0, 0
BARO, 32269691, 0.1913808, 992.6364, 30.44, 0.08380091, 32269, 0, 29.32
CTUN, 32269704, 0, 0, 0, 0.5423428, 0.05031357, 0.05031357, 0.19, 0, 0.19, 0, 0, -1
ATT, 32269841, 0, 0.77, 0, 0.63, 359.86, 359.88, 0, 1
RATE, 32269848, -3.497452, -0.01155961, -0.008160655, -2.846517, 0.06028041, -0.007013096, 0.02045556, -0.02304562, 0.0001696755, 435.5944, 0.5913734, 0
NKF1, 32269856, 0.77, 0.63, 359.87, 0.003457166, 0.002554591, 0.01075542, 0, 0, 0, -0.05031357, 0, 0, 0
NKF2, 32269856, 2, 0, 0, 0, 0, 0, 0, 0, 0, 0, 0, 0, 0
NKF3, 32269856, 0, 0, 0, 0, 0, 0.01, 0, 0, 0, 0, 0
NKF4, 32269856, 0, 0, 0, 0, 0, 2.834943E-07, 0, 0, 0, 19, 229, 0, 0
NKF5, 32269856, 0, 0, 0, 0, 0.18, 0.13, 0, 0.19, 0.5, 3.774104E-05, 0.001192356, 0.002294668
NKQ1, 32269856, 0.99992, 0.002251759, 0.01239904, -0.001145407
AHR2, 32269900, 0.76, 0.65, 359.84, 0.19, 0, 0, 0.9999605, 0.006679484, 0.005688976, -0.001394675
MOTB, 32269908, 1, 1, 0, 1
RCIN, 32269912, 0, 0, 0, 0, 0, 0, 0, 0, 0, 0, 0, 0, 0, 0
RCOU, 32269918, 1101, 1101, 1101, 1101, 0, 0, 0, 0, 0, 0, 0, 0, 0, 0
VIBE, 32269926, 0.0191664, 0.02056962, 0.03098989, 0, 0, 0
CTRL, 32269933, 0.008249665, 0.0001790933, 0.006697283, 0.0001684055, 0.0001358729
PRX, 32269965, 2, 0.71, 0, 0.61, 0, 0.51, 0, 2.49, 0, 0, 180, 0.51
IMU, 32269971, -0.0003173866, 0.001130034, -0.0004106984, 0.2394907, -0.04338232, -9.788312, 0, 0, 32.37128, 1, 1, 1000, 1000
IMU, 32309958, 0.0002554609, -0.0003417063, -0.0001759039, 0.2474698, -0.04497613, -9.779914, 0, 0, 32.37118, 1, 1, 1000, 1000
RFND, 32319425, 0.2, 25, 0, 0
IMU, 32350065, -0.0009711943, 0.0007755795, -0.0002254365, 0.2456548, -0.03628231, -9.769788, 0, 0, 32.3713, 1, 1, 1000, 1000
MAG, 32369632, 353, 490, 230, 0, 0, 0, 0, 0, 0, 1, 32369624
RFND, 32369666, 0.2, 25, 0, 0
BARO, 32369703, 0.2218907, 992.6331, 30.44, 0.1706409, 32369, 0, 29.32
CTUN, 32369717, 0, 0, 0, 0.5423428, 0.05044489, 0.05044489, 0.22, 0, 0.19, 0, 0, -1
ATT, 32369844, 0, 0.77, 0, 0.63, 359.85, 359.87, 0, 1
RATE, 32369850, -3.4964, 0.03985957, -0.008556344, -2.854759, 0.08061121, -0.007006426, 0.01896999, -0.02781541, 0.0001539933, 443.5534, -1.184654, 0
NKF1, 32369858, 0.77, 0.63, 359.86, 0.003981788, 0.002904339, 0.01095194, 0, 0, 0, -0.05044489, 0, 0, 0
NKF2, 32369858, 2, 0, 0, 0, 0, 0, 0, 0, 0, 0, 0, 0, 0
NKF3, 32369858, 0, 0, 0, 0, 0, 0.01, 0, 0, 0, 0, 0
NKF4, 32369858, 0, 0, 0, 0, 0, 2.193588E-07, 0, 0, 0, 19, 229, 0, 0
NKF5, 32369858, 0, 0, 0, 0, 0.18, 0.13, 0, 0.19, 0.5, 3.746214E-05, 0.001103907, 0.00207506
NKQ1, 32369858, 0.9999198, 0.002250121, 0.01241488, -0.001165426
AHR2, 32369903, 0.76, 0.65, 359.84, 0.22, 0, 0, 0.9999604, 0.006673456, 0.005710644, -0.001415074
MOTB, 32369910, 1, 1, 0, 1
RCIN, 32369915, 0, 0, 0, 0, 0, 0, 0, 0, 0, 0, 0, 0, 0, 0
RCOU, 32369921, 1101, 1101, 1101, 1101, 0, 0, 0, 0, 0, 0, 0, 0, 0, 0
VIBE, 32369929, 0.0191557, 0.01974023, 0.03251923, 0, 0, 0
CTRL, 32369936, 0.008245, 0.0001627989, 0.006715962, 0.00017484, 0.0001433795
PRX, 32369967, 2, 0.71, 0, 0.61, 0, 0.51, 0, 2.43, 0, 0, 180, 0.51
IMU, 32389771, 0.0005866903, 0.0004474394, -0.0005869615, 0.2451824, -0.0408813, -9.783731, 0, 0, 32.37119, 1, 1, 1000, 1000
RFND, 32419500, 0.2, 25, 0, 0
IMU, 32430571, 8.838229E-05, 0.001742792, -0.001619911, 0.2445217, -0.05458191, -9.76598, 0, 0, 32.37129, 1, 1, 1000, 1000
MAG, 32470143, 362, 491, 231, 0, 0, 0, 0, 0, 0, 1, 32470134
RFND, 32470179, 0.2, 25, 0, 0
BARO, 32470217, 0.1580972, 992.6401, 30.44, 0.125686, 32470, 0, 29.32
CTUN, 32470230, 0, 0, 0, 0.5423428, 0.05054422, 0.05054422, 0.15, 0, 0.19, 0, 0, -1
ATT, 32470865, 0, 0.77, 0, 0.63, 359.85, 359.87, 0, 1
RATE, 32470876, -3.498993, 0.0426877, -0.008344593, -2.862682, 0.001611322, -0.006684374, 0.02070481, -0.04599844, 0.0002293854, 444.0971, 1.408005, 0
NKF1, 32470884, 0.77, 0.63, 359.86, 0.003910255, 0.002657897, 0.01096536, 0, 0, 0, -0.05054422, 0, 0, 0
NKF2, 32470884, 2, 0, 0, 0, 0, 0, 0, 0, 0, 0, 0, 0, 0
NKF3, 32470884, 0, 0, 0, 0, 0, 0.01, 0, 0, 0, 0, 0
NKF4, 32470884, 0, 0, 0, 0, 0, 1.809645E-07, 0, 0, 0, 19, 229, 0, 0
NKF5, 32470884, 0, 0, 0, 0, 0.18, 0.13, 0, 0.19, 0.5, 3.721417E-05, 0.001071859, 0.002017157
NKQ1, 32470884, 0.9999195, 0.002256935, 0.01243024, -0.0012162
AHR2, 32470933, 0.76, 0.65, 359.83, 0.15, 0, 0, 0.9999602, 0.00667637, 0.005729523, -0.001466274
MOTB, 32470943, 1, 1, 0, 1
RCIN, 32470948, 0, 0, 0, 0, 0, 0, 0, 0, 0, 0, 0, 0, 0, 0
RCOU, 32470954, 1101, 1101, 1101, 1101, 0, 0, 0, 0, 0, 0, 0, 0, 0, 0
VIBE, 32470962, 0.01682115, 0.02180876, 0.03101703, 0, 0, 0
CTRL, 32470969, 0.008256602, 0.0001708022, 0.006744097, 0.0001854473, 0.0001628086
PRX, 32471002, 2, 0.71, 0, 0.62, 0, 3.6, 0, 2.43, 0, 0, 90, 0.62
IMU, 32471009, 0.0006292115, 0.0001061909, -0.0008113154, 0.245838, -0.04950482, -9.796227, 0, 0, 32.37122, 1, 1, 1000, 1000
IMU, 32509706, -0.001380057, -0.0002280741, 0.001524002, 0.227374, -0.04665399, -9.774725, 0, 0, 32.37123, 1, 1, 1000, 1000
RFND, 32519493, 0.2, 25, 0, 0
IMU, 32550121, 0.0007848861, 0.001307405, -0.0006474642, 0.2463428, -0.03833691, -9.786186, 0, 0, 32.37128, 1, 1, 1000, 1000
MAG, 32569935, 356, 495, 229, 0, 0, 0, 0, 0, 0, 1, 32569926
RFND, 32569966, 0.2, 25, 0, 0
BARO, 32570006, 0.2357589, 992.6317, 30.44, 0.02348035, 32569, 0, 29.32
CTUN, 32570019, 0, 0, 0, 0.5423428, 0.05052991, 0.05052991, 0.23, 0, 0.19, 0, 0, -1
ATT, 32570100, 0, 0.77, 0, 0.63, 359.85, 359.87, 0, 1
RATE, 32570105, -3.50243, 0.03287949, -0.008216641, -2.869551, -0.05376138, -0.006386281, 0.01760877, 0.07262775, 7.884918E-05, 423.2598, 0.2833366, 0
NKF1, 32570112, 0.77, 0.63, 359.86, 0.003131792, 0.00271174, 0.01045086, 0, 0, 0, -0.05052991, 0, 0, 0
NKF2, 32570112, 2, 0, 0, 0, 0, 0, 0, 0, 0, 0, 0, 0, 0
NKF3, 32570112, 0, 0, 0, 0, 0, 0.01, 0, 0, 0, 0, 0
NKF4, 32570112, 0, 0, 0, 0, 0, 1.58446E-07, 0, 0, 0, 19, 229, 0, 0
NKF5, 32570112, 0, 0, 0, 0, 0.18, 0.13, 0, 0.19, 0.5, 3.686703E-05, 0.001026863, 0.00194193
NKQ1, 32570112, 0.9999193, 0.002260833, 0.01244678, -0.00119244
AHR2, 32570159, 0.76, 0.65, 359.83, 0.23, 0, 0, 0.9999601, 0.006677703, 0.005747831, -0.001442907
MOTB, 32570166, 1, 1, 0, 1
RCIN, 32570170, 0, 0, 0, 0, 0, 0, 0, 0, 0, 0, 0, 0, 0, 0
RCOU, 32570176, 1101, 1101, 1101, 1101, 0, 0, 0, 0, 0, 0, 0, 0, 0, 0
VIBE, 32570184, 0.019142, 0.02209525, 0.03005675, 0, 0, 0
CTRL, 32570191, 0.008262214, 0.0001762118, 0.006765131, 0.0002164016, 0.0001532155
PRX, 32570223, 2, 0.71, 0, 0.62, 0, 3.6, 0, 2.41, 0, 0, 90, 0.62
IMU, 32589624, 0.0001310795, -0.0009327183, 0.001235597, 0.2395625, -0.03710296, -9.77021, 0, 0, 32.37119, 1, 1, 1000, 1000
RFND, 32619481, 0.2, 25, 0, 0
IMU, 32630176, 0.0002086213, -0.0002765823, 0.0004775665, 0.2509359, -0.05361151, -9.79703, 0, 0, 32.3713, 1, 1, 1000, 1000
MAG, 32669582, 357, 491, 226, 0, 0, 0, 0, 0, 0, 1, 32669574
RFND, 32669613, 0.2, 25, 0, 0
BARO, 32669651, 0.2496271, 992.63, 30.44, 0.003725798, 32669, 0, 29.32
CTUN, 32669664, 0, 0, 0, 0.5423428, 0.05077215, 0.05077215, 0.24, 0, 0.19, 0, 0, 0
ATT, 32669831, 0, 0.78, 0, 0.63, 359.85, 359.87, 0, 1
RATE, 32669837, -3.512867, 0.02642493, -0.008386958, -2.8526, -0.07618428, -0.006331866, 0.01662442, 0.0259718, 8.601457E-05, 402.9385, -0.6644249, 0
NKF1, 32669845, 0.78, 0.63, 359.86, 0.003375286, 0.00251983, 0.009949097, 0, 0, 0, -0.05077215, 0, 0, 0
NKF2, 32669845, 2, 0, 0, 0, 0, 0, 0, 0, 0, 0, 0, 0, 0
NKF3, 32669845, 0, 0, 0, 0, 0, 0.01, 0, 0, 0, 0, 0
NKF4, 32669845, 0, 0, 0, 0, 0, 1.507372E-07, 0, 0, 0, 19, 229, 0, 0
NKF5, 32669845, 0, 0, 0, 0, 0.18, 0.13, 0, 0.19, 0.5, 3.665715E-05, 0.0009677304, 0.001786477
NKQ1, 32669845, 0.9999197, 0.002281797, 0.01241257, -0.001183897
AHR2, 32669888, 0.76, 0.65, 359.84, 0.24, 0, 0, 0.9999602, 0.00669743, 0.00571162, -0.00143461
MOTB, 32669896, 1, 1, 0, 1
RCIN, 32669900, 0, 0, 0, 0, 0, 0, 0, 0, 0, 0, 0, 0, 0, 0
RCOU, 32669906, 1101, 1101, 1101, 1101, 0, 0, 0, 0, 0, 0, 0, 0, 0, 0
VIBE, 32669914, 0.01898419, 0.02095992, 0.0293674, 0, 0, 0
CTRL, 32669920, 0.008280278, 0.0001573417, 0.006732577, 0.0001842546, 0.0001276641
PRX, 32669952, 2, 0.71, 0, 0.62, 0, 3.6, 0, 2.42, 0, 0, 90, 0.62
IMU, 32669959, 0.0003452282, -0.001251509, 0.0004447912, 0.2477298, -0.04747416, -9.775401, 0, 0, 32.37119, 1, 1, 1000, 1000
IMU, 32709669, 0.0007038952, 0.001420018, -0.0007990618, 0.2435469, -0.03822406, -9.778782, 0, 0, 32.37129, 1, 1, 1000, 1000
RFND, 32719522, 0.2, 25, 0, 0
IMU, 32749976, 6.917888E-05, 0.000140887, -2.742573E-05, 0.246433, -0.03906897, -9.773183, 0, 0, 32.37147, 1, 1, 1000, 1000
MAG, 32769619, 356, 492, 227, 0, 0, 0, 0, 0, 0, 1, 32769611
RFND, 32769655, 0.2, 25, 0, 0
BARO, 32769693, 0.2829107, 992.6262, 30.44, 0.1178795, 32769, 0, 29.32
CTUN, 32769705, 0, 0, 0, 0.5423428, 0.05077181, 0.05077181, 0.28, 0, 0.19, 0, 0, -1
ATT, 32769784, 0, 0.78, 0, 0.63, 359.85, 359.87, 0, 1
RATE, 32769790, -3.519095, 0.02416508, -0.008534477, -2.853263, -0.06412143, -0.006337219, 0.0191239, 0.03867102, 8.687381E-05, 407.7094, -0.3677368, 0
NKF1, 32769797, 0.78, 0.63, 359.86, 0.003910426, 0.002412139, 0.0100669, 0, 0, 0, -0.05077181, 0, 0, 0
NKF2, 32769797, 2, 0, 0, 0, 0, 0, 0, 0, 0, 0, 0, 0, 0
NKF3, 32769797, 0, 0, 0, 0, 0, 0.01, 0, 0, 0, 0, 0
NKF4, 32769797, 0, 0, 0, 0, 0, 1.47628E-07, 0, 0, 0, 19, 229, 0, 0
NKF5, 32769797, 0, 0, 0, 0, 0.18, 0.13, 0, 0.19, 0.5, 3.6494E-05, 0.0009616285, 0.001840692
NKQ1, 32769797, 0.9999197, 0.002294084, 0.01241432, -0.00120305
AHR2, 32769842, 0.76, 0.65, 359.83, 0.28, 0, 0, 0.9999602, 0.006709656, 0.00570789, -0.001454081
MOTB, 32769849, 1, 1, 0, 1
RCIN, 32769853, 0, 0, 0, 0, 0, 0, 0, 0, 0, 0, 0, 0, 0, 0
RCOU, 32769859, 1101, 1101, 1101, 1101, 0, 0, 0, 0, 0, 0, 0, 0, 0, 0
VIBE, 32769867, 0.02022642, 0.01906871, 0.03152687, 0, 0, 0
CTRL, 32769874, 0.008290995, 0.0001581748, 0.006732455, 0.0001960374, 0.0001229017
PRX, 32769905, 2, 0.71, 0, 0.62, 0, 0.46, 0, 2.46, 0, 0, 180, 0.46
IMU, 32790153, 0.001404623, -0.0001756306, 0.0003463789, 0.2399288, -0.04410581, -9.802054, 0, 0, 32.37194, 1, 1, 1000, 1000
RFND, 32819501, 0.2, 25, 0, 0
IMU, 32830111, 0.0008818074, -0.0006825546, 0.0002217387, 0.2507934, -0.03359622, -9.785206, 0, 0, 32.37218, 1, 1, 1000, 1000
MAG, 32870063, 353, 493, 233, 0, 0, 0, 0, 0, 0, 1, 32870055
RFND, 32870097, 0.2, 25, 0, 0
BARO, 32870134, 0.2940052, 992.625, 30.44, 0.252026, 32870, 0, 29.32
CTUN, 32870147, 0, 0, 0, 0.5423428, 0.05111606, 0.05111606, 0.29, 0, 0.19, 0, 0, 0
DU32, 32870184, 7, 50357752
ATT, 32870379, 0, 0.78, 0, 0.63, 359.85, 359.87, 0, 1
RATE, 32870385, -3.532239, -0.05552245, -0.007799346, -2.841166, -0.02195303, -0.006685106, 0.01950724, -0.02840177, 5.747655E-05, 371.1399, 0.5477905, 0
NKF1, 32870394, 0.78, 0.63, 359.86, 0.003986103, 0.002876285, 0.009163949, 0, 0, 0, -0.05111606, 0, 0, 0
NKF2, 32870394, 2, 0, 0, 0, 0, 0, 0, 0, 0, 0, 0, 0, 0
NKF3, 32870394, 0, 0, 0, 0, 0, 0.01, 0, 0, 0, 0, 0
NKF4, 32870394, 0, 0, 0, 0, 0, 1.565669E-07, 0, 0, 0, 19, 229, 0, 0
NKF5, 32870394, 0, 0, 0, 0, 0.18, 0.13, 0, 0.19, 0.5, 3.637879E-05, 0.0008807891, 0.00160344
NKQ1, 32870394, 0.9999199, 0.002320465, 0.01238865, -0.001202033
AHR2, 32870515, 0.77, 0.65, 359.83, 0.29, 0, 0, 0.9999601, 0.006736047, 0.005681682, -0.001453395
MOTB, 32870523, 1, 1, 0, 1
RCIN, 32870528, 0, 0, 0, 0, 0, 0, 0, 0, 0, 0, 0, 0, 0, 0
RCOU, 32870533, 1101, 1101, 1101, 1101, 0, 0, 0, 0, 0, 0, 0, 0, 0, 0
VIBE, 32870542, 0.01982511, 0.0170827, 0.03279224, 0, 0, 0
CTRL, 32870549, 0.008335948, 0.0001794928, 0.006697154, 0.0001803579, 0.0001044659
PRX, 32870580, 2, 0.71, 0, 0.61, 0, 0.46, 0, 2.46, 0, 0, 180, 0.46
IMU, 32870587, -0.001085131, -0.0003049331, -0.000504215, 0.2368915, -0.04692445, -9.787747, 0, 0, 32.37262, 1, 1, 1000, 1000
IMU, 32909869, -7.995575E-05, -0.0005542798, 0.001990371, 0.2367037, -0.0481072, -9.78257, 0, 0, 32.37308, 1, 1, 1000, 1000
RFND, 32920610, 0.2, 25, 0, 0
IMU, 32950530, -7.572101E-05, 0.001274429, -0.000401657, 0.2453306, -0.02406389, -9.786453, 0, 0, 32.37345, 1, 1, 1000, 1000
MAG, 32969643, 357, 487, 236, 0, 0, 0, 0, 0, 0, 1, 32969635
RFND, 32969678, 0.2, 25, 0, 0
BARO, 32969716, 0.2107962, 992.6342, 30.44, 0.2400927, 32969, 0, 29.32
CTUN, 32969729, 0, 0, 0, 0.5423428, 0.05130367, 0.05130367, 0.21, 0, 0.19, 0, 0, 0
ATT, 32969805, 0, 0.78, 0, 0.63, 359.85, 359.87, 0, 1
RATE, 32969811, -3.520672, -0.06729437, -0.007987208, -2.852709, 0.08732632, -0.00714274, 0.0200702, 0.01809441, 5.288415E-05, 322.5445, 0.0623703, 0
NKF1, 32969819, 0.78, 0.63, 359.86, 0.003488789, 0.003317045, 0.007964062, 0, 0, 0, -0.05130367, 0, 0, 0
NKF2, 32969819, 2, 0, 0, 0, 0, 0, 0, 0, 0, 0, 0, 0, 0
NKF3, 32969819, 0, 0, 0, 0, 0, 0.01, 0, 0, 0, 0, 0
NKF4, 32969819, 0, 0, 0, 0, 0, 1.652884E-07, 0, 0, 0, 19, 229, 0, 0
NKF5, 32969819, 0, 0, 0, 0, 0.18, 0.13, 0, 0.19, 0.5, 3.637793E-05, 0.000915411, 0.001737005
NKQ1, 32969819, 0.9999197, 0.002296698, 0.0124122, -0.001185885
AHR2, 32969863, 0.76, 0.65, 359.83, 0.21, 0, 0, 0.9999601, 0.006712507, 0.005709073, -0.001437478
MOTB, 32969870, 1, 1, 0, 1
RCIN, 32969874, 0, 0, 0, 0, 0, 0, 0, 0, 0, 0, 0, 0, 0, 0
RCOU, 32969879, 1101, 1101, 1101, 1101, 0, 0, 0, 0, 0, 0, 0, 0, 0, 0
VIBE, 32969888, 0.021261, 0.02001291, 0.03053715, 0, 0, 0
CTRL, 32969894, 0.008307582, 0.0001665137, 0.006711384, 0.0001653702, 8.931476E-05
PRX, 32969926, 2, 0.71, 0, 0.62, 0, 3.6, 0, 2.46, 0, 0, 90, 0.62
IMU, 32989730, 0.001101957, -0.0002352455, 2.74592E-05, 0.2241371, -0.04136486, -9.771959, 0, 0, 32.37383, 1, 1, 1000, 1000
RFND, 33019622, 0.2, 25, 0, 0
IMU, 33029649, -0.0008114401, 0.0007732641, 0.0001976628, 0.227247, -0.04668316, -9.770935, 0, 0, 32.37428, 1, 1, 1000, 1000
MAG, 33069972, 358, 493, 231, 0, 0, 0, 0, 0, 0, 1, 33069964
RFND, 33070003, 0.2, 25, 0, 0
BARO, 33070043, 0.174739, 992.6383, 30.45, 0.04299304, 33070, 0, 29.32
CTUN, 33070056, 0, 0, 0, 0.5423428, 0.05169768, 0.05169768, 0.17, 0, 0.19, 0, 0, 0
ATT, 33070232, 0, 0.78, 0, 0.63, 359.85, 359.87, 0, 1
RATE, 33070238, -3.524639, 0.002318223, -0.008182308, -2.845019, -0.04084944, -0.00654404, 0.01742712, -0.04307807, 8.361114E-05, 341.2382, -1.690769, 0
NKF1, 33070247, 0.78, 0.63, 359.86, 0.00277088, 0.003682883, 0.008425634, 0, 0, 0, -0.05169768, 0, 0, 0
NKF2, 33070247, 2, 0, 0, 0, 0, 0, 0, 0, 0, 0, 0, 0, 0
NKF3, 33070247, 0, 0, 0, 0, 0, 0.01, 0, 0, 0, 0, 0
NKF4, 33070247, 0, 0, 0, 0, 0, 1.814346E-07, 0, 0, 0, 19, 229, 0, 0
NKF5, 33070247, 0, 0, 0, 0, 0.18, 0.13, 0, 0.19, 0.5, 3.636797E-05, 0.0008114027, 0.001471353
NKQ1, 33070247, 0.9999198, 0.002306007, 0.01239589, -0.001188552
AHR2, 33070292, 0.76, 0.65, 359.83, 0.17, 0, 0, 0.9999602, 0.006719141, 0.005692518, -0.001440412
MOTB, 33070299, 1, 1, 0, 1
RCIN, 33070304, 0, 0, 0, 0, 0, 0, 0, 0, 0, 0, 0, 0, 0, 0
RCOU, 33070309, 1101, 1101, 1101, 1101, 0, 0, 0, 0, 0, 0, 0, 0, 0, 0
VIBE, 33070317, 0.02118651, 0.01847015, 0.03122526, 0, 0, 0
CTRL, 33070325, 0.008317131, 0.0001845489, 0.006710127, 0.000185757, 7.810806E-05
PRX, 33070355, 2, 0.71, 0, 0.62, 0, 0.49, 0, 2.46, 0, 0, 180, 0.49
IMU, 33070362, -7.548582E-05, -0.0006348398, -0.0007603556, 0.2478647, -0.0407774, -9.765104, 0, 0, 32.37467, 1, 1, 1000, 1000
IMU, 33109944, 0.0006836231, 0.0007027459, -0.0006691638, 0.2393412, -0.0585186, -9.782255, 0, 0, 32.37466, 1, 1, 1000, 1000
RFND, 33119787, 0.2, 25, 0, 0
IMU, 33149958, -6.975658E-05, 0.0002392879, -0.0005170701, 0.2351944, -0.03415548, -9.772341, 0, 0, 32.37466, 1, 1, 1000, 1000
MAG, 33169618, 356, 494, 225, 0, 0, 0, 0, 0, 0, 1, 33169609
RFND, 33169649, 0.2, 25, 0, 0
BARO, 33169688, 0.1275872, 992.6437, 30.45, -0.2398593, 33169, 0, 29.32
CTUN, 33169701, 0, 0, 0, 0.5423428, 0.05191352, 0.05191352, 0.12, 0, 0.19, 0, 0, 0
ATT, 33169775, 0, 0.78, 0, 0.63, 359.85, 359.87, 0, 1
RATE, 33169781, -3.542126, 0.06014226, -0.008537756, -2.851167, -0.008983308, -0.00671603, 0.01948997, -0.04941012, 9.56232E-05, 345.3101, -0.8368492, 0
NKF1, 33169789, 0.78, 0.63, 359.86, 0.002471543, 0.003604384, 0.008526174, 0, 0, 0, -0.05191353, 0, 0, 0
NKF2, 33169789, 2, 0, 0, 0, 0, 0, 0, 0, 0, 0, 0, 0, 0
NKF3, 33169789, 0, 0, 0, 0, 0, 0.01, 0, 0, 0, 0, 0
NKF4, 33169789, 0, 0, 0, 0, 0, 1.986215E-07, 0, 0, 0, 19, 229, 0, 0
NKF5, 33169789, 0, 0, 0, 0, 0.18, 0.13, 0, 0.19, 0.5, 3.636993E-05, 0.0008022464, 0.001465126
NKQ1, 33169789, 0.9999197, 0.002339852, 0.01240723, -0.001202731
AHR2, 33169833, 0.77, 0.65, 359.83, 0.12, 0, 0, 0.9999599, 0.006747378, 0.005699961, -0.001455161
MOTB, 33169840, 1, 1, 0, 1
RCIN, 33169844, 0, 0, 0, 0, 0, 0, 0, 0, 0, 0, 0, 0, 0, 0
RCOU, 33169849, 1101, 1101, 1101, 1101, 0, 0, 0, 0, 0, 0, 0, 0, 0, 0
VIBE, 33169857, 0.02242189, 0.01947073, 0.03130333, 0, 0, 0
CTRL, 33169865, 0.008347372, 0.0001688875, 0.006708677, 0.0001655293, 7.796238E-05
PRX, 33169896, 2, 0.7, 0, 0.62, 0, 0.49, 0, 2.47, 0, 0, 180, 0.49
IMU, 33189674, -0.0006376693, 0.0009386077, -6.804892E-05, 0.2378403, -0.04601514, -9.777426, 0, 0, 32.37466, 1, 1, 1000, 1000
EV, 33199575, 57
RFND, 33219893, 0.2, 25, 0, 0
IMU, 33229674, -0.0008001876, 0.001279854, 0.0001676863, 0.250443, -0.03679997, -9.772047, 0, 0, 32.3747, 1, 1, 1000, 1000
MAG, 33270000, 358, 489, 226, 0, 0, 0, 0, 0, 0, 1, 33269992
RFND, 33270030, 0.2, 25, 0, 0
BARO, 33270070, 0.09707721, 992.6472, 30.45, -0.4281005, 33270, 0, 29.32
CTUN, 33270084, 0, 0, 0, 0.5423428, 0.05213737, 0.05213737, 0.09, 0, 0.19, 0, 0, 0
ATT, 33270162, 0, 0.78, 0, 0.63, 359.85, 359.87, 0, 1
RATE, 33270169, -3.537608, 0.01208426, -0.008245565, -2.862315, -0.0150878, -0.006511125, 0.01963466, 0.04942138, 5.370336E-05, 351.438, 0.6743431, 0
NKF1, 33270176, 0.78, 0.63, 359.86, 0.002105255, 0.004047058, 0.008677483, 0, 0, 0, -0.05213737, 0, 0, 0
NKF2, 33270176, 2, 0, 0, 0, 0, 0, 0, 0, 0, 0, 0, 0, 0
NKF3, 33270176, 0, 0, 0, 0, 0, 0.01, 0, 0, 0, 0, 0
NKF4, 33270176, 0, 0, 0, 0, 0, 2.199939E-07, 0, 0, 0, 19, 229, 0, 0
NKF5, 33270176, 0, 0, 0, 0, 0.18, 0.13, 0, 0.19, 0.5, 3.652295E-05, 0.0007596407, 0.001394243
NKQ1, 33270176, 0.9999193, 0.002329318, 0.01243188, -0.001191794
AHR2, 33270222, 0.77, 0.65, 359.83, 0.09, 0, 0, 0.9999599, 0.006733578, 0.005720984, -0.001444526
MOTB, 33270230, 1, 1, 0, 1
RCIN, 33270234, 0, 0, 0, 0, 0, 0, 0, 0, 0, 0, 0, 0, 0, 0
RCOU, 33270239, 1117, 1117, 1117, 1117, 0, 0, 0, 0, 0, 0, 0, 0, 0, 0
VIBE, 33270248, 0.02016966, 0.01781227, 0.02990933, 0, 0, 0
CTRL, 33270255, 0.008344204, 0.0001593444, 0.00674594, 0.0001609732, 8.358068E-05
PRX, 33270286, 2, 0.71, 0, 0.61, 0, 0.5, 0, 3.6, 0, 0, 180, 0.5
IMU, 33270293, 9.465491E-05, -0.0001850197, 0.000854041, 0.2305242, -0.04035576, -9.789108, 0, 0, 32.37427, 1, 1, 1000, 1000
IMU, 33309647, -0.0002548476, 0.0003495723, 0.0003255663, 0.2399301, -0.04825056, -9.771118, 0, 0, 32.37383, 1, 1, 1000, 1000
RFND, 33319512, 0.2, 25, 0, 0
IMU, 33350033, 0.0009845938, -0.0003308317, 0.0009688563, 0.2463224, -0.04598917, -9.783021, 0, 0, 32.37363, 1, 1, 1000, 1000
MAG, 33369600, 360, 493, 231, 0, 0, 0, 0, 0, 0, 1, 33369591
RFND, 33369631, 0.2, 25, 0, 0
BARO, 33369670, 0.1359081, 992.6429, 30.46, -0.4221125, 33369, 0, 29.32
CTUN, 33369683, 0, 0, 0, 0.5423428, 0.05247543, 0.05247543, 0.13, 0, 0.19, 0, 0, 0
ATT, 33369762, 0, 0.78, 0, 0.63, 359.85, 359.87, 0, 1
RATE, 33369768, -3.549936, 0.09677987, -0.008659341, -2.863675, 0.01630921, -0.006658346, 0.01971378, 0.01194939, 5.526321E-06, 334.9618, -0.9964943, 0
NKF1, 33369776, 0.78, 0.63, 359.86, 0.001584638, 0.004124857, 0.00827066, 0, 0, 0, -0.05247543, 0, 0, 0
NKF2, 33369776, 2, 0, 0, 0, 0, 0, 0, 0, 0, 0, 0, 0, 0
NKF3, 33369776, 0, 0, 0, 0, 0, 0.01, 0, 0, 0, 0, 0
NKF4, 33369776, 0, 0, 0, 0, 0, 2.451402E-07, 0, 0, 0, 19, 229, 0, 0
NKF5, 33369776, 0, 0, 0, 0, 0.18, 0.13, 0, 0.19, 0.5, 3.648171E-05, 0.0007076273, 0.001239689
NKQ1, 33369776, 0.9999192, 0.002354223, 0.01243389, -0.001172043
AHR2, 33369820, 0.77, 0.65, 359.84, 0.13, 0, 0, 0.9999598, 0.006757319, 0.005719636, -0.001425213
MOTB, 33369828, 1, 1, 0, 1
RCIN, 33369832, 0, 0, 0, 0, 0, 0, 0, 0, 0, 0, 0, 0, 0, 0
RCOU, 33369838, 1141, 1141, 1141, 1141, 0, 0, 0, 0, 0, 0, 0, 0, 0, 0
VIBE, 33369845, 0.02150813, 0.01847358, 0.03280832, 0, 0, 0
CTRL, 33369853, 0.008362965, 0.0001521069, 0.006752146, 0.0001595623, 6.887101E-05
PRX, 33369885, 2, 0.71, 0, 0.61, 0, 0.53, 0, 2.36, 0, 0, 180, 0.53
IMU, 33389756, 0.000595765, -0.0007303371, 0.0005168286, 0.2386472, -0.0371783, -9.770432, 0, 0, 32.37334, 1, 1, 1000, 1000
RFND, 33419787, 0.2, 25, 0, 0
IMU, 33429656, 0.0007768985, 0.0004649764, 0.0002944125, 0.2438478, -0.04283457, -9.780989, 0, 0, 32.37453, 1, 1, 1000, 1000
MAG, 33469958, 353, 491, 226, 0, 0, 0, 0, 0, 0, 1, 33469949
RFND, 33469989, 0.2, 25, 0, 0
BARO, 33470026, 0.08598267, 992.6483, 30.46, -0.2799637, 33470, 0, 29.32
CTUN, 33470040, 0, 0, 0, 0.5423428, 0.05261724, 0.05261724, 0.08, 0, 0.19, 0, 0, 0
ATT, 33470212, 0, 0.79, 0, 0.63, 359.85, 359.88, 0, 1
RATE, 33470219, -3.567152, 0.03183065, -0.00843861, -2.868582, -0.03653659, -0.006525838, 0.01983912, 0.02143587, 1.923826E-05, 313.5269, 0.9912491, 0
NKF1, 33470227, 0.79, 0.63, 359.87, 0.00126384, 0.004948955, 0.007741403, 0, 0, 0, -0.05261724, 0, 0, 0
NKF2, 33470227, 2, 0, 0, 0, 0, 0, 0, 0, 0, 0, 0, 0, 0
NKF3, 33470227, 0, 0, 0, 0, 0, 0.01, 0, 0, 0, 0, 0
NKF4, 33470227, 0, 0, 0, 0, 0, 2.671277E-07, 0, 0, 0, 19, 229, 0, 0
NKF5, 33470227, 0, 0, 0, 0, 0.18, 0.13, 0, 0.19, 0.5, 3.649392E-05, 0.0007332873, 0.001397999
NKQ1, 33470227, 0.9999191, 0.002386518, 0.01244307, -0.001157684
AHR2, 33470271, 0.77, 0.65, 359.84, 0.08, 0, 0, 0.9999596, 0.006786492, 0.005723876, -0.00141138
MOTB, 33470279, 1, 1, 0, 1
RCIN, 33470283, 0, 0, 0, 0, 0, 0, 0, 0, 0, 0, 0, 0, 0, 0
RCOU, 33470289, 1165, 1165, 1165, 1165, 0, 0, 0, 0, 0, 0, 0, 0, 0, 0
VIBE, 33470297, 0.02025662, 0.02089942, 0.0341781, 0, 0, 0
CTRL, 33470305, 0.008405552, 0.0001471132, 0.006759668, 0.0001720753, 5.674279E-05
PRX, 33470336, 2, 0.71, 0, 0.61, 0, 0.53, 0, 2.44, 0, 0, 180, 0.53
IMU, 33470343, 0.0004394324, -0.0005594799, 0.0003656108, 0.2443431, -0.04256459, -9.791922, 0, 0, 32.37576, 1, 1, 1000, 1000
IMU, 33509624, 0.0001483323, 0.0008959643, -0.0009447245, 0.2452713, -0.04632659, -9.800344, 0, 0, 32.3768, 1, 1, 1000, 1000
RFND, 33519824, 0.2, 25, 0, 0
IMU, 33550101, -0.001151743, 0.0004957871, 0.004206512, 0.243691, -0.0454918, -9.777099, 0, 0, 32.37806, 1, 1, 1000, 1000
MAG, 33569584, 355, 485, 232, 0, 0, 0, 0, 0, 0, 1, 33569575
RFND, 33569616, 0.2, 25, 0, 0
BARO, 33569653, 0.1580972, 992.6403, 30.46, -0.1144124, 33569, 0, 29.32
CTUN, 33569666, 0, 0, 0, 0.5423428, 0.05306035, 0.05306035, 0.15, 0, 0.19, 0, 0, 0
ATT, 33569742, 0, 0.79, 0, 0.64, 359.86, 359.88, 0, 1
RATE, 33569748, -3.569085, 0.04898326, -0.008778992, -2.884103, 0.03973858, -0.006883289, 0.0199593, 0.06609697, -0.0001004072, 297.4319, -0.5139351, 0
NKF1, 33569756, 0.79, 0.64, 359.87, 0.001258185, 0.006098432, 0.007343999, 0, 0, 0, -0.05306035, 0, 0, 0
NKF2, 33569756, 2, 0, 0, 0, 0, 0, 0, 0, 0, 0, 0, 0, 0
NKF3, 33569756, 0, 0, 0, 0, 0, 0.01, 0, 0, 0, 0, 0
NKF4, 33569756, 0, 0, 0, 0, 0, 2.96898E-07, 0, 0, 0, 19, 229, 0, 0
NKF5, 33569756, 0, 0, 0, 0, 0.18, 0.13, 0, 0.19, 0.5, 3.649537E-05, 0.0006465968, 0.001120399
NKQ1, 33569756, 0.9999188, 0.002388589, 0.01247452, -0.001095563
AHR2, 33569801, 0.77, 0.65, 359.84, 0.15, 0, 0, 0.9999596, 0.006783842, 0.005749023, -0.001349676
MOTB, 33569809, 1, 1, 0, 1
RCIN, 33569813, 0, 0, 0, 0, 0, 0, 0, 0, 0, 0, 0, 0, 0, 0
RCOU, 33569818, 1189, 1189, 1189, 1189, 0, 0, 0, 0, 0, 0, 0, 0, 0, 0
VIBE, 33569826, 0.06392188, 0.07570355, 0.08279371, 0, 0, 0
CTRL, 33569833, 0.008403489, 0.0001847365, 0.006790425, 0.0001606857, 6.538096E-05
PRX, 33569864, 2, 0.71, 0, 0.61, 0, 3.6, 0, 2.44, 0, 0, 90, 0.61
IMU, 33589655, 0.001978736, 0.0008479687, -0.007706222, 0.2405967, -0.03389439, -9.791268, 0, 0, 32.37875, 1, 1, 1000, 1000
RFND, 33619503, 0.2, 25, 0, 0
IMU, 33629719, -0.006630524, -0.001065227, 0.0181408, 0.2630891, -0.04430741, -9.776948, 0, 0, 32.37891, 1, 1, 1000, 1000
MAG, 33669597, 351, 489, 233, 0, 0, 0, 0, 0, 0, 1, 33669589
RFND, 33669987, 0.2, 25, 0, 0
BARO, 33670031, 0.2302117, 992.6323, 30.47, 0.03813747, 33670, 0, 29.32
CTUN, 33670045, 0, 0, 0, 0.5423428, 0.05327489, 0.05327489, 0.23, 0, 0.19, 0, 0, 0
ATT, 33670191, 0, 0.79, 0, 0.64, 359.87, 359.89, 0, 1
RATE, 33670197, -3.563349, -0.04381929, -0.007318016, -2.889834, 0.05905249, -0.006614261, 0.01998433, 0.5773127, 0.0001194717, 279.4088, 0.9106636, 0
NKF1, 33670206, 0.79, 0.64, 359.88, 0.0008908338, 0.005458814, 0.006898982, 0, 0, 0, -0.0532749, 0, 0, 0
NKF2, 33670206, 2, 0, 0, 0, 0, 0, 0, 0, 0, 0, 0, 0, 0
NKF3, 33670206, 0, 0, 0, 0, 0, 0.01, 0, 0, 0, 0, 0
NKF4, 33670206, 0, 0, 0, 0, 0, 3.196753E-07, 0, 0, 0, 19, 229, 0, 0
NKF5, 33670206, 0, 0, 0, 0, 0.18, 0.13, 0, 0.19, 0.5, 3.642219E-05, 0.0006762122, 0.001225584
NKQ1, 33670206, 0.9999186, 0.002365858, 0.01249963, -0.001039527
AHR2, 33670252, 0.77, 0.66, 359.85, 0.23, 0, 0, 0.9999597, 0.006755091, 0.005769845, -0.001293874
MOTB, 33670259, 1, 1, 0, 1
RCIN, 33670264, 0, 0, 0, 0, 0, 0, 0, 0, 0, 0, 0, 0, 0, 0
RCOU, 33670270, 1213, 1213, 1213, 1213, 0, 0, 0, 0, 0, 0, 0, 0, 0, 0
VIBE, 33670278, 0.1417416, 0.2193529, 0.2281173, 0, 0, 0
CTRL, 33670285, 0.008387067, 0.000496481, 0.006832819, 0.0002366611, 0.0002261341
PRX, 33670315, 2, 0.71, 0, 0.62, 0, 3.6, 0, 2.43, 0, 0, 90, 0.62
IMU, 33670323, -0.000880977, 0.001108876, 0.01006749, 0.2344936, -0.09566261, -9.791044, 0, 0, 32.37892, 1, 1, 1000, 1000
IMU, 33709727, 0.007085756, 0.00346058, -0.004764438, 0.2406952, 0.04388802, -9.779699, 0, 0, 32.37897, 1, 1, 1000, 1000
RFND, 33719943, 0.2, 25, 0, 0
IMU, 33749761, -0.007345546, -0.001343299, -0.0002516583, 0.2070458, -0.02600676, -9.786941, 0, 0, 32.37895, 1, 1, 1000, 1000
MAG, 33769591, 350, 493, 231, 0, 0, 0, 0, 0, 0, 1, 33769582
RFND, 33769621, 0.2, 25, 0, 0
BARO, 33769659, 0.1359081, 992.6429, 30.47, 0.2036888, 33769, 0, 29.32
CTUN, 33769672, 0, 0, 0, 0.5423428, 0.05374236, 0.05374236, 0.13, 0, 0.19, 0, 0, 0
ATT, 33769748, 0, 0.78, 0, 0.64, 359.87, 359.89, 0, 1
RATE, 33769754, -3.5239, 0.01932271, -0.009762939, -2.918835, 0.1896217, -0.00828177, 0.01994196, 0.02529141, 1.720004E-05, 262.287, -1.978016, 0
NKF1, 33769762, 0.78, 0.64, 359.88, 0.001800916, 0.007298191, 0.006476221, 0, 0, 0, -0.05374236, 0, 0, 0
NKF2, 33769762, 2, 0, 0, 0, 0, 0, 0, 0, 0, 0, 0, 0, 0
NKF3, 33769762, 0, 0, 0, 0, 0, 0.01, 0, 0, 0, 0, 0
NKF4, 33769762, 0, 0, 0, 0, 0, 3.515726E-07, 0, 0, 0, 19, 229, 0, 0
NKF5, 33769762, 0, 0, 0, 0, 0.18, 0.13, 0, 0.19, 0.5, 3.648227E-05, 0.0006091402, 0.001085464
NKQ1, 33769762, 0.9999182, 0.002300842, 0.01254084, -0.00102758
AHR2, 33769807, 0.76, 0.66, 359.85, 0.13, 0, 0, 0.99996, 0.00668235, 0.005808816, -0.001281963
MOTB, 33769815, 1, 1, 0, 1
RCIN, 33769819, 0, 0, 0, 0, 0, 0, 0, 0, 0, 0, 0, 0, 0, 0
RCOU, 33769825, 1238, 1235, 1221, 1251, 0, 0, 0, 0, 0, 0, 0, 0, 0, 0
VIBE, 33769832, 0.4856706, 0.6345013, 0.5587017, 0, 0, 0
CTRL, 33769839, 0.008272979, 0.0008443177, 0.00685021, 0.0004265945, 0.0002133776
PRX, 33769871, 2, 0.71, 0, 0.62, 0, 3.6, 0, 2.47, 0, 0, 90, 0.62
IMU, 33790491, 0.003173199, -0.003461191, -0.0188377, 0.287119, -0.1218769, -9.778027, 0, 0, 32.37907, 1, 1, 1000, 1000
RFND, 33819536, 0.2, 25, 0, 0
IMU, 33829676, -0.00120037, 0.003306993, 0.01319537, 0.3123583, 0.0259874, -9.748281, 0, 0, 32.37915, 1, 1, 1000, 1000
MAG, 33869998, 353, 493, 228, 0, 0, 0, 0, 0, 0, 1, 33869990
RFND, 33870033, 0.2, 25, 0, 0
BARO, 33870069, 0.1719653, 992.6386, 30.48, 0.2487603, 33870, 0, 29.32
CTUN, 33870082, 0, 0, 0, 0.5423428, 0.054074, 0.054074, 0.17, 0, 0.19, 0, 0, 0
DU32, 33870118, 7, 33580536
ATT, 33870701, 0, 0.77, 0, 0.66, 359.84, 359.86, 0, 1
RATE, 33870712, -3.48389, -0.03520855, -0.008670688, -2.975818, 0.392353, -0.009859191, 0.02009538, -0.3380012, 0.0001158365, 277.4802, -0.5900383, 0
NKF1, 33870721, 0.77, 0.66, 359.85, 0.002033032, 0.007142318, 0.006851363, 0, 0, 0, -0.05407401, 0, 0, 0
NKF2, 33870721, 2, 0, 0, 0, 0, 0, 0, 0, 0, 0, 0, 0, 0
NKF3, 33870721, 0, 0, 0, 0, 0, 0.01, 0, 0, 0, 0, 0
NKF4, 33870721, 0, 0, 0, 0, 0, 3.777843E-07, 0, 0, 0, 19, 229, 0, 0
NKF5, 33870721, 0, 0, 0, 0, 0.18, 0.13, 0, 0.19, 0.5, 3.64024E-05, 0.0005855509, 0.001007784
NKQ1, 33870721, 0.9999167, 0.002235515, 0.01264176, -0.001301386
AHR2, 33870767, 0.75, 0.67, 359.82, 0.17, 0, 0, 0.9999595, 0.00659746, 0.005913878, -0.001556184
MOTB, 33870776, 1, 1, 0, 1
RCIN, 33870780, 0, 0, 0, 0, 0, 0, 0, 0, 0, 0, 0, 0, 0, 0
RCOU, 33870786, 1236, 1238, 1221, 1252, 0, 0, 0, 0, 0, 0, 0, 0, 0, 0
VIBE, 33870794, 0.601086, 0.4952817, 0.6811426, 0, 0, 0
CTRL, 33870800, 0.008238085, 0.0009852357, 0.006970345, 0.0008038411, 0.0004126269
PRX, 33870833, 2, 0.71, 0, 0.62, 0, 3.6, 0, 2.4, 0, 0, 90, 0.62
IMU, 33870841, -0.0007307275, 0.006926073, -0.00590776, 0.2369258, -0.05992105, -9.776114, 0, 0, 32.37995, 1, 1, 1000, 1000
IMU, 33909658, 0.002884929, 0.001737537, 0.006695245, 0.2928141, -0.07036562, -9.792558, 0, 0, 32.38103, 1, 1, 1000, 1000
RFND, 33919528, 0.2, 25, 0, 0
IMU, 33949663, -0.002152188, 0.00410504, 0.01929374, 0.2283872, 0.06926294, -9.771306, 0, 0, 32.38205, 1, 1, 1000, 1000
MAG, 33970096, 356, 490, 235, 0, 0, 0, 0, 0, 0, 1, 33970087
RFND, 33970132, 0.2, 25, 0, 0
BARO, 33970170, 0.1691917, 992.639, 30.48, 0.08319172, 33970, 0, 29.32
CTUN, 33970183, 0, 0, 0, 0.5423428, 0.05452278, 0.05452278, 0.16, 0, 0.19, 0, 0, 0
ATT, 33970265, 0, 0.78, 0, 0.67, 359.82, 359.84, 0, 1
RATE, 33970272, -3.515965, 0.3339899, -0.009633139, -3.049143, -0.1059361, -0.006783046, 0.02076274, -0.916464, 0.0002644758, 183.7683, 2.875614, 0
NKF1, 33970280, 0.78, 0.67, 359.83, 0.0008856518, 0.007183085, 0.004537489, 0, 0, 0, -0.05452278, 0, 0, 0
NKF2, 33970280, 2, 0, 0, 0, 0, 0, 0, 0, 0, 0, 0, 0, 0
NKF3, 33970280, 0, 0, 0, 0, 0, 0.01, 0, 0, 0, 0, 0
NKF4, 33970280, 0, 0, 0, 0, 0, 4.082731E-07, 0, 0, 0, 19, 229, 0, 0
NKF5, 33970280, 0, 0, 0, 0, 0.18, 0.13, 0, 0.19, 0.5, 3.647913E-05, 0.0005923375, 0.001129801
NKQ1, 33970280, 0.9999147, 0.002312985, 0.01276731, -0.001493163
AHR2, 33970324, 0.76, 0.69, 359.8, 0.16, 0, 0, 0.9999581, 0.006643993, 0.006053327, -0.001749636
MOTB, 33970331, 1, 1, 0, 1
RCIN, 33970336, 0, 0, 0, 0, 0, 0, 0, 0, 0, 0, 0, 0, 0, 0
RCOU, 33970341, 1238, 1233, 1221, 1248, 0, 0, 0, 0, 0, 0, 0, 0, 0, 0
VIBE, 33970349, 0.5051567, 0.4544073, 0.6296627, 0, 0, 0
CTRL, 33970356, 0.008282235, 0.001071094, 0.00717157, 0.0008918679, 0.0005438395
PRX, 33970388, 2, 0.71, 0, 0.62, 0, 3.6, 0, 2.46, 0, 0, 90, 0.62
IMU, 33990629, -0.01565581, 0.004867751, 0.01218093, 0.1920685, 0.001792485, -9.783539, 0, 0, 32.38358, 1, 1, 1000, 1000
RFND, 34019507, 0.2, 25, 0, 0
IMU, 34029702, 0.003380497, -0.003970564, 0.0004337809, 0.3375996, -0.1172847, -9.754623, 0, 0, 32.38551, 1, 1, 1000, 1000
MAG, 34069980, 352, 489, 231, 0, 0, 0, 0, 0, 0, 1, 34069972
RFND, 34070015, 0.2, 25, 0, 0
BARO, 34070052, 0.2107962, 992.6344, 30.48, -0.03817206, 34070, 0, 29.32
CTUN, 34070065, 0, 0, 0, 0.5423428, 0.05498669, 0.05498669, 0.21, 0, 0.19, 0, 0, 0
ATT, 34070141, 0, 0.77, 0, 0.67, 359.86, 359.88, 0, 1
RATE, 34070147, -3.4816, 0.2049251, -0.009103124, -3.035187, -0.3487743, -0.003340731, 0.02049612, 0.09539055, -0.0008841818, 180.0768, -2.62022, 0
NKF1, 34070154, 0.77, 0.67, 359.87, -0.002218589, 0.008139885, 0.00444634, 0, 0, 0, -0.05498669, 0, 0, 0
NKF2, 34070154, 2, 0, 0, 0, 0, 0, 0, 0, 0, 0, 0, 0, 0
NKF3, 34070154, 0, 0, 0, 0, 0, 0.01, 0, 0, 0, 0, 0
NKF4, 34070154, 0, 0, 0, 0, 0, 4.391086E-07, 0, 0, 0, 19, 229, 0, 0
NKF5, 34070154, 0, 0, 0, 0, 0.19, 0.13, 0, 0.19, 0.5, 3.661439E-05, 0.0005240292, 0.000934301
NKQ1, 34070154, 0.9999154, 0.002219163, 0.01276898, -0.001092446
AHR2, 34070197, 0.74, 0.69, 359.85, 0.21, 0, 0, 0.9999592, 0.006547895, 0.00607579, -0.001348699
MOTB, 34070205, 1, 1, 0, 1
RCIN, 34070209, 0, 0, 0, 0, 0, 0, 0, 0, 0, 0, 0, 0, 0, 0
RCOU, 34070215, 1235, 1225, 1221, 1242, 0, 0, 0, 0, 0, 0, 0, 0, 0, 0
VIBE, 34070223, 0.4815803, 0.4324118, 0.6583778, 0, 0, 0
CTRL, 34070231, 0.008249201, 0.0015997, 0.007274738, 0.0009851677, 0.000572224
PRX, 34070262, 2, 0.71, 0, 0.62, 0, 3.6, 0, 2.44, 0, 0, 90, 0.62
IMU, 34070269, 0.003460579, -0.006009181, 0.001656365, 0.1494038, -0.02897946, -9.758188, 0, 0, 32.38782, 1, 1, 1000, 1000
IMU, 34109831, 2.019991E-05, -0.002464009, -0.01472341, 0.06160245, -0.03767991, -9.77607, 0, 0, 32.39117, 1, 1, 1000, 1000
RFND, 34119867, 0.2, 25, 0, 0
IMU, 34149685, -0.008239719, 0.00117881, -0.003215168, 0.2046354, -0.02122363, -9.817603, 0, 0, 32.39537, 1, 1, 1000, 1000
MAG, 34169873, 351, 494, 232, 0, 0, 0, 0, 0, 0, 1, 34169864
RFND, 34169909, 0.2, 25, 0, 0
BARO, 34169946, 0.2385326, 992.6314, 30.49, 0.05261367, 34169, 0, 29.32
CTUN, 34169959, 0, 0, 0, 0.5423428, 0.05536102, 0.05536102, 0.23, 0, 0.19, 0, 0, 0
ATT, 34170035, 0, 0.77, 0, 0.67, 359.86, 359.88, 0, 1
RATE, 34170042, -3.468427, 0.0882699, -0.007486558, -3.060609, 0.1940681, -0.01010488, 0.0205818, 9.460764E-05, -0.0005070368, 246.1528, -7.874298, 0
NKF1, 34170049, 0.77, 0.67, 359.87, 0.0002873811, 0.008154574, 0.006077847, 0, 0, 0, -0.05536102, 0, 0, 0
NKF2, 34170049, 2, 0, 0, 0, 0, 0, 0, 0, 0, 0, 0, 0, 0
NKF3, 34170049, 0, 0, 0, 0, 0, 0.01, 0, 0, 0, 0, 0
NKF4, 34170049, 0, 0, 0, 0, 0, 4.701412E-07, 0, 0, 0, 19, 229, 0, 0
NKF5, 34170049, 0, 0, 0, 0, 0.18, 0.13, 0, 0.19, 0.5, 3.660144E-05, 0.000589335, 0.001198243
NKQ1, 34170049, 0.9999149, 0.002195481, 0.01281485, -0.001139819
AHR2, 34170475, 0.74, 0.7, 359.84, 0.23, 0, 0, 0.9999587, 0.006548699, 0.006145393, -0.001396395
MOTB, 34170486, 1, 1, 0, 1
RCIN, 34170490, 0, 0, 0, 0, 0, 0, 0, 0, 0, 0, 0, 0, 0, 0
RCOU, 34170496, 1233, 1237, 1221, 1250, 0, 0, 0, 0, 0, 0, 0, 0, 0, 0
VIBE, 34170504, 0.4518254, 0.4007193, 0.5617786, 0, 0, 0
CTRL, 34170512, 0.008258395, 0.001678062, 0.007185858, 0.00169089, 0.0005330016
PRX, 34170544, 2, 0.71, 0, 0.61, 0, 3.6, 0, 2.44, 0, 0, 90, 0.61
IMU, 34190292, -0.001133401, -0.008493618, 0.01418857, 0.2227184, -0.05910821, -9.793543, 0, 0, 32.39956, 1, 1, 1000, 1000
RFND, 34219481, 0.2, 25, 0, 0
IMU, 34229641, 0.009539578, -0.009518725, 0.005328626, 0.07366994, -0.1134286, -9.730988, 0, 0, 32.40175, 1, 1, 1000, 1000
MAG, 34269638, 351, 498, 234, 0, 0, 0, 0, 0, 0, 1, 34269629
RFND, 34269673, 0.2, 25, 0, 0
BARO, 34269709, 0.205249, 992.6351, 30.49, 0.18114, 34269, 0, 29.32
CTUN, 34269723, 0, 0, 0, 0.5423428, 0.05585982, 0.05585982, 0.2, 0, 0.19, 0, 0, 0
ATT, 34269801, 0, 0.77, 0, 0.66, 359.86, 359.88, 0, 1
RATE, 34269807, -3.503393, 0.3200752, -0.01058618, -2.998133, -0.2787999, -0.007170106, 0.02037193, 0.2319996, -1.238481E-05, 274.6976, -12.44164, 0
NKF1, 34269815, 0.77, 0.66, 359.87, -0.001119029, 0.008319879, 0.006782657, 0, 0, 0, -0.05585982, 0, 0, 0
NKF2, 34269815, 2, 0, 0, 0, 0, 0, 0, 0, 0, 0, 0, 0, 0
NKF3, 34269815, 0, 0, 0, 0, 0, 0.01, 0, 0, 0, 0, 0
NKF4, 34269815, 0, 0, 0, 0, 0, 5.077223E-07, 0, 0, 0, 19, 229, 0, 0
NKF5, 34269815, 0, 0, 0, 0, 0.19, 0.13, 0, 0.19, 0.5, 3.684385E-05, 0.0004979756, 0.0008778456
NKQ1, 34269815, 0.9999163, 0.002257589, 0.01270014, -0.001088539
AHR2, 34269859, 0.75, 0.69, 359.85, 0.2, 0, 0, 0.9999591, 0.006606569, 0.00604446, -0.001345396
MOTB, 34269867, 1, 1, 0, 1
RCIN, 34269871, 0, 0, 0, 0, 0, 0, 0, 0, 0, 0, 0, 0, 0, 0
RCOU, 34269877, 1239, 1233, 1221, 1250, 0, 0, 0, 0, 0, 0, 0, 0, 0, 0
VIBE, 34269884, 0.4920551, 0.4042827, 0.644991, 0, 0, 0
CTRL, 34269892, 0.008267513, 0.001789189, 0.007086514, 0.001913226, 0.0004514483
PRX, 34269923, 2, 0.71, 0, 0.62, 0, 3.6, 0, 2.45, 0, 0, 90, 0.62
IMU, 34269930, 0.005470289, -0.004787889, 0.004040639, 0.07470833, -0.1003907, -9.661475, 0, 0, 32.40221, 1, 1, 1000, 1000
