FMT, 128, 89, FMT, BBnNZ, Type,Length,Name,Format,Columns
FMT, 129, 31, PARM, QNf, TimeUS,Name,Value
FMT, 130, 46, GPS, QBIHBcLLefffB, TimeUS,Status,GMS,GWk,NSats,HDop,Lat,Lng,Alt,Spd,GCrs,VZ,U
FMT, 131, 46, GPS2, QBIHBcLLefffB, TimeUS,Status,GMS,GWk,NSats,HDop,Lat,Lng,Alt,Spd,GCrs,VZ,U
FMT, 132, 46, GPSB, QBIHBcLLefffB, TimeUS,Status,GMS,GWk,NSats,HDop,Lat,Lng,Alt,Spd,GCrs,VZ,U
FMT, 193, 24, GPA, QCCCCBI, TimeUS,VDop,HAcc,VAcc,SAcc,VV,SMS
FMT, 194, 24, GPA2, QCCCCBI, TimeUS,VDop,HAcc,VAcc,SAcc,VV,SMS
FMT, 195, 24, GPAB, QCCCCBI, TimeUS,VDop,HAcc,VAcc,SAcc,VV,SMS
FMT, 133, 53, IMU, QffffffIIfBBHH, TimeUS,GyrX,GyrY,GyrZ,AccX,AccY,AccZ,EG,EA,T,GH,AH,GHz,AHz
FMT, 134, 75, MSG, QZ, TimeUS,Message
FMT, 135, 39, RCIN, QHHHHHHHHHHHHHH, TimeUS,C1,C2,C3,C4,C5,C6,C7,C8,C9,C10,C11,C12,C13,C14
FMT, 136, 39, RCOU, QHHHHHHHHHHHHHH, TimeUS,C1,C2,C3,C4,C5,C6,C7,C8,C9,C10,C11,C12,C13,C14
FMT, 137, 15, RSSI, Qf, TimeUS,RXRSSI
FMT, 139, 37, BARO, QffcfIff, TimeUS,Alt,Press,Temp,CRt,SMS,Offset,GndTemp
FMT, 140, 22, POWR, QffHB, TimeUS,Vcc,VServo,Flags,Safety
FMT, 143, 45, CMD, QHHHfffffff, TimeUS,CTot,CNum,CId,Prm1,Prm2,Prm3,Prm4,Lat,Lng,Alt
FMT, 144, 20, RAD, QBBBBBHH, TimeUS,RSSI,RemRSSI,TxBuf,Noise,RemNoise,RxErrors,Fixed
FMT, 146, 43, CAM, QIHLLeeeccC, TimeUS,GPSTime,GPSWeek,Lat,Lng,Alt,RelAlt,GPSAlt,Roll,Pitch,Yaw
FMT, 232, 43, TRIG, QIHLLeeeccC, TimeUS,GPSTime,GPSWeek,Lat,Lng,Alt,RelAlt,GPSAlt,Roll,Pitch,Yaw
FMT, 162, 30, ARSP, QffcffB, TimeUS,Airspeed,DiffPress,Temp,RawPress,Offset,U
FMT, 164, 45, CURR, QfffcHHHHHHHHHH, TimeUS,Volt,Curr,CurrTot,Temp,V1,V2,V3,V4,V5,V6,V7,V8,V9,V10
FMT, 165, 45, CUR2, QfffcHHHHHHHHHH, TimeUS,Volt,Curr,CurrTot,Temp,V1,V2,V3,V4,V5,V6,V7,V8,V9,V10
FMT, 163, 27, ATT, QccccCCCC, TimeUS,DesRoll,Roll,DesPitch,Pitch,DesYaw,Yaw,ErrRP,ErrYaw
FMT, 166, 34, MAG, QhhhhhhhhhBI, TimeUS,MagX,MagY,MagZ,OfsX,OfsY,OfsZ,MOfsX,MOfsY,MOfsZ,Health,S
FMT, 169, 14, MODE, QMBB, TimeUS,Mode,ModeNum,Rsn
FMT, 196, 17, RFND, QCBCB, TimeUS,Dist1,Orient1,Dist2,Orient2
FMT, 223, 33, DMS, IIIIIBBBBBBBBBB, TimeMS,N,Dp,RT,RS,Er,Fa,Fmn,Fmx,Pa,Pmn,Pmx,Sa,Smn,Smx
FMT, 240, 41, BCN, QBBfffffff, TimeUS,Health,Cnt,D0,D1,D2,D3,PosX,PosY,PosZ
FMT, 138, 53, IMU2, QffffffIIfBBHH, TimeUS,GyrX,GyrY,GyrZ,AccX,AccY,AccZ,EG,EA,T,GH,AH,GHz,AHz
FMT, 147, 53, IMU3, QffffffIIfBBHH, TimeUS,GyrX,GyrY,GyrZ,AccX,AccY,AccZ,EG,EA,T,GH,AH,GHz,AHz
FMT, 141, 45, AHR2, QccCfLLffff, TimeUS,Roll,Pitch,Yaw,Alt,Lat,Lng,Q1,Q2,Q3,Q4
FMT, 180, 31, POS, QLLfff, TimeUS,Lat,Lng,Alt,RelHomeAlt,RelOriginAlt
FMT, 142, 45, SIM, QccCfLLffff, TimeUS,Roll,Pitch,Yaw,Alt,Lat,Lng,Q1,Q2,Q3,Q4
FMT, 198, 51, NKF1, QccCfffffffccc, TimeUS,Roll,Pitch,Yaw,VN,VE,VD,dPD,PN,PE,PD,GX,GY,GZ
FMT, 199, 35, NKF2, QbccccchhhhhhB, TimeUS,AZbias,GSX,GSY,GSZ,VWN,VWE,MN,ME,MD,MX,MY,MZ,MI
FMT, 200, 33, NKF3, Qcccccchhhcc, TimeUS,IVN,IVE,IVD,IPN,IPE,IPD,IMX,IMY,IMZ,IYAW,IVT
FMT, 201, 35, NKF4, QcccccfbbHBHHb, TimeUS,SV,SP,SH,SM,SVT,errRP,OFN,OFE,FS,TS,SS,GPS,PI
FMT, 202, 40, NKF5, QBhhhcccCCfff, TimeUS,NI,FIX,FIY,AFI,HAGL,offset,RI,rng,Herr,eAng,eVel,ePos
FMT, 203, 51, NKF6, QccCfffffffccc, TimeUS,Roll,Pitch,Yaw,VN,VE,VD,dPD,PN,PE,PD,GX,GY,GZ
FMT, 204, 35, NKF7, QbccccchhhhhhB, TimeUS,AZbias,GSX,GSY,GSZ,VWN,VWE,MN,ME,MD,MX,MY,MZ,MI
FMT, 205, 33, NKF8, Qcccccchhhcc, TimeUS,IVN,IVE,IVD,IPN,IPE,IPD,IMX,IMY,IMZ,IYAW,IVT
FMT, 206, 35, NKF9, QcccccfbbHBHHb, TimeUS,SV,SP,SH,SM,SVT,errRP,OFN,OFE,FS,TS,SS,GPS,PI
FMT, 207, 36, NKF0, QBccCCcccccccc, TimeUS,ID,rng,innov,SIV,TR,BPN,BPE,BPD,OFH,OFL,OFN,OFE,OFD
FMT, 208, 27, NKQ1, Qffff, TimeUS,Q1,Q2,Q3,Q4
FMT, 209, 27, NKQ2, Qffff, TimeUS,Q1,Q2,Q3,Q4
FMT, 210, 51, XKF1, QccCfffffffccc, TimeUS,Roll,Pitch,Yaw,VN,VE,VD,dPD,PN,PE,PD,GX,GY,GZ
FMT, 211, 34, XKF2, QccccchhhhhhB, TimeUS,AX,AY,AZ,VWN,VWE,MN,ME,MD,MX,MY,MZ,MI
FMT, 212, 33, XKF3, Qcccccchhhcc, TimeUS,IVN,IVE,IVD,IPN,IPE,IPD,IMX,IMY,IMZ,IYAW,IVT
FMT, 213, 35, XKF4, QcccccfbbHBHHb, TimeUS,SV,SP,SH,SM,SVT,errRP,OFN,OFE,FS,TS,SS,GPS,PI
FMT, 214, 40, XKF5, QBhhhcccCCfff, TimeUS,NI,FIX,FIY,AFI,HAGL,offset,RI,rng,Herr,eAng,eVel,ePos
FMT, 215, 51, XKF6, QccCfffffffccc, TimeUS,Roll,Pitch,Yaw,VN,VE,VD,dPD,PN,PE,PD,GX,GY,GZ
FMT, 216, 34, XKF7, QccccchhhhhhB, TimeUS,AX,AY,AZ,VWN,VWE,MN,ME,MD,MX,MY,MZ,MI
FMT, 217, 33, XKF8, Qcccccchhhcc, TimeUS,IVN,IVE,IVD,IPN,IPE,IPD,IMX,IMY,IMZ,IYAW,IVT
FMT, 218, 35, XKF9, QcccccfbbHBHHb, TimeUS,SV,SP,SH,SM,SVT,errRP,OFN,OFE,FS,TS,SS,GPS,PI
FMT, 219, 36, XKF0, QBccCCcccccccc, TimeUS,ID,rng,innov,SIV,TR,BPN,BPE,BPD,OFH,OFL,OFN,OFE,OFD
FMT, 220, 27, XKQ1, Qffff, TimeUS,Q1,Q2,Q3,Q4
FMT, 221, 27, XKQ2, Qffff, TimeUS,Q1,Q2,Q3,Q4
FMT, 222, 35, XKFD, Qffffff, TimeUS,IX,IY,IZ,IVX,IVY,IVZ
FMT, 148, 34, TERR, QBLLHffHH, TimeUS,Status,Lat,Lng,Spacing,TerrH,CHeight,Pending,Loaded
FMT, 149, 18, UBX1, QBHBBH, TimeUS,Instance,noisePerMS,jamInd,aPower,agcCnt
FMT, 150, 16, UBX2, QBbBbB, TimeUS,Instance,ofsI,magI,ofsQ,magQ
FMT, 151, 18, UBY1, QBHBBH, TimeUS,Instance,noisePerMS,jamInd,aPower,agcCnt
FMT, 152, 16, UBY2, QBbBbB, TimeUS,Instance,ofsI,magI,ofsQ,magQ
FMT, 170, 42, GRAW, QIHBBddfBbB, TimeUS,WkMS,Week,numSV,sv,cpMes,prMes,doMes,mesQI,cno,lli
FMT, 171, 24, GRXH, QdHbBB, TimeUS,rcvTime,week,leapS,numMeas,recStat
FMT, 172, 41, GRXS, QddfBBBHBBBBB, TimeUS,prMes,cpMes,doMes,gnss,sv,freq,lock,cno,prD,cpD,doD,trk
FMT, 173, 63, SBFE, QIHBBdddfffff, TimeUS,TOW,WN,Mode,Err,Lat,Lng,Height,Undul,Vn,Ve,Vu,COG
FMT, 153, 19, ESC1, Qcccc, TimeUS,RPM,Volt,Curr,Temp
FMT, 154, 19, ESC2, Qcccc, TimeUS,RPM,Volt,Curr,Temp
FMT, 155, 19, ESC3, Qcccc, TimeUS,RPM,Volt,Curr,Temp
FMT, 156, 19, ESC4, Qcccc, TimeUS,RPM,Volt,Curr,Temp
FMT, 157, 19, ESC5, Qcccc, TimeUS,RPM,Volt,Curr,Temp
FMT, 158, 19, ESC6, Qcccc, TimeUS,RPM,Volt,Curr,Temp
FMT, 159, 19, ESC7, Qcccc, TimeUS,RPM,Volt,Curr,Temp
FMT, 160, 19, ESC8, Qcccc, TimeUS,RPM,Volt,Curr,Temp
FMT, 167, 34, MAG2, QhhhhhhhhhBI, TimeUS,MagX,MagY,MagZ,OfsX,OfsY,OfsZ,MOfsX,MOfsY,MOfsZ,Health,S
FMT, 168, 34, MAG3, QhhhhhhhhhBI, TimeUS,MagX,MagY,MagZ,OfsX,OfsY,OfsZ,MOfsX,MOfsY,MOfsZ,Health,S
FMT, 174, 31, ACC1, QQfff, TimeUS,SampleUS,AccX,AccY,AccZ
FMT, 175, 31, ACC2, QQfff, TimeUS,SampleUS,AccX,AccY,AccZ
FMT, 176, 31, ACC3, QQfff, TimeUS,SampleUS,AccX,AccY,AccZ
FMT, 177, 31, GYR1, QQfff, TimeUS,SampleUS,GyrX,GyrY,GyrZ
FMT, 178, 31, GYR2, QQfff, TimeUS,SampleUS,GyrX,GyrY,GyrZ
FMT, 179, 31, GYR3, QQfff, TimeUS,SampleUS,GyrX,GyrY,GyrZ
FMT, 181, 35, PIDR, Qffffff, TimeUS,Des,P,I,D,FF,AFF
FMT, 182, 35, PIDP, Qffffff, TimeUS,Des,P,I,D,FF,AFF
FMT, 183, 35, PIDY, Qffffff, TimeUS,Des,P,I,D,FF,AFF
FMT, 184, 35, PIDA, Qffffff, TimeUS,Des,P,I,D,FF,AFF
FMT, 185, 35, PIDS, Qffffff, TimeUS,Des,P,I,D,FF,AFF
FMT, 186, 35, PIDL, Qffffff, TimeUS,Des,P,I,D,FF,AFF
FMT, 161, 37, BAR2, QffcfIff, TimeUS,Alt,Press,Temp,CRt,SMS,Offset,GndTemp
FMT, 197, 37, BAR3, QffcfIff, TimeUS,Alt,Press,Temp,CRt,SMS,Offset,GndTemp
FMT, 187, 35, VIBE, QfffIII, TimeUS,VibeX,VibeY,VibeZ,Clip0,Clip1,Clip2
FMT, 188, 47, IMT, Qfffffffff, TimeUS,DelT,DelvT,DelaT,DelAX,DelAY,DelAZ,DelVX,DelVY,DelVZ
FMT, 189, 47, IMT2, Qfffffffff, TimeUS,DelT,DelvT,DelaT,DelAX,DelAY,DelAZ,DelVX,DelVY,DelVZ
FMT, 190, 47, IMT3, Qfffffffff, TimeUS,DelT,DelvT,DelaT,DelAX,DelAY,DelAZ,DelVX,DelVY,DelVZ
FMT, 191, 24, ORGN, QBLLe, TimeUS,Type,Lat,Lng,Alt
FMT, 192, 19, RPM, Qff, TimeUS,rpm1,rpm2
FMT, 233, 47, GMB1, Iffffffffff, TimeMS,dt,dax,day,daz,dvx,dvy,dvz,jx,jy,jz
FMT, 234, 44, GMB2, IBfffffffff, TimeMS,es,ex,ey,ez,rx,ry,rz,tx,ty,tz
FMT, 235, 13, GMB3, Ihhh, TimeMS,rl_torque_cmd,el_torque_cmd,az_torque_cmd
FMT, 236, 59, RATE, Qffffffffffff, TimeUS,RDes,R,ROut,PDes,P,POut,YDes,Y,YOut,ADes,A,AOut
FMT, 237, 23, RALY, QBBLLh, TimeUS,Tot,Seq,Lat,Lng,Alt
FMT, 238, 43, VISO, Qffffffff, TimeUS,dt,AngDX,AngDY,AngDZ,PosDX,PosDY,PosDZ,conf
FMT, 224, 23, SBPH, QIII, TimeUS,CrcError,LastInject,IARhyp
FMT, 229, 80, SBR1, QHHBZ, TimeUS,msg_type,sender_id,msg_len,d1
FMT, 230, 205, SBR2, QHZZZ, TimeUS,msg_type,d2,d3,d4
FMT, 25, 41, ATUN, QBBfffffff, TimeUS,Axis,TuneStep,Targ,Min,Max,RP,RD,SP,ddt
FMT, 26, 19, ATDE, Qff, TimeUS,Angle,Rate
FMT, 31, 22, PTUN, QBfHHH, TimeUS,Param,TunVal,CtrlIn,TunLo,TunHi
FMT, 12, 28, OF, QBffff, TimeUS,Qual,flowX,flowY,bodyX,bodyY
FMT, 5, 51, NTUN, Qffffffffff, TimeUS,DPosX,DPosY,PosX,PosY,DVelX,DVelY,VelX,VelY,DAccX,DAccY
FMT, 4, 51, CTUN, Qffffffeccfhh, TimeUS,ThI,ABst,ThO,ThH,DAlt,Alt,BAlt,DSAlt,SAlt,TAlt,DCRt,CRt
FMT, 6, 32, PM, QHHIhBHII, TimeUS,NLon,NLoop,MaxT,PMT,I2CErr,INSErr,LogDrop,Mem
FMT, 30, 27, MOTB, Qffff, TimeUS,LiftMax,BatVolt,BatRes,ThLimit
FMT, 13, 12, EV, QB, TimeUS,Id
FMT, 20, 14, D16, QBh, TimeUS,Id,Value
FMT, 21, 14, DU16, QBH, TimeUS,Id,Value
FMT, 22, 16, D32, QBi, TimeUS,Id,Value
FMT, 23, 16, DU32, QBI, TimeUS,Id,Value
FMT, 24, 16, DFLT, QBf, TimeUS,Id,Value
FMT, 19, 13, ERR, QBB, TimeUS,Subsys,ECode
FMT, 32, 19, HELI, Qff, TimeUS,DRRPM,ERRPM
FMT, 33, 29, PL, QBBffff, TimeUS,Heal,TAcq,pX,pY,vX,vY
FMT, 34, 36, GUID, QBffffff, TimeUS,Type,pX,pY,pZ,vX,vY,vZ
FMT, 35, 32, THRO, QBffffbbbb, TimeUS,Stage,Vel,VelZ,Acc,AccEfZ,Throw,AttOk,HgtOk,PosOk
FMT, 36, 56, PRX, QBfffffffffff, TimeUS,Health,D0,D45,D90,D135,D180,D225,D270,D315,DUp,CAn,CDis
MODE, 18277638, 100, 100, 2
IMU, 18279054, -0.0007020315, -0.001123736, 0.0003059062, 0.2912578, -0.04020392, -9.787663, 0, 0, 34.3671, 1, 1, 1000, 1000
FMT, 254, 47, NKT1, QIffffffff, TimeUS,Cnt,IMUMin,IMUMax,EKFMin,EKFMax,AngMin,AngMax,VelMin,VelM
FMT, 253, 31, CTRL, Qfffff, TimeUS,RMSRollP,RMSRollD,RMSPitchP,RMSPitchD,RMSYaw
RFND, 18409973, 0.2, 25, 0, 0
MSG, 18410428, APM:Copter V3.5.7 (38483450)
MSG, 18410433, New mission
MSG, 18410443, Frame: QUAD
MODE, 18410448, Autonomous, 100, 2
IMU, 18440556, -4.627589E-05, -0.0003354655, 0.0003180304, 0.2851377, -0.05573554, -9.78982, 0, 0, 34.36967, 1, 1, 1000, 1000
MAG, 18460445, 364, 529, 349, 0, 0, 0, 0, 0, 0, 1, 18460437
RFND, 18460909, 0.2, 25, 0, 0
BARO, 18460952, 0.0195971, 992.6181, 32.46, 0.03199452, 18460, 0, 32.15
CTUN, 18460966, 0, 0, 0, 0.5022295, 0.06847329, 0.06847329, 0.01, 0, 0.19, 0, 0, 0
ATT, 18461208, 0, 0.79, 0, 0.89, 0.09, 0.1, 0, 1
RATE, 18461214, -3.556093, 0.0289511, -0.008536862, -4.038497, -0.02411653, -0.009450002, 0.02776411, 0.03256589, 3.052046E-05, -45.27211, 0.9552956, 0
NKF1, 18461223, 0.79, 0.89, 0.1, 0.001982679, -0.002577055, -0.00111783, 0, 0, 0, -0.06847329, 0, 0, 0
NKF2, 18461223, 1, 0, 0, 0, 0, 0, 0, 0, 0, 0, 0, 0, 0
NKF3, 18461223, 0, 0, 0, 0, 0, 0, 0, 0, 0, 0, 0
NKF4, 18461223, 0, 0, 0, 0, 0, 7.12754E-06, 0, 0, 0, 19, 229, 0, 0
NKF5, 18461223, 0, 0, 0, 0, 0.2, 0.13, 0, 0.19, 0.5, 3.912078E-05, 0.0003085205, 0.0006447329
NKQ1, 18461223, 0.9998887, 0.002338095, 0.01471603, 0.0008680127
AHR2, 18461269, 0.8, 0.89, 0.1, 0.01, 0, 0, 0.9999445, 0.006989724, 0.007828128, 0.0008985918
MOTB, 18461380, 1, 1, 0, 1
RCIN, 18461386, 0, 0, 0, 0, 0, 0, 0, 0, 0, 0, 0, 0, 0, 0
RCOU, 18461393, 1101, 1101, 1101, 1101, 0, 0, 0, 0, 0, 0, 0, 0, 0, 0
VIBE, 18461401, 0.02087245, 0.02078008, 0.029388, 0, 0, 0
CTRL, 18461407, 0.008382862, 0.0001371761, 0.009514766, 0.0001778092, 4.684903E-05
PRX, 18461451, 2, 0.59, 0, 0.56, 0, 3.6, 0, 2.55, 0, 0, 90, 0.56
IMU, 18480091, 0.001669554, 0.001145547, 0.0002169256, 0.294006, -0.05872028, -9.75692, 0, 0, 34.37055, 1, 1, 1000, 1000
RFND, 18510085, 0.2, 25, 0, 0
IMU, 18520524, -0.0008457759, 0.001841667, 0.0003321713, 0.2940844, -0.04316762, -9.793945, 0, 0, 34.37104, 1, 1, 1000, 1000
MAG, 18559931, 356, 526, 351, 0, 0, 0, 0, 0, 0, 1, 18559923
RFND, 18559961, 0.2, 25, 0, 0
BARO, 18559999, 0.03359502, 992.6165, 32.46, 0.2427193, 18559, 0, 32.15
CTUN, 18560011, 0, 0, 0, 0.5022295, 0.06852613, 0.06852613, 0.03, 0, 0.19, 0, 0, 0
ATT, 18560156, 0, 0.79, 0, 0.9, 0.09, 0.1, 0, 1
RATE, 18560163, -3.555673, -0.0123161, -0.0083988, -4.06431, 0.0285479, -0.009577741, 0.02907658, 0.002662541, 2.055855E-05, -21.30224, -1.777935, 0
NKF1, 18560171, 0.79, 0.9, 0.1, 0.002068279, -0.002993641, -0.0005259812, 0, 0, 0, -0.06852613, 0, 0, 0
NKF2, 18560171, 1, 0, 0, 0, 0, 0, 0, 0, 0, 0, 0, 0, 0
NKF3, 18560171, 0, 0, 0, 0, 0, 0, 0, 0, 0, 0, 0
NKF4, 18560171, 0, 0, 0, 0, 0, 4.751201E-06, 0, 0, 0, 19, 229, 0, 0
NKF5, 18560171, 0, 0, 0, 0, 0.2, 0.13, 0, 0.19, 0.5, 3.709776E-05, 0.0003357354, 0.000619769
NKQ1, 18560171, 0.9998879, 0.002338208, 0.01476555, 0.0008791359
AHR2, 18560215, 0.8, 0.9, 0.11, 0.03, 0, 0, 0.9999442, 0.006988036, 0.007869572, 0.0009095133
MOTB, 18560222, 1, 1, 0, 1
RCIN, 18560227, 0, 0, 0, 0, 0, 0, 0, 0, 0, 0, 0, 0, 0, 0
RCOU, 18560232, 1101, 1101, 1101, 1101, 0, 0, 0, 0, 0, 0, 0, 0, 0, 0
VIBE, 18560240, 0.02148617, 0.0211211, 0.03206088, 0, 0, 0
CTRL, 18560247, 0.008387033, 0.000149118, 0.009563764, 0.0001874751, 4.45954E-05
PRX, 18560366, 2, 0.59, 0, 0.56, 0, 3.6, 0, 2.55, 0, 0, 90, 0.56
IMU, 18560378, -0.0003064645, 0.0003998549, 4.420971E-05, 0.2947666, -0.05465794, -9.768145, 0, 0, 34.37177, 1, 1, 1000, 1000
IMU, 18600040, -0.0008715168, -0.0007048154, -0.0002926151, 0.2773058, -0.05904006, -9.793424, 0, 0, 34.3723, 1, 1, 1000, 1000
RFND, 18610536, 0.2, 25, 0, 0
IMU, 18640083, 0.0002980882, 0.0007501321, 0.0008900136, 0.2833437, -0.05676324, -9.788504, 0, 0, 34.3729, 1, 1, 1000, 1000
MAG, 18659974, 359, 528, 353, 0, 0, 0, 0, 0, 0, 1, 18659966
RFND, 18660011, 0.2, 25, 0, 0
BARO, 18660047, 0.06159088, 992.6135, 32.46, 0.4028863, 18660, 0, 32.15
CTUN, 18660061, 0, 0, 0, 0.5022295, 0.06858627, 0.06858627, 0.06, 0, 0.19, 0, 0, 0
ATT, 18660162, 0, 0.79, 0, 0.9, 0.09, 0.1, 0, 1
RATE, 18660169, -3.556751, 0.08512013, -0.008863504, -4.074087, 0.06843936, -0.009929564, 0.02622845, 0.04411687, 1.824755E-05, -29.98913, -0.9804726, 0
NKF1, 18660177, 0.79, 0.9, 0.1, 0.001471631, -0.003740047, -0.0007404723, 0, 0, 0, -0.06858627, 0, 0, 0
NKF2, 18660177, 1, 0, 0, 0, 0, 0, 0, 0, 0, 0, 0, 0, 0
NKF3, 18660177, 0, 0, 0, 0, 0, 0, 0, 0, 0, 0, 0
NKF4, 18660177, 0, 0, 0, 0, 0, 3.211812E-06, 0, 0, 0, 19, 229, 0, 0
NKF5, 18660177, 0, 0, 0, 0, 0.2, 0.13, 0, 0.19, 0.5, 3.633761E-05, 0.0003586865, 0.0006075381
NKQ1, 18660177, 0.9998875, 0.002338895, 0.01478573, 0.0008923917
AHR2, 18660222, 0.8, 0.9, 0.11, 0.06, 0, 0, 0.9999441, 0.006987927, 0.007882449, 0.0009227045
MOTB, 18660229, 1, 1, 0, 1
RCIN, 18660233, 0, 0, 0, 0, 0, 0, 0, 0, 0, 0, 0, 0, 0, 0
RCOU, 18660239, 1101, 1101, 1101, 1101, 0, 0, 0, 0, 0, 0, 0, 0, 0, 0
VIBE, 18660247, 0.02086072, 0.01923781, 0.03552122, 0, 0, 0
CTRL, 18660254, 0.008381476, 0.0001492049, 0.009586148, 0.0001808581, 5.738742E-05
PRX, 18660286, 2, 0.59, 0, 0.56, 0, 3.6, 0, 2.51, 0, 0, 90, 0.56
IMU, 18680102, 0.0003149195, -0.0004442884, 0.0005160651, 0.2898579, -0.05789668, -9.776119, 0, 0, 34.37312, 1, 1, 1000, 1000
RFND, 18710101, 0.2, 25, 0, 0
IMU, 18720569, 0.001258532, -0.0002234184, 0.0004698557, 0.2842454, -0.05919832, -9.78153, 0, 0, 34.37332, 1, 1, 1000, 1000
MAG, 18760003, 360, 525, 350, 0, 0, 0, 0, 0, 0, 1, 18759995
RFND, 18760039, 0.2, 25, 0, 0
BARO, 18760076, -0.00559917, 992.6206, 32.46, 0.3482718, 18760, 0, 32.15
CTUN, 18760090, 0, 0, 0, 0.5022295, 0.06860615, 0.06860615, 0, 0, 0.19, 0, 0, 0
DU32, 18760127, 7, 50389208
ATT, 18760266, 0, 0.79, 0, 0.9, 0.09, 0.1, 0, 1
RATE, 18760272, -3.572672, 0.1110771, -0.008880445, -4.068908, -0.008095846, -0.009399649, 0.02797206, 0.001852349, 3.740516E-05, -7.2022, -1.763725, 0
NKF1, 18760280, 0.79, 0.9, 0.1, 0.001683368, -0.004264493, -0.0001778321, 0, 0, 0, -0.06860615, 0, 0, 0
NKF2, 18760280, 1, 0, 0, 0, 0, 0, 0, 0, 0, 0, 0, 0, 0
NKF3, 18760280, 0, 0, 0, 0, 0, 0, 0, 0, 0, 0, 0
NKF4, 18760280, 0, 0, 0, 0, 0, 2.172909E-06, 0, 0, 0, 19, 229, 0, 0
NKF5, 18760280, 0, 0, 0, 0, 0.2, 0.13, 0, 0.19, 0.5, 3.643247E-05, 0.0003972787, 0.0006841258
NKQ1, 18760280, 0.9998877, 0.002370469, 0.01477412, 0.0009045341
AHR2, 18760399, 0.8, 0.9, 0.11, 0, 0, 0, 0.999944, 0.007022454, 0.007864273, 0.0009347423
MOTB, 18760407, 1, 1, 0, 1
RCIN, 18760412, 0, 0, 0, 0, 0, 0, 0, 0, 0, 0, 0, 0, 0, 0
RCOU, 18760417, 1101, 1101, 1101, 1101, 0, 0, 0, 0, 0, 0, 0, 0, 0, 0
VIBE, 18760425, 0.01853837, 0.02047038, 0.03139881, 0, 0, 0
CTRL, 18760432, 0.008414632, 0.0001722199, 0.009589258, 0.0001788931, 4.787674E-05
PRX, 18760464, 2, 0.59, 0, 0.56, 0, 3.6, 0, 2.52, 0, 0, 90, 0.56
IMU, 18760471, 0.001847007, -0.0002398619, 3.006555E-05, 0.3044711, -0.04678988, -9.768019, 0, 0, 34.37306, 1, 1, 1000, 1000
IMU, 18800698, -0.001412942, -0.001257381, 0.0005142444, 0.2821674, -0.05244833, -9.787386, 0, 0, 34.37345, 1, 1, 1000, 1000
RFND, 18810537, 0.2, 25, 0, 0
IMU, 18840702, 0.0006863867, 0.0009311003, 0.0003653145, 0.289775, -0.05998043, -9.775685, 0, 0, 34.37398, 1, 1, 1000, 1000
MAG, 18861652, 361, 523, 350, 0, 0, 0, 0, 0, 0, 1, 18861643
RFND, 18861682, 0.2, 25, 0, 0
BARO, 18861721, -0.07838839, 992.6291, 32.46, 0.114457, 18861, 0, 32.15
CTUN, 18861734, 0, 0, 0, 0.5022295, 0.06858405, 0.06858405, -0.07, 0, 0.19, 0, 0, 0
ATT, 18861836, 0, 0.79, 0, 0.9, 0.09, 0.1, 0, 1
RATE, 18861842, -3.570539, 0.001815736, -0.008473177, -4.062007, -0.02127884, -0.009219209, 0.02818216, 0.07088603, 2.354189E-05, 1.000192, 1.080513, 0
NKF1, 18861851, 0.79, 0.9, 0.1, 0.001478644, -0.00517245, 2.46961E-05, 0, 0, 0, -0.06858405, 0, 0, 0
NKF2, 18861851, 1, 0, 0, 0, 0, 0, 0, 0, 0, 0, 0, 0, 0
NKF3, 18861851, 0, 0, 0, 0, 0, 0, 0, 0, 0, 0, 0
NKF4, 18861851, 0, 0, 0, 0, 0, 1.485182E-06, 0, 0, 0, 19, 229, 0, 0
NKF5, 18861851, 0, 0, 0, 0, 0.2, 0.13, 0, 0.19, 0.5, 3.671841E-05, 0.0003983626, 0.0006623175
NKQ1, 18861851, 0.9998878, 0.002363897, 0.01476246, 0.0009176764
AHR2, 18861895, 0.8, 0.89, 0.11, -0.07, 0, 0, 0.9999442, 0.007018864, 0.007846659, 0.0009480415
MOTB, 18861903, 1, 1, 0, 1
RCIN, 18861907, 0, 0, 0, 0, 0, 0, 0, 0, 0, 0, 0, 0, 0, 0
RCOU, 18861912, 1101, 1101, 1101, 1101, 0, 0, 0, 0, 0, 0, 0, 0, 0, 0
VIBE, 18861920, 0.01890386, 0.0188968, 0.03318284, 0, 0, 0
CTRL, 18861927, 0.008416435, 0.0001859837, 0.009574166, 0.0001852583, 5.16997E-05
PRX, 18861959, 2, 0.59, 0, 0.56, 0, 3.6, 0, 2.52, 0, 0, 90, 0.56
IMU, 18880607, 0.0009709161, -0.000551248, 0.0002097414, 0.2846108, -0.03311449, -9.790076, 0, 0, 34.37335, 1, 1, 1000, 1000
RFND, 18911170, 0.2, 25, 0, 0
IMU, 18920892, 0.0007278008, -7.464863E-05, 0.0004590127, 0.2884572, -0.04787407, -9.780824, 0, 0, 34.37241, 1, 1, 1000, 1000
MAG, 18960711, 362, 531, 353, 0, 0, 0, 0, 0, 0, 1, 18960703
RFND, 18960744, 0.2, 25, 0, 0
BARO, 18960783, -0.0951859, 992.6307, 32.46, -0.200581, 18960, 0, 32.15
CTUN, 18960796, 0, 0, 0, 0.5022295, 0.06853522, 0.06853522, -0.09, 0, 0.19, 0, 0, 0
ATT, 18960897, 0, 0.79, 0, 0.9, 0.09, 0.11, 0, 1
RATE, 18960903, -3.580555, 0.05862344, -0.008935962, -4.059046, -0.05233654, -0.009421723, 0.02888922, -0.03952342, -1.803453E-06, 1.017361, 0.6934166, 0
NKF1, 18960911, 0.79, 0.9, 0.11, 0.00135968, -0.005525355, 2.512002E-05, 0, 0, 0, -0.06853522, 0, 0, 0
NKF2, 18960911, 1, 0, 0, 0, 0, 0, 0, 0, 0, 0, 0, 0, 0
NKF3, 18960911, 0, 0, 0, 0, 0, 0, 0, 0, 0, 0, 0
NKF4, 18960911, 0, 0, 0, 0, 0, 1.038988E-06, 0, 0, 0, 19, 229, 0, 0
NKF5, 18960911, 0, 0, 0, 0, 0.2, 0.13, 0, 0.19, 0.5, 3.680327E-05, 0.000416019, 0.0007105223
NKQ1, 18960911, 0.9998879, 0.002386727, 0.01475406, 0.0009308378
AHR2, 18960955, 0.8, 0.89, 0.11, -0.09, 0, 0, 0.999944, 0.007044824, 0.007834595, 0.0009611319
MOTB, 18960962, 1, 1, 0, 1
RCIN, 18960967, 0, 0, 0, 0, 0, 0, 0, 0, 0, 0, 0, 0, 0, 0
RCOU, 18960973, 1101, 1101, 1101, 1101, 0, 0, 0, 0, 0, 0, 0, 0, 0, 0
VIBE, 18960981, 0.02250532, 0.02097586, 0.03158706, 0, 0, 0
CTRL, 18960988, 0.008432504, 0.0001875991, 0.009562206, 0.0001801129, 4.437406E-05
PRX, 18961019, 2, 0.59, 0, 0.56, 0, 3.6, 0, 2.52, 0, 0, 90, 0.56
IMU, 18961027, 0.0009315731, -0.001011956, -0.0006920766, 0.2922557, -0.0624874, -9.792903, 0, 0, 34.37138, 1, 1, 1000, 1000
IMU, 19000657, -0.001612889, 0.0005340205, 0.001274563, 0.2944237, -0.05272377, -9.771353, 0, 0, 34.37066, 1, 1, 1000, 1000
RFND, 19010721, 0.2, 25, 0, 0
IMU, 19041510, -0.0001524267, -0.0005229646, 0.00104631, 0.2851362, -0.05358382, -9.771676, 0, 0, 34.36997, 1, 1, 1000, 1000
MAG, 19060761, 359, 529, 356, 0, 0, 0, 0, 0, 0, 1, 19060752
RFND, 19060793, 0.2, 25, 0, 0
BARO, 19060833, -0.1231818, 992.634, 32.46, -0.4228225, 19060, 0, 32.15
CTUN, 19060846, 0, 0, 0, 0.5022295, 0.06846063, 0.06846063, -0.12, 0, 0.19, 0, 0, 0
ATT, 19060953, 0, 0.79, 0, 0.9, 0.1, 0.11, 0, 1
RATE, 19060960, -3.565465, -0.02638445, -0.008285273, -4.053766, -0.01149518, -0.009730963, 0.02805736, 0.02863259, -2.283376E-05, 28.70624, -1.034927, 0
NKF1, 19060968, 0.79, 0.9, 0.11, 0.001398589, -0.006234076, 0.000708796, 0, 0, 0, -0.06846063, 0, 0, 0
NKF2, 19060968, 1, 0, 0, 0, 0, 0, 0, 0, 0, 0, 0, 0, 0
NKF3, 19060968, 0, 0, 0, 0, 0, 0, 0, 0, 0, 0, 0
NKF4, 19060968, 0, 0, 0, 0, 0, 7.485476E-07, 0, 0, 0, 19, 229, 0, 0
NKF5, 19060968, 0, 0, 0, 0, 0.2, 0.13, 0, 0.19, 0.5, 3.684838E-05, 0.0004032959, 0.0006758837
NKQ1, 19060968, 0.9998881, 0.002354505, 0.01474524, 0.0009633046
AHR2, 19061647, 0.8, 0.89, 0.12, -0.12, 0, 0, 0.9999443, 0.007015426, 0.007822189, 0.0009939027
MOTB, 19061657, 1, 1, 0, 1
RCIN, 19061662, 0, 0, 0, 0, 0, 0, 0, 0, 0, 0, 0, 0, 0, 0
RCOU, 19061668, 1101, 1101, 1101, 1101, 0, 0, 0, 0, 0, 0, 0, 0, 0, 0
VIBE, 19061676, 0.02041134, 0.01929139, 0.03141999, 0, 0, 0
CTRL, 19061683, 0.008414485, 0.0001971463, 0.009549172, 0.0001682086, 3.911278E-05
PRX, 19061716, 2, 0.58, 0, 0.56, 0, 3.6, 0, 2.55, 0, 0, 90, 0.56
IMU, 19080668, -0.001432215, -0.0002839827, 0.0002168145, 0.2939186, -0.04699926, -9.791971, 0, 0, 34.36951, 1, 1, 1000, 1000
RFND, 19110758, 0.2, 25, 0, 0
IMU, 19120580, -0.0001475637, 0.0003075601, -0.0007777032, 0.2922341, -0.04579747, -9.795693, 0, 0, 34.36874, 1, 1, 1000, 1000
MAG, 19160535, 363, 531, 351, 0, 0, 0, 0, 0, 0, 1, 19160527
RFND, 19160567, 0.2, 25, 0, 0
BARO, 19160605, 0.01399793, 992.6189, 32.46, -0.377059, 19160, 0, 32.15
CTUN, 19160617, 0, 0, 0, 0.5022295, 0.0683949, 0.0683949, 0.01, 0, 0.19, 0, 0, 0
ATT, 19160721, 0, 0.78, 0, 0.9, 0.1, 0.11, 0, 1
RATE, 19160727, -3.551451, -0.06388068, -0.008193661, -4.061172, 0.01535752, -0.009654608, 0.02799207, 0.09599504, -3.221046E-05, 2.432922, 0.5571365, 0
NKF1, 19160734, 0.78, 0.9, 0.11, 0.001239381, -0.006292896, 6.007214E-05, 0, 0, 0, -0.0683949, 0, 0, 0
NKF2, 19160734, 1, 0, 0, 0, 0, 0, 0, 0, 0, 0, 0, 0, 0
NKF3, 19160734, 0, 0, 0, 0, 0, 0, 0, 0, 0, 0, 0
NKF4, 19160734, 0, 0, 0, 0, 0, 5.576547E-07, 0, 0, 0, 19, 229, 0, 0
NKF5, 19160734, 0, 0, 0, 0, 0.2, 0.13, 0, 0.19, 0.5, 3.687575E-05, 0.000409117, 0.0007043452
NKQ1, 19160734, 0.9998878, 0.002324638, 0.01476139, 0.001000943
AHR2, 19160779, 0.8, 0.89, 0.12, 0.01, 0, 0, 0.9999444, 0.00698687, 0.007835127, 0.001031656
MOTB, 19160785, 1, 1, 0, 1
RCIN, 19160790, 0, 0, 0, 0, 0, 0, 0, 0, 0, 0, 0, 0, 0, 0
RCOU, 19160795, 1101, 1101, 1101, 1101, 0, 0, 0, 0, 0, 0, 0, 0, 0, 0
VIBE, 19160803, 0.02069831, 0.02052073, 0.03057092, 0, 0, 0
CTRL, 19160810, 0.008381122, 0.0001953762, 0.009569103, 0.0001573805, 3.416956E-05
PRX, 19160841, 2, 0.59, 0, 0.56, 0, 3.6, 0, 2.53, 0, 0, 90, 0.56
IMU, 19160849, -0.001206807, 0.0001692212, 0.00167316, 0.2792275, -0.05026855, -9.791944, 0, 0, 34.36818, 1, 1, 1000, 1000
IMU, 19200608, -0.0005742921, -0.0008211329, 0.0003059227, 0.284345, -0.05131728, -9.763455, 0, 0, 34.36822, 1, 1, 1000, 1000
RFND, 19210527, 0.2, 25, 0, 0
IMU, 19240721, 0.0005874333, -0.0002241127, -0.001046916, 0.2915457, -0.05677881, -9.781709, 0, 0, 34.36866, 1, 1, 1000, 1000
MAG, 19261035, 359, 528, 352, 0, 0, 0, 0, 0, 0, 1, 19261026
RFND, 19261067, 0.2, 25, 0, 0
BARO, 19261106, 0.04759295, 992.6152, 32.46, -0.05021205, 19261, 0, 32.15
CTUN, 19261119, 0, 0, 0, 0.5022295, 0.06828322, 0.06828322, 0.04, 0, 0.19, 0, 0, 0
ATT, 19261219, 0, 0.78, 0, 0.89, 0.1, 0.11, 0, 1
RATE, 19261225, -3.546959, -0.01115158, -0.008264369, -4.050441, -0.0518168, -0.009339903, 0.02732477, -0.007400373, 0.0001026731, 55.44533, -1.966763, 0
NKF1, 19261233, 0.78, 0.89, 0.11, 0.001616708, -0.007078852, 0.00136902, 0, 0, 0, -0.06828322, 0, 0, 0
NKF2, 19261233, 1, 0, 0, 0, 0, 0, 0, 0, 0, 0, 0, 0, 0
NKF3, 19261233, 0, 0, 0, 0, 0, 0, 0, 0, 0, 0, 0
NKF4, 19261233, 0, 0, 0, 0, 0, 4.502936E-07, 0, 0, 0, 19, 229, 0, 0
NKF5, 19261233, 0, 0, 0, 0, 0.2, 0.13, 0, 0.19, 0.5, 3.66353E-05, 0.0003909977, 0.0006641515
NKQ1, 19261233, 0.9998882, 0.002319641, 0.01473831, 0.000994487
AHR2, 19261277, 0.8, 0.89, 0.12, 0.04, 0, 0, 0.9999446, 0.006982686, 0.007808593, 0.001025368
MOTB, 19261284, 1, 1, 0, 1
RCIN, 19261289, 0, 0, 0, 0, 0, 0, 0, 0, 0, 0, 0, 0, 0, 0
RCOU, 19261294, 1101, 1101, 1101, 1101, 0, 0, 0, 0, 0, 0, 0, 0, 0, 0
VIBE, 19261302, 0.02274, 0.01857722, 0.02984377, 0, 0, 0
CTRL, 19261309, 0.008371116, 0.0001896106, 0.009548192, 0.0001738835, 4.01248E-05
PRX, 19261421, 2, 0.59, 0, 0.56, 0, 3.6, 0, 2.53, 0, 0, 90, 0.56
IMU, 19280588, -0.0007294895, 0.0009455603, 0.001554446, 0.2929471, -0.04758955, -9.787912, 0, 0, 34.36925, 1, 1, 1000, 1000
RFND, 19310495, 0.2, 25, 0, 0
IMU, 19320694, 0.0002588283, 6.904778E-05, 0.001508987, 0.2867895, -0.04258754, -9.772221, 0, 0, 34.36929, 1, 1, 1000, 1000
MAG, 19360547, 364, 525, 353, 0, 0, 0, 0, 0, 0, 1, 19360538
RFND, 19360579, 0.2, 25, 0, 0
BARO, 19360616, 0.02799585, 992.6172, 32.46, 0.3385749, 19360, 0, 32.15
CTUN, 19360629, 0, 0, 0, 0.5022295, 0.0681239, 0.0681239, 0.02, 0, 0.19, 0, 0, 0
ATT, 19360789, 0, 0.79, 0, 0.9, 0.1, 0.12, 0, 1
RATE, 19360795, -3.555685, 0.07370311, -0.008554584, -4.074043, 0.0588357, -0.009687013, 0.02744242, -0.03589042, 5.326803E-05, 46.86035, 0.7201195, 0
NKF1, 19360803, 0.79, 0.9, 0.12, 0.001175305, -0.007125936, 0.001157046, 0, 0, 0, -0.0681239, 0, 0, 0
NKF2, 19360803, 1, 0, 0, 0, 0, 0, 0, 0, 0, 0, 0, 0, 0
NKF3, 19360803, 0, 0, 0, 0, 0, 0, 0, 0, 0, 0, 0
NKF4, 19360803, 0, 0, 0, 0, 0, 3.824526E-07, 0, 0, 0, 19, 229, 0, 0
NKF5, 19360803, 0, 0, 0, 0, 0.2, 0.13, 0, 0.19, 0.5, 3.654903E-05, 0.0003894244, 0.0006783309
NKQ1, 19360803, 0.9998875, 0.002337267, 0.0147836, 0.001016765
AHR2, 19360848, 0.8, 0.89, 0.12, 0.02, 0, 0, 0.9999442, 0.006999883, 0.007849921, 0.001047347
MOTB, 19360855, 1, 1, 0, 1
RCIN, 19360860, 0, 0, 0, 0, 0, 0, 0, 0, 0, 0, 0, 0, 0, 0
RCOU, 19360866, 1101, 1101, 1101, 1101, 0, 0, 0, 0, 0, 0, 0, 0, 0, 0
VIBE, 19360874, 0.02004182, 0.01918476, 0.03681207, 0, 0, 0
CTRL, 19360880, 0.008387311, 0.0001937716, 0.009593674, 0.000166977, 4.06926E-05
PRX, 19360911, 2, 0.59, 0, 0.56, 0, 3.6, 0, 2.54, 0, 0, 90, 0.56
IMU, 19360919, 0.001194591, 0.0009281712, -0.0006286731, 0.2790796, -0.04499415, -9.793631, 0, 0, 34.36887, 1, 1, 1000, 1000
IMU, 19400569, 0.001694639, -0.0005624789, -0.0001292267, 0.3007633, -0.05164674, -9.783222, 0, 0, 34.36882, 1, 1, 1000, 1000
RFND, 19410516, 0.2, 25, 0, 0
IMU, 19441414, -0.0002387447, 0.001718213, 0.001081853, 0.2801291, -0.03868668, -9.772306, 0, 0, 34.3689, 1, 1, 1000, 1000
MAG, 19460546, 365, 533, 353, 0, 0, 0, 0, 0, 0, 1, 19460537
RFND, 19460577, 0.2, 25, 0, 0
BARO, 19460615, -0.05039253, 992.6257, 32.46, 0.4282484, 19460, 0, 32.15
CTUN, 19460629, 0, 0, 0, 0.5022295, 0.06792063, 0.06792063, -0.05, 0, 0.19, 0, 0, 0
ATT, 19460733, 0, 0.79, 0, 0.9, 0.1, 0.12, 0, 1
RATE, 19460739, -3.570424, 0.07063058, -0.008830876, -4.091284, 0.08366497, -0.00977366, 0.02975622, -0.01941388, 4.908839E-05, 63.36152, 1.23682, 0
NKF1, 19460747, 0.79, 0.9, 0.12, 0.0008269002, -0.007029416, 0.001564482, 0, 0, 0, -0.06792063, 0, 0, 0
NKF2, 19460747, 1, 0, 0, 0, 0, 0, 0, 0, 0, 0, 0, 0, 0
NKF3, 19460747, 0, 0, 0, 0, 0, 0, 0, 0, 0, 0, 0
NKF4, 19460747, 0, 0, 0, 0, 0, 3.6716E-07, 0, 0, 0, 19, 229, 0, 0
NKF5, 19460747, 0, 0, 0, 0, 0.2, 0.13, 0, 0.19, 0.5, 3.622907E-05, 0.0003699173, 0.0006394184
NKQ1, 19460747, 0.999887, 0.002365213, 0.01481731, 0.001014113
AHR2, 19460792, 0.8, 0.9, 0.12, -0.05, 0, 0, 0.9999437, 0.007027047, 0.00787935, 0.001044387
MOTB, 19460799, 1, 1, 0, 1
RCIN, 19460804, 0, 0, 0, 0, 0, 0, 0, 0, 0, 0, 0, 0, 0, 0
RCOU, 19460810, 1101, 1101, 1101, 1101, 0, 0, 0, 0, 0, 0, 0, 0, 0, 0
VIBE, 19460818, 0.0221177, 0.02264214, 0.03434613, 0, 0, 0
CTRL, 19460825, 0.008413671, 0.0002120603, 0.009626606, 0.0001730349, 5.225169E-05
PRX, 19460857, 2, 0.59, 0, 0.56, 0, 3.6, 0, 2.51, 0, 0, 90, 0.56
IMU, 19480612, 0.001198351, -0.0007446429, -0.0003723069, 0.2779263, -0.05215521, -9.815007, 0, 0, 34.36879, 1, 1, 1000, 1000
RFND, 19510491, 0.2, 25, 0, 0
IMU, 19520769, -0.001571544, -0.001411332, 0.001132541, 0.3026201, -0.04688278, -9.787575, 0, 0, 34.36885, 1, 1, 1000, 1000
MAG, 19560550, 360, 525, 358, 0, 0, 0, 0, 0, 0, 1, 19560542
RFND, 19560581, 0.2, 25, 0, 0
BARO, 19560620, -0.06719004, 992.6278, 32.47, 0.121607, 19560, 0, 32.15
CTUN, 19560633, 0, 0, 0, 0.5022295, 0.06777278, 0.06777278, -0.06, 0, 0.19, 0, 0, 0
ATT, 19560870, 0, 0.79, 0, 0.9, 0.11, 0.12, 0, 1
RATE, 19560877, -3.569255, -0.01838834, -0.008230568, -4.076773, 0.01903879, -0.009755896, 0.02801067, -0.03319491, 1.521293E-05, 54.01062, -0.8978844, 0
NKF1, 19560884, 0.79, 0.9, 0.12, 0.0009552752, -0.007043541, 0.001333596, 0, 0, 0, -0.06777278, 0, 0, 0
NKF2, 19560884, 1, 0, 0, 0, 0, 0, 0, 0, 0, 0, 0, 0, 0
NKF3, 19560884, 0, 0, 0, 0, 0, 0, 0, 0, 0, 0, 0
NKF4, 19560884, 0, 0, 0, 0, 0, 3.695236E-07, 0, 0, 0, 19, 229, 0, 0
NKF5, 19560884, 0, 0, 0, 0, 0.2, 0.13, 0, 0.19, 0.5, 3.585397E-05, 0.0003501581, 0.0006041634
NKQ1, 19560884, 0.9998874, 0.002363024, 0.01478872, 0.001031274
AHR2, 19560926, 0.8, 0.89, 0.12, -0.06, 0, 0, 0.999944, 0.007023234, 0.00784546, 0.001061721
MOTB, 19560934, 1, 1, 0, 1
RCIN, 19560938, 0, 0, 0, 0, 0, 0, 0, 0, 0, 0, 0, 0, 0, 0
RCOU, 19560943, 1101, 1101, 1101, 1101, 0, 0, 0, 0, 0, 0, 0, 0, 0, 0
VIBE, 19560951, 0.0222689, 0.01996649, 0.03155188, 0, 0, 0
CTRL, 19560958, 0.008420877, 0.0002103909, 0.009603886, 0.0001953055, 5.307551E-05
PRX, 19560989, 2, 0.59, 0, 0.56, 0, 3.6, 0, 2.51, 0, 0, 90, 0.56
IMU, 19560997, -0.000412818, 0.0002334772, -0.0005816301, 0.2982702, -0.04559227, -9.776873, 0, 0, 34.36886, 1, 1, 1000, 1000
IMU, 19600508, 0.001322722, -0.0001071071, -0.0008180924, 0.2940103, -0.0434113, -9.794729, 0, 0, 34.36885, 1, 1, 1000, 1000
RFND, 19610430, 0.2, 25, 0, 0
IMU, 19640958, -0.0001686729, 0.0002443517, -0.0009467342, 0.3020608, -0.05068938, -9.791812, 0, 0, 34.36887, 1, 1, 1000, 1000
MAG, 19660769, 360, 528, 351, 0, 0, 0, 0, 0, 0, 1, 19660760
RFND, 19660800, 0.2, 25, 0, 0
BARO, 19660839, -0.05039253, 992.6261, 32.47, -0.23261, 19660, 0, 32.15
CTUN, 19660850, 0, 0, 0, 0.5022295, 0.06763116, 0.06763116, -0.05, 0, 0.19, 0, 0, 0
ATT, 19660947, 0, 0.79, 0, 0.9, 0.11, 0.12, 0, 1
RATE, 19660953, -3.589139, 0.00462333, -0.008555148, -4.08168, 0.01786237, -0.009642695, 0.02883645, -0.03406619, 0.0001085795, 40.46788, 0.5009651, 0
NKF1, 19660962, 0.79, 0.9, 0.12, 0.001371965, -0.007512234, 0.0009992069, 0, 0, 0, -0.06763116, 0, 0, 0
NKF2, 19660962, 1, 0, 0, 0, 0, 0, 0, 0, 0, 0, 0, 0, 0
NKF3, 19660962, 0, 0, 0, 0, 0, 0, 0, 0, 0, 0, 0
NKF4, 19660962, 0, 0, 0, 0, 0, 3.967778E-07, 0, 0, 0, 19, 229, 0, 0
NKF5, 19660962, 0, 0, 0, 0, 0.2, 0.13, 0, 0.19, 0.5, 3.586018E-05, 0.0003471242, 0.000609805
NKQ1, 19660962, 0.9998872, 0.002401289, 0.01479778, 0.001026064
AHR2, 19661006, 0.81, 0.89, 0.12, -0.05, 0, 0, 0.9999437, 0.007059636, 0.007849484, 0.001056238
MOTB, 19661013, 1, 1, 0, 1
RCIN, 19661017, 0, 0, 0, 0, 0, 0, 0, 0, 0, 0, 0, 0, 0, 0
RCOU, 19661023, 1101, 1101, 1101, 1101, 0, 0, 0, 0, 0, 0, 0, 0, 0, 0
VIBE, 19661031, 0.01786907, 0.01944437, 0.03007236, 0, 0, 0
CTRL, 19661037, 0.008461063, 0.0001970538, 0.009615626, 0.0001674225, 5.979392E-05
PRX, 19661069, 2, 0.59, 0, 0.56, 0, 3.6, 0, 2.52, 0, 0, 90, 0.56
IMU, 19680594, 0.0003737298, 0.0004885345, -0.0007661885, 0.280457, -0.04090202, -9.776321, 0, 0, 34.36885, 1, 1, 1000, 1000
RFND, 19710890, 0.2, 25, 0, 0
IMU, 19720633, -0.0005360065, -0.0006960184, 0.0008303747, 0.2972665, -0.04539461, -9.794804, 0, 0, 34.36885, 1, 1, 1000, 1000
MAG, 19760541, 362, 525, 354, 0, 0, 0, 0, 0, 0, 1, 19760533
RFND, 19760572, 0.2, 25, 0, 0
BARO, 19760611, 0.02799585, 992.6172, 32.46, -0.2671424, 19760, 0, 32.15
CTUN, 19760623, 0, 0, 0, 0.5022295, 0.06753951, 0.06753951, 0.02, 0, 0.19, 0, 0, 0
DU32, 19760664, 7, 50389208
ATT, 19760801, 0, 0.79, 0, 0.9, 0.11, 0.12, 0, 1
RATE, 19760806, -3.591944, 0.04361674, -0.008587893, -4.086009, -0.001425959, -0.009666814, 0.02862613, -0.03379424, 9.86724E-05, 26.71882, -0.5184174, 0
NKF1, 19760814, 0.79, 0.9, 0.12, 0.001186108, -0.007264379, 0.000659724, 0, 0, 0, -0.06753951, 0, 0, 0
NKF2, 19760814, 1, 0, 0, 0, 0, 0, 0, 0, 0, 0, 0, 0, 0
NKF3, 19760814, 0, 0, 0, 0, 0, 0, 0, 0, 0, 0, 0
NKF4, 19760814, 0, 0, 0, 0, 0, 4.410177E-07, 0, 0, 0, 19, 229, 0, 0
NKF5, 19760814, 0, 0, 0, 0, 0.19, 0.13, 0, 0.19, 0.5, 3.53439E-05, 0.0003325808, 0.000588187
NKQ1, 19760814, 0.999887, 0.002406877, 0.0148063, 0.001022668
AHR2, 19760858, 0.81, 0.89, 0.12, 0.02, 0, 0, 0.9999437, 0.007063348, 0.007856007, 0.001052772
MOTB, 19760866, 1, 1, 0, 1
RCIN, 19760870, 0, 0, 0, 0, 0, 0, 0, 0, 0, 0, 0, 0, 0, 0
RCOU, 19760876, 1101, 1101, 1101, 1101, 0, 0, 0, 0, 0, 0, 0, 0, 0, 0
VIBE, 19760884, 0.01991918, 0.02135711, 0.03163889, 0, 0, 0
CTRL, 19760891, 0.008468499, 0.0001819161, 0.009619054, 0.0001622106, 7.82466E-05
PRX, 19760923, 2, 0.59, 0, 0.56, 0, 3.6, 0, 2.54, 0, 0, 90, 0.56
IMU, 19760930, 0.000669279, -0.0001237837, -0.0005920926, 0.2904288, -0.05515935, -9.780848, 0, 0, 34.36887, 1, 1, 1000, 1000
IMU, 19800550, -0.0001785693, 0.0006258574, -0.001238577, 0.288018, -0.04710073, -9.78116, 0, 0, 34.36887, 1, 1, 1000, 1000
RFND, 19810517, 0.2, 25, 0, 0
IMU, 19840694, 7.630458E-05, 0.0005713949, 0.0006992599, 0.2898785, -0.05146705, -9.770489, 0, 0, 34.36887, 1, 1, 1000, 1000
MAG, 19860375, 361, 528, 350, 0, 0, 0, 0, 0, 0, 1, 19860368
RFND, 19860404, 0.2, 25, 0, 0
BARO, 19860441, -0.00559917, 992.6209, 32.47, -0.01665029, 19860, 0, 32.15
CTUN, 19860454, 0, 0, 0, 0.5022295, 0.06740258, 0.06740258, 0, 0, 0.19, 0, 0, 0
ATT, 19860546, 0, 0.79, 0, 0.91, 0.11, 0.12, 0, 1
RATE, 19860553, -3.591547, 0.04495458, -0.008717123, -4.100886, 0.04888779, -0.009791758, 0.02875949, 0.0005471094, 7.275097E-05, 57.58611, 2.232075, 0
NKF1, 19860560, 0.79, 0.91, 0.12, 0.001539197, -0.007507447, 0.001421879, 0, 0, 0, -0.06740258, 0, 0, 0
NKF2, 19860560, 1, 0, 0, 0, 0, 0, 0, 0, 0, 0, 0, 0, 0
NKF3, 19860560, 0, 0, 0, 0, 0, 0, 0, 0, 0, 0, 0
NKF4, 19860560, 0, 0, 0, 0, 0, 4.954044E-07, 0, 0, 0, 19, 229, 0, 0
NKF5, 19860560, 0, 0, 0, 0, 0.19, 0.13, 0, 0.19, 0.5, 3.55186E-05, 0.0003264049, 0.0005849286
NKQ1, 19860560, 0.9998865, 0.002405061, 0.01483611, 0.001022628
AHR2, 19860605, 0.81, 0.9, 0.12, 0, 0, 0, 0.9999434, 0.007059578, 0.007883921, 0.001052613
MOTB, 19860612, 1, 1, 0, 1
RCIN, 19860616, 0, 0, 0, 0, 0, 0, 0, 0, 0, 0, 0, 0, 0, 0
RCOU, 19860622, 1101, 1101, 1101, 1101, 0, 0, 0, 0, 0, 0, 0, 0, 0, 0
VIBE, 19860630, 0.02224652, 0.0200264, 0.03443103, 0, 0, 0
CTRL, 19860637, 0.008462342, 0.0001630665, 0.009656601, 0.000148454, 9.157252E-05
PRX, 19860669, 2, 0.59, 0, 0.56, 0, 3.6, 0, 2.52, 0, 0, 90, 0.56
IMU, 19880710, 0.0002412309, 1.964971E-05, 0.001290125, 0.285006, -0.05795031, -9.795349, 0, 0, 34.36888, 1, 1, 1000, 1000
RFND, 19910564, 0.2, 25, 0, 0
IMU, 19920477, -0.0008336474, -0.001342787, 0.0004854185, 0.286545, -0.04956937, -9.795013, 0, 0, 34.36887, 1, 1, 1000, 1000
MAG, 19960694, 362, 533, 349, 0, 0, 0, 0, 0, 0, 1, 19960686
RFND, 19960724, 0.2, 25, 0, 0
BARO, 19960763, -0.1175826, 992.6331, 32.47, 0.1592264, 19960, 0, 32.15
CTUN, 19960776, 0, 0, 0, 0.5022295, 0.06727645, 0.06727645, -0.11, 0, 0.19, 0, 0, 0
ATT, 19960963, 0, 0.79, 0, 0.9, 0.11, 0.12, 0, 1
RATE, 19960969, -3.580305, -0.01352357, -0.008452495, -4.09718, -0.003833685, -0.009557489, 0.02900648, -0.06297272, 3.770418E-05, 53.67434, -0.005054474, 0
NKF1, 19960977, 0.79, 0.9, 0.12, 0.001380885, -0.007763109, 0.001325292, 0, 0, 0, -0.06727645, 0, 0, 0
NKF2, 19960977, 1, 0, 0, 0, 0, 0, 0, 0, 0, 0, 0, 0, 0
NKF3, 19960977, 0, 0, 0, 0, 0, 0, 0, 0, 0, 0, 0
NKF4, 19960977, 0, 0, 0, 0, 0, 5.762958E-07, 0, 0, 0, 19, 229, 0, 0
NKF5, 19960977, 0, 0, 0, 0, 0.19, 0.13, 0, 0.19, 0.5, 3.499765E-05, 0.0003149467, 0.0005715831
NKQ1, 19960977, 0.9998868, 0.002385245, 0.01482758, 0.001041124
AHR2, 19961020, 0.8, 0.9, 0.12, -0.11, 0, 0, 0.9999437, 0.007037323, 0.00787435, 0.001071272
MOTB, 19961027, 1, 1, 0, 1
RCIN, 19961032, 0, 0, 0, 0, 0, 0, 0, 0, 0, 0, 0, 0, 0, 0
RCOU, 19961037, 1101, 1101, 1101, 1101, 0, 0, 0, 0, 0, 0, 0, 0, 0, 0
VIBE, 19961045, 0.01988231, 0.02032811, 0.03186247, 0, 0, 0
CTRL, 19961052, 0.008451954, 0.0001636344, 0.00965176, 0.0001541254, 7.749381E-05
PRX, 19961084, 2, 0.59, 0, 0.56, 0, 3.6, 0, 2.51, 0, 0, 90, 0.56
IMU, 19961091, -0.0003281202, -0.0001658952, -0.001101356, 0.3027034, -0.05412726, -9.785617, 0, 0, 34.36888, 1, 1, 1000, 1000
IMU, 20000913, 0.0002038745, 5.155557E-05, -5.817424E-05, 0.2870508, -0.05853155, -9.779052, 0, 0, 34.36881, 1, 1, 1000, 1000
RFND, 20010514, 0.2, 25, 0, 0
IMU, 20040619, -0.0003436585, 4.059601E-05, 6.15914E-05, 0.2858211, -0.04383355, -9.790475, 0, 0, 34.36889, 1, 1, 1000, 1000
MAG, 20060540, 363, 527, 355, 0, 0, 0, 0, 0, 0, 1, 20060531
RFND, 20060572, 0.2, 25, 0, 0
BARO, 20060611, -0.02239668, 992.623, 32.47, 0.01574767, 20060, 0, 32.15
CTUN, 20060624, 0, 0, 0, 0.5022295, 0.06714313, 0.06714313, -0.02, 0, 0.19, 0, 0, 0
ATT, 20060729, 0, 0.79, 0, 0.9, 0.11, 0.12, 0, 1
RATE, 20060735, -3.586923, -0.02241119, -0.008368661, -4.097198, 0.03592023, -0.009867062, 0.0300473, -0.05224458, 7.501843E-05, 84.91486, -2.248859, 0
NKF1, 20060743, 0.79, 0.9, 0.12, 0.00091666, -0.008341283, 0.002096663, 0, 0, 0, -0.06714313, 0, 0, 0
NKF2, 20060743, 1, 0, 0, 0, 0, 0, 0, 0, 0, 0, 0, 0, 0
NKF3, 20060743, 0, 0, 0, 0, 0, 0, 0, 0, 0, 0, 0
NKF4, 20060743, 0, 0, 0, 0, 0, 6.41412E-07, 0, 0, 0, 19, 229, 0, 0
NKF5, 20060743, 0, 0, 0, 0, 0.19, 0.13, 0, 0.19, 0.5, 3.525813E-05, 0.0003063653, 0.0005578884
NKQ1, 20060743, 0.9998866, 0.002397666, 0.01482789, 0.001045329
AHR2, 20060787, 0.8, 0.9, 0.12, -0.02, 0, 0, 0.9999436, 0.007047561, 0.007873094, 0.001075386
MOTB, 20060795, 1, 1, 0, 1
RCIN, 20060799, 0, 0, 0, 0, 0, 0, 0, 0, 0, 0, 0, 0, 0, 0
RCOU, 20060805, 1101, 1101, 1101, 1101, 0, 0, 0, 0, 0, 0, 0, 0, 0, 0
VIBE, 20060814, 0.02029538, 0.01917105, 0.03295851, 0, 0, 0
CTRL, 20060820, 0.00846504, 0.0001633417, 0.009647961, 0.0001431632, 7.012935E-05
PRX, 20060852, 2, 0.59, 0, 0.56, 0, 3.6, 0, 2.53, 0, 0, 90, 0.56
IMU, 20080657, 0.0004159918, -0.0002469684, 0.0008133213, 0.2962646, -0.04437698, -9.793588, 0, 0, 34.36884, 1, 1, 1000, 1000
RFND, 20110487, 0.2, 25, 0, 0
IMU, 20120608, -0.0005275521, 0.0003678687, 0.0003193296, 0.2833817, -0.05866086, -9.79281, 0, 0, 34.36887, 1, 1, 1000, 1000
MAG, 20160778, 359, 525, 356, 0, 0, 0, 0, 0, 0, 1, 20160770
RFND, 20160810, 0.2, 25, 0, 0
BARO, 20160848, 0.0195971, 992.618, 32.47, -0.1653505, 20160, 0, 32.15
CTUN, 20160861, 0, 0, 0, 0.5022295, 0.06700759, 0.06700759, 0.01, 0, 0.19, 0, 0, 0
ATT, 20161084, 0, 0.79, 0, 0.9, 0.11, 0.12, 0, 1
RATE, 20161090, -3.578777, -0.06077369, -0.008200517, -4.089799, 0.01238958, -0.009986507, 0.02812712, -0.002206642, 7.383602E-05, 59.76358, 0.292778, 0
NKF1, 20161099, 0.79, 0.9, 0.12, 0.0008975483, -0.008703786, 0.001475644, 0, 0, 0, -0.06700759, 0, 0, 0
NKF2, 20161099, 1, 0, 0, 0, 0, 0, 0, 0, 0, 0, 0, 0, 0
NKF3, 20161099, 0, 0, 0, 0, 0, 0, 0, 0, 0, 0, 0
NKF4, 20161099, 0, 0, 0, 0, 0, 7.533415E-07, 0, 0, 0, 19, 229, 0, 0
NKF5, 20161099, 0, 0, 0, 0, 0.19, 0.13, 0, 0.19, 0.5, 3.454031E-05, 0.0002969284, 0.0005487474
NKQ1, 20161099, 0.9998869, 0.0023801, 0.01481491, 0.001060544
AHR2, 20161142, 0.8, 0.89, 0.13, 0.01, 0, 0, 0.9999439, 0.007030873, 0.007854442, 0.001090824
MOTB, 20161149, 1, 1, 0, 1
RCIN, 20161154, 0, 0, 0, 0, 0, 0, 0, 0, 0, 0, 0, 0, 0, 0
RCOU, 20161159, 1101, 1101, 1101, 1101, 0, 0, 0, 0, 0, 0, 0, 0, 0, 0
VIBE, 20161167, 0.0196995, 0.02082324, 0.03593396, 0, 0, 0
CTRL, 20161174, 0.008450513, 0.0001479403, 0.009632627, 0.0001622766, 6.609153E-05
PRX, 20161205, 2, 0.59, 0, 0.56, 0, 3.6, 0, 2.52, 0, 0, 90, 0.56
IMU, 20161212, -0.001152738, 0.0001173584, -4.078557E-05, 0.2932174, -0.04978628, -9.788924, 0, 0, 34.36884, 1, 1, 1000, 1000
IMU, 20200560, -0.001268931, 0.001479432, -5.216409E-05, 0.2859571, -0.05308853, -9.785481, 0, 0, 34.36884, 1, 1, 1000, 1000
RFND, 20210507, 0.2, 25, 0, 0
IMU, 20240541, -0.0015171, 0.0006092291, 0.0008857261, 0.2910625, -0.05159738, -9.778712, 0, 0, 34.36886, 1, 1, 1000, 1000
MAG, 20260387, 366, 530, 348, 0, 0, 0, 0, 0, 0, 1, 20260380
RFND, 20260418, 0.2, 25, 0, 0
BARO, 20260456, -0.1623759, 992.6386, 32.47, -0.07173937, 20260, 0, 32.15
CTUN, 20260468, 0, 0, 0, 0.5022295, 0.06689218, 0.06689218, -0.16, 0, 0.19, 0, 0, 0
ATT, 20260559, 0, 0.79, 0, 0.91, 0.11, 0.12, 0, 1
RATE, 20260565, -3.558398, 0.005202182, -0.008680617, -4.111403, 0.06713513, -0.009754541, 0.02854748, 0.08800003, 1.717545E-05, 72.88348, -0.7271767, 0
NKF1, 20260573, 0.79, 0.91, 0.12, 0.0006671508, -0.009255675, 0.001799592, 0, 0, 0, -0.06689218, 0, 0, 0
NKF2, 20260573, 1, 0, 0, 0, 0, 0, 0, 0, 0, 0, 0, 0, 0
NKF3, 20260573, 0, 0, 0, 0, -0.01, 0, 0, 0, 0, 0, 0
NKF4, 20260573, 0, 0, 0, 0, 0, 8.474821E-07, 0, 0, 0, 19, 229, 0, 0
NKF5, 20260573, 0, 0, 0, 0, 0.19, 0.13, 0, 0.19, 0.5, 3.374337E-05, 0.0002961465, 0.0005634786
NKQ1, 20260573, 0.9998863, 0.002337078, 0.01485876, 0.001080086
AHR2, 20260616, 0.8, 0.9, 0.13, -0.16, 0, 0, 0.9999438, 0.006988856, 0.007892767, 0.001110509
MOTB, 20260624, 1, 1, 0, 1
RCIN, 20260628, 0, 0, 0, 0, 0, 0, 0, 0, 0, 0, 0, 0, 0, 0
RCOU, 20260634, 1101, 1101, 1101, 1101, 0, 0, 0, 0, 0, 0, 0, 0, 0, 0
VIBE, 20260642, 0.0201734, 0.02067366, 0.03463936, 0, 0, 0
CTRL, 20260649, 0.008391373, 0.0001573647, 0.009690559, 0.0001849717, 6.936443E-05
PRX, 20260680, 2, 0.59, 0, 0.56, 0, 3.6, 0, 2.52, 0, 0, 90, 0.56
EV, 20280153, 57
IMU, 20280573, 0.0005644492, -0.001078658, -0.0001178432, 0.2917612, -0.04381683, -9.784776, 0, 0, 34.36886, 1, 1, 1000, 1000
RFND, 20310627, 0.2, 25, 0, 0
IMU, 20320742, -0.001665986, -0.001292397, -0.0001554165, 0.2946203, -0.05806954, -9.784384, 0, 0, 34.36885, 1, 1, 1000, 1000
MAG, 20360514, 359, 527, 347, 0, 0, 0, 0, 0, 0, 1, 20360505
RFND, 20360545, 0.2, 25, 0, 0
BARO, 20360584, -0.1063842, 992.6319, 32.47, -0.0236215, 20360, 0, 32.15
CTUN, 20360596, 0, 0, 0, 0.5022295, 0.06675734, 0.06675734, -0.1, 0, 0.19, 0, 0, 0
ATT, 20360792, 0, 0.79, 0, 0.9, 0.11, 0.12, 0, 1
RATE, 20360798, -3.559264, 0.05257344, -0.008405789, -4.08647, -0.04358675, -0.009570924, 0.02819281, 0.004550374, 1.454143E-05, 84.35793, -0.6547928, 0
NKF1, 20360807, 0.79, 0.9, 0.12, 0.001048553, -0.009711707, 0.002082912, 0, 0, 0, -0.06675734, 0, 0, 0
NKF2, 20360807, 1, 0, 0, 0, 0, 0, 0, 0, 0, 0, 0, 0, 0
NKF3, 20360807, 0, 0, 0, 0, -0.01, 0, 0, 0, 0, 0, 0
NKF4, 20360807, 0, 0, 0, 0, 0, 9.775625E-07, 0, 0, 0, 19, 229, 0, 0
NKF5, 20360807, 0, 0, 0, 0, 0.19, 0.13, 0, 0.19, 0.5, 3.389466E-05, 0.0002803181, 0.0005288066
NKQ1, 20360807, 0.999887, 0.002341438, 0.01480858, 0.001096222
AHR2, 20360850, 0.8, 0.89, 0.13, -0.09999999, 0, 0, 0.9999442, 0.006994124, 0.007836918, 0.001126886
MOTB, 20360858, 1, 1, 0, 1
RCIN, 20360862, 0, 0, 0, 0, 0, 0, 0, 0, 0, 0, 0, 0, 0, 0
RCOU, 20360868, 1119, 1119, 1119, 1119, 0, 0, 0, 0, 0, 0, 0, 0, 0, 0
VIBE, 20360876, 0.01943889, 0.02123234, 0.02954283, 0, 0, 0
CTRL, 20360883, 0.008396338, 0.0002101717, 0.009634338, 0.0001854547, 5.766976E-05
PRX, 20360915, 2, 0.59, 0, 0.56, 0, 3.6, 0, 2.51, 0, 0, 90, 0.56
IMU, 20360923, 0.0008251915, -0.0008599244, 7.713849E-05, 0.2900871, -0.05399578, -9.779474, 0, 0, 34.36886, 1, 1, 1000, 1000
IMU, 20400609, 4.844556E-05, 0.0007096205, 0.0008125735, 0.2920004, -0.05710716, -9.788026, 0, 0, 34.36885, 1, 1, 1000, 1000
RFND, 20410829, 0.2, 25, 0, 0
IMU, 20440902, 0.0003351495, -0.0003878523, 0.00144225, 0.2857675, -0.05684149, -9.79644, 0, 0, 34.36887, 1, 1, 1000, 1000
MAG, 20460960, 364, 526, 351, 0, 0, 0, 0, 0, 0, 1, 20460952
RFND, 20460992, 0.2, 25, 0, 0
BARO, 20461031, -0.195971, 992.6423, 32.47, -0.2641118, 20461, 0, 32.15
CTUN, 20461044, 0, 0, 0, 0.5022295, 0.06662768, 0.06662768, -0.19, 0, 0.19, 0, 0, 0
ATT, 20461147, 0, 0.78, 0, 0.9, 0.11, 0.13, 0, 1
RATE, 20461153, -3.55246, -0.05810187, -0.008009534, -4.08754, -0.08639285, -0.009332584, 0.02814885, -0.08085611, 2.049019E-05, 79.63397, -0.6767273, 0
NKF1, 20461161, 0.78, 0.9, 0.13, 0.0009675552, -0.01077479, 0.001966271, 0, 0, 0, -0.06662768, 0, 0, 0
NKF2, 20461161, 1, 0, 0, 0, 0, 0, 0, 0, 0, 0, 0, 0, 0
NKF3, 20461161, 0, 0, 0, 0, -0.01, 0, 0, 0, 0, 0, 0
NKF4, 20461161, 0, 0, 0, 0, 0, 1.117919E-06, 0, 0, 0, 19, 229, 0, 0
NKF5, 20461161, 0, 0, 0, 0, 0.19, 0.13, 0, 0.19, 0.5, 3.312646E-05, 0.0002846363, 0.0005582517
NKQ1, 20461161, 0.999887, 0.002330806, 0.01480839, 0.001101351
AHR2, 20461204, 0.8, 0.89, 0.13, -0.19, 0, 0, 0.9999443, 0.00698465, 0.007831467, 0.001132133
MOTB, 20461212, 1, 1, 0, 1
RCIN, 20461216, 0, 0, 0, 0, 0, 0, 0, 0, 0, 0, 0, 0, 0, 0
RCOU, 20461222, 1143, 1143, 1143, 1143, 0, 0, 0, 0, 0, 0, 0, 0, 0, 0
VIBE, 20461230, 0.01987802, 0.01973529, 0.03345963, 0, 0, 0
CTRL, 20461237, 0.008390924, 0.000193057, 0.009635998, 0.0001868417, 5.240065E-05
PRX, 20461268, 2, 0.59, 0, 0.56, 0, 3.6, 0, 2.53, 0, 0, 90, 0.56
IMU, 20480632, -2.780145E-05, 5.040328E-05, 0.0008127441, 0.2838572, -0.0517089, -9.789928, 0, 0, 34.36886, 1, 1, 1000, 1000
RFND, 20510371, 0.2, 25, 0, 0
IMU, 20520535, 0.0003692497, 0.000801856, 0.0007557767, 0.2925988, -0.06132071, -9.784165, 0, 0, 34.3689, 1, 1, 1000, 1000
MAG, 20560750, 359, 527, 349, 0, 0, 0, 0, 0, 0, 1, 20560741
RFND, 20560780, 0.2, 25, 0, 0
BARO, 20560818, -0.229566, 992.6461, 32.48, -0.4482674, 20560, 0, 32.15
CTUN, 20560832, 0, 0, 0, 0.5022295, 0.06649526, 0.06649526, -0.22, 0, 0.19, 0, 0, 0
ATT, 20561020, 0, 0.78, 0, 0.91, 0.12, 0.13, 0, 1
RATE, 20561026, -3.55396, -0.04828104, -0.00813184, -4.102698, 0.01074057, -0.009656715, 0.02826308, -0.02247298, 5.929439E-05, 79.7956, -0.6322861, 0
NKF1, 20561034, 0.78, 0.91, 0.13, 0.0004487701, -0.01135523, 0.001970262, 0, 0, 0, -0.06649526, 0, 0, 0
NKF2, 20561034, 1, 0, 0, 0, 0, 0, 0, 0, 0, 0, 0, 0, 0
NKF3, 20561034, 0, 0, 0, 0, -0.01, 0, 0, 0, 0, 0, 0
NKF4, 20561034, 0, 0, 0, 0, 0, 1.255113E-06, 0, 0, 0, 19, 229, 0, 0
NKF5, 20561034, 0, 0, 0, 0, 0.19, 0.13, 0, 0.19, 0.5, 3.347889E-05, 0.0002638431, 0.0005075497
NKQ1, 20561034, 0.9998866, 0.002331509, 0.01483932, 0.001123318
AHR2, 20561079, 0.8, 0.89, 0.13, -0.22, 0, 0, 0.999944, 0.006989913, 0.007861461, 0.001153999
MOTB, 20561086, 1, 1, 0, 1
RCIN, 20561090, 0, 0, 0, 0, 0, 0, 0, 0, 0, 0, 0, 0, 0, 0
RCOU, 20561096, 1167, 1167, 1167, 1167, 0, 0, 0, 0, 0, 0, 0, 0, 0, 0
VIBE, 20561104, 0.020523, 0.02059579, 0.03140621, 0, 0, 0
CTRL, 20561111, 0.008389618, 0.0001802699, 0.009664791, 0.0001765638, 4.771355E-05
PRX, 20561142, 2, 0.59, 0, 0.56, 0, 3.6, 0, 2.54, 0, 0, 90, 0.56
IMU, 20561149, -0.0009350455, 8.836092E-05, -0.0003945071, 0.2761661, -0.05237164, -9.780144, 0, 0, 34.36882, 1, 1, 1000, 1000
IMU, 20600624, 0.0001878012, -0.001584124, 0.003727067, 0.283997, -0.04519286, -9.78019, 0, 0, 34.36877, 1, 1, 1000, 1000
RFND, 20610449, 0.2, 25, 0, 0
IMU, 20640610, -0.0008643225, 0.0009656316, -0.002287382, 0.2930679, -0.04255625, -9.787411, 0, 0, 34.36887, 1, 1, 1000, 1000
MAG, 20660541, 364, 527, 352, 0, 0, 0, 0, 0, 0, 1, 20660533
RFND, 20660574, 0.2, 25, 0, 0
BARO, 20660613, -0.2855577, 992.6519, 32.48, -0.4459228, 20660, 0, 32.15
CTUN, 20660626, 0, 0, 0, 0.5022295, 0.06632464, 0.06632464, -0.28, 0, 0.19, 0, 0, 0
ATT, 20660730, 0, 0.79, 0, 0.9, 0.13, 0.14, 0, 1
RATE, 20660737, -3.568555, -0.003487238, -0.008772834, -4.08808, 0.00452313, -0.009449036, 0.02826717, 0.4878543, -0.0001638215, 111.573, 2.500725, 0
NKF1, 20660745, 0.79, 0.9, 0.14, -7.572499E-05, -0.01150612, 0.002754888, 0, 0, 0, -0.06632464, 0, 0, 0
NKF2, 20660745, 1, 0, 0, 0, 0, 0, 0, 0, 0, 0, 0, 0, 0
NKF3, 20660745, 0, 0, 0, 0, -0.01, 0, 0, 0, 0, 0, 0
NKF4, 20660745, 0, 0, 0, 0, 0, 1.433971E-06, 0, 0, 0, 19, 229, 0, 0
NKF5, 20660745, 0, 0, 0, 0, 0.19, 0.13, 0, 0.19, 0.5, 3.230338E-05, 0.0002738847, 0.0005502489
NKQ1, 20660745, 0.9998867, 0.002343629, 0.01482548, 0.001195068
AHR2, 20660789, 0.8, 0.89, 0.14, -0.28, 0, 0, 0.9999439, 0.007006938, 0.007846625, 0.001225771
MOTB, 20660797, 1, 1, 0, 1
RCIN, 20660801, 0, 0, 0, 0, 0, 0, 0, 0, 0, 0, 0, 0, 0, 0
RCOU, 20660806, 1191, 1191, 1191, 1191, 0, 0, 0, 0, 0, 0, 0, 0, 0, 0
VIBE, 20660814, 0.08326288, 0.09294395, 0.06456041, 0, 0, 0
CTRL, 20660821, 0.008391137, 0.0001955363, 0.009644627, 0.000196637, 7.508607E-05
PRX, 20660853, 2, 0.59, 0, 0.56, 0, 3.6, 0, 2.52, 0, 0, 90, 0.56
IMU, 20680712, 0.0002915438, -0.0009459954, -0.01229802, 0.3215827, -0.02214864, -9.817266, 0, 0, 34.3688, 1, 1, 1000, 1000
RFND, 20710545, 0.2, 25, 0, 0
IMU, 20720671, 0.001983742, -0.0003735214, 0.01052035, 0.2580493, -0.06109838, -9.785853, 0, 0, 34.36901, 1, 1, 1000, 1000
MAG, 20761098, 356, 530, 354, 0, 0, 0, 0, 0, 0, 1, 20761084
RFND, 20761132, 0.2, 25, 0, 0
BARO, 20761172, -0.195971, 992.6422, 32.49, -0.4137016, 20761, 0, 32.15
CTUN, 20761186, 0, 0, 0, 0.5022295, 0.06621525, 0.06621525, -0.19, 0, 0.19, 0, 0, 0
DU32, 20761228, 7, 33611992
ATT, 20761576, 0, 0.79, 0, 0.91, 0.13, 0.14, 0, 1
RATE, 20761582, -3.582375, -0.1569388, -0.007909668, -4.091532, 0.1961366, -0.01127929, 0.02838643, 0.818544, 0.0002331332, 92.68249, -1.59626, 0
NKF1, 20761590, 0.79, 0.91, 0.14, -0.0001651914, -0.01099255, 0.002288457, 0, 0, 0, -0.06621525, 0, 0, 0
NKF2, 20761590, 1, 0, 0, 0, 0, 0, 0, 0, 0, 0, 0, 0, 0
NKF3, 20761590, 0, 0, 0, 0, -0.01, 0, 0, 0, 0, 0, 0
NKF4, 20761590, 0, 0, 0, 0, 0, 1.585839E-06, 0, 0, 0, 19, 229, 0, 0
NKF5, 20761590, 0, 0, 0, 0, 0.19, 0.13, 0, 0.19, 0.5, 3.292661E-05, 0.0002480369, 0.0004848058
NKQ1, 20761590, 0.9998864, 0.002359659, 0.01484053, 0.001197176
AHR2, 20761633, 0.8, 0.89, 0.14, -0.19, 0, 0, 0.9999437, 0.007027719, 0.007856647, 0.001227778
MOTB, 20761641, 1, 1, 0, 1
RCIN, 20761645, 0, 0, 0, 0, 0, 0, 0, 0, 0, 0, 0, 0, 0, 0
RCOU, 20761651, 1215, 1215, 1215, 1215, 0, 0, 0, 0, 0, 0, 0, 0, 0, 0
VIBE, 20761659, 0.2764344, 0.1932826, 0.1223652, 0, 0, 0
CTRL, 20761666, 0.008396056, 0.0003036582, 0.009628136, 0.0003537172, 0.0001978856
PRX, 20761696, 2, 0.59, 0, 0.56, 0, 3.6, 0, 2.51, 0, 0, 90, 0.56
IMU, 20761703, -0.002831883, 0.003323819, 0.014284, 0.2851707, -0.05524264, -9.770177, 0, 0, 34.36969, 1, 1, 1000, 1000
IMU, 20800888, -0.003900545, 0.0001146652, 0.01400679, 0.262063, -0.06423032, -9.747745, 0, 0, 34.37099, 1, 1, 1000, 1000
RFND, 20810524, 0.2, 25, 0, 0
IMU, 20840950, 0.001695793, -0.002692798, -0.02248537, 0.2992301, 0.0362752, -9.806837, 0, 0, 34.37318, 1, 1, 1000, 1000
MAG, 20860552, 356, 534, 348, 0, 0, 0, 0, 0, 0, 1, 20860543
RFND, 20860584, 0.2, 25, 0, 0
BARO, 20860623, -0.2743593, 992.6506, 32.49, -0.2873816, 20860, 0, 32.15
CTUN, 20860636, 0, 0, 0, 0.5022295, 0.06611138, 0.06611138, -0.27, 0, 0.19, 0, 0, 0
ATT, 20860740, 0, 0.78, 0, 0.91, 0.12, 0.13, 0, 1
RATE, 20860746, -3.55984, -0.3667665, -0.005726555, -4.113054, 0.3115809, -0.01215267, 0.02837382, 0.3694626, 0.0004534092, 132.7924, 0.3540993, 0
NKF1, 20860753, 0.78, 0.91, 0.13, 0.0006988883, -0.01096209, 0.003278826, 0, 0, 0, -0.06611138, 0, 0, 0
NKF2, 20860753, 1, 0, 0, 0, 0, 0, 0, 0, 0, 0, 0, 0, 0
NKF3, 20860753, 0, 0, 0, 0, -0.01, 0, 0, 0, 0, 0, 0
NKF4, 20860753, 0, 0, 0, 0, 0, 1.818172E-06, 0, 0, 0, 19, 229, 0, 0
NKF5, 20860753, 0, 0, 0, 0, 0.19, 0.13, 0, 0.19, 0.5, 3.138848E-05, 0.0002653585, 0.0005481582
NKQ1, 20860753, 0.9998861, 0.002331029, 0.01487062, 0.001145363
AHR2, 20860796, 0.8, 0.9, 0.14, -0.27, 0, 0, 0.9999437, 0.007004078, 0.007881436, 0.001176107
MOTB, 20860803, 1, 1, 0, 1
RCIN, 20860807, 0, 0, 0, 0, 0, 0, 0, 0, 0, 0, 0, 0, 0, 0
RCOU, 20860813, 1231, 1242, 1221, 1251, 0, 0, 0, 0, 0, 0, 0, 0, 0, 0
VIBE, 20860821, 0.2501899, 0.4686204, 0.2968166, 0, 0, 0
CTRL, 20860827, 0.00840003, 0.0006482176, 0.009650964, 0.0005869438, 0.0004025271
PRX, 20860859, 2, 0.59, 0, 0.56, 0, 3.6, 0, 2.52, 0, 0, 90, 0.56
IMU, 20880597, 0.002036979, 0.001284754, 0.02829291, 0.2506295, -0.04576669, -9.78928, 0, 0, 34.37552, 1, 1, 1000, 1000
RFND, 20910521, 0.2, 25, 0, 0
IMU, 20920621, -0.004257611, 0.009055805, -0.008121602, 0.259568, -0.00233244, -9.776145, 0, 0, 34.37712, 1, 1, 1000, 1000
MAG, 20960874, 363, 527, 348, 0, 0, 0, 0, 0, 0, 1, 20960865
RFND, 20960905, 0.2, 25, 0, 0
BARO, 20960945, -0.2407643, 992.6473, 32.49, -0.08799376, 20960, 0, 32.15
CTUN, 20960958, 0, 0, 0, 0.5022295, 0.06594845, 0.06594845, -0.24, 0, 0.19, 0, 0, 0
ATT, 20961061, 0, 0.78, 0, 0.91, 0.1, 0.11, 0, 1
RATE, 20961068, -3.5488, -0.1814712, -0.006804255, -4.119692, -0.2150151, -0.008934342, 0.02833051, 0.2078466, 0.0008187376, 94.49396, 0.1647949, 0
NKF1, 20961075, 0.78, 0.91, 0.11, 2.229773E-05, -0.0116407, 0.002333184, 0, 0, 0, -0.06594845, 0, 0, 0
NKF2, 20961075, 1, 0, 0, 0, 0, 0, 0, 0, 0, 0, 0, 0, 0
NKF3, 20961075, 0, 0, 0, 0, -0.01, 0, 0, 0, 0, 0, 0
NKF4, 20961075, 0, 0, 0, 0, 0, 2.003396E-06, 0, 0, 0, 19, 229, 0, 0
NKF5, 20961075, 0, 0, 0, 0, 0.19, 0.13, 0, 0.19, 0.5, 2.958724E-05, 0.0003193754, 0.0006964504
NKQ1, 20961075, 0.9998862, 0.00231645, 0.01487786, 0.0009704572
AHR2, 20961119, 0.8, 0.9, 0.12, -0.24, 0, 0, 0.9999439, 0.007013011, 0.007885042, 0.00100149
MOTB, 20961126, 1, 1, 0, 1
RCIN, 20961131, 0, 0, 0, 0, 0, 0, 0, 0, 0, 0, 0, 0, 0, 0
RCOU, 20961136, 1234, 1237, 1221, 1247, 0, 0, 0, 0, 0, 0, 0, 0, 0, 0
VIBE, 20961144, 0.5748463, 0.5126371, 0.6275467, 0, 0, 0
CTRL, 20961150, 0.00836756, 0.0008555119, 0.009742813, 0.001037807, 0.000539377
PRX, 20961182, 2, 0.59, 0, 0.56, 0, 3.6, 0, 2.51, 0, 0, 90, 0.56
IMU, 20961189, -0.00326076, -0.003852534, 0.003625304, 0.3637686, -0.02518144, -9.78555, 0, 0, 34.37955, 1, 1, 1000, 1000
IMU, 21001268, -0.002180378, 0.004923965, -0.006561834, 0.2926969, 0.01276504, -9.779193, 0, 0, 34.38286, 1, 1, 1000, 1000
RFND, 21011000, 0.2, 25, 0, 0
IMU, 21040640, 0.003073751, 0.0005292915, 0.01173734, 0.3679005, -0.0835175, -9.774935, 0, 0, 34.38716, 1, 1, 1000, 1000
MAG, 21060545, 356, 535, 353, 0, 0, 0, 0, 0, 0, 1, 21060537
RFND, 21060576, 0.2, 25, 0, 0
BARO, 21060616, -0.1399793, 992.6358, 32.49, 0.0210261, 21060, 0, 32.15
CTUN, 21060629, 0, 0, 0, 0.5022295, 0.06587084, 0.06587084, -0.13, 0, 0.19, 0, 0, 0
ATT, 21060729, 0, 0.77, 0, 0.92, 0.05, 0.06, 0, 1
RATE, 21060736, -3.446041, -0.1648571, -0.007581002, -4.193895, 0.2195452, -0.01061938, 0.02808264, -1.643739, 0.00111487, 107.279, -2.189064, 0
NKF1, 21060744, 0.77, 0.92, 0.06, -0.002248669, -0.01254261, 0.002648865, 0, 0, 0, -0.06587084, 0, 0, 0
NKF2, 21060744, 1, 0, 0, 0, 0, 0, 0, 0, 0, 0, 0, 0, 0
NKF3, 21060744, 0, 0, 0, 0, -0.01, 0, 0, 0, 0, 0, 0
NKF4, 21060744, 0, 0, 0, 0, 0, 2.279069E-06, 0, 0, 0, 19, 229, 0, 0
NKF5, 21060744, 0, 0, 0, 0, 0.19, 0.13, 0, 0.19, 0.5, 3.029572E-05, 0.000259476, 0.0005394814
NKQ1, 21060744, 0.9998854, 0.002181568, 0.01497252, 0.0005526897
AHR2, 21060789, 0.79, 0.91, 0.07, -0.13, 0, 0, 0.9999443, 0.006898798, 0.00797417, 0.000584446
MOTB, 21060796, 1, 1, 0, 1
RCIN, 21060800, 0, 0, 0, 0, 0, 0, 0, 0, 0, 0, 0, 0, 0, 0
RCOU, 21060806, 1236, 1241, 1221, 1251, 0, 0, 0, 0, 0, 0, 0, 0, 0, 0
VIBE, 21060814, 0.5428211, 0.4885245, 0.7431482, 0, 0, 0
CTRL, 21060821, 0.008247459, 0.0008863017, 0.009845408, 0.001092739, 0.0006844718
PRX, 21060853, 2, 0.58, 0, 0.56, 0, 3.6, 0, 2.51, 0, 0, 90, 0.56
IMU, 21080870, 0.0004817816, -0.006832032, 0.03360513, 0.2351107, -0.04858431, -9.732141, 0, 0, 34.39219, 1, 1, 1000, 1000
RFND, 21110535, 0.2, 25, 0, 0
IMU, 21120594, -0.002272537, 0.004476708, 0.01103862, 0.2770782, -0.03189771, -9.756308, 0, 0, 34.39774, 1, 1, 1000, 1000
MAG, 21160545, 356, 531, 345, 0, 0, 0, 0, 0, 0, 1, 21160537
RFND, 21160577, 0.2, 25, 0, 0
BARO, 21160616, -0.1119834, 992.6329, 32.49, 0.1483762, 21160, 0, 32.15
CTUN, 21160629, 0, 0, 0, 0.5022295, 0.06568523, 0.06568523, -0.11, 0, 0.19, 0, 0, 0
ATT, 21160727, 0, 0.77, 0, 0.9, 0.11, 0.12, 0, 1
RATE, 21160733, -3.506124, -0.1382565, -0.007119376, -4.079081, -0.3238405, -0.009719948, 0.02769281, 0.8565341, -0.0003262211, 140.5915, 1.62468, 0
NKF1, 21160741, 0.77, 0.9, 0.12, 0.001189896, -0.01292372, 0.003471394, 0, 0, 0, -0.06568523, 0, 0, 0
NKF2, 21160741, 1, 0, 0, 0, 0, 0, 0, 0, 0, 0, 0, 0, 0
NKF3, 21160741, 0, 0, 0, 0, -0.01, 0, 0, 0, 0, 0, 0
NKF4, 21160741, 0, 0, 0, 0, 0, 2.519475E-06, 0, 0, 0, 19, 229, 0, 0
NKF5, 21160741, 0, 0, 0, 0, 0.19, 0.13, 0, 0.19, 0.5, 2.80624E-05, 0.0003218465, 0.0007128283
NKQ1, 21160741, 0.9998873, 0.002212332, 0.01481636, 0.001079817
AHR2, 21160784, 0.79, 0.89, 0.13, -0.11, 0, 0, 0.9999451, 0.006925597, 0.007786259, 0.001112212
MOTB, 21160792, 1, 1, 0, 1
RCIN, 21160796, 0, 0, 0, 0, 0, 0, 0, 0, 0, 0, 0, 0, 0, 0
RCOU, 21160802, 1233, 1237, 1221, 1249, 0, 0, 0, 0, 0, 0, 0, 0, 0, 0
VIBE, 21160810, 0.4501665, 0.4563102, 0.6070492, 0, 0, 0
CTRL, 21160817, 0.008244242, 0.0008911627, 0.009680545, 0.001256303, 0.000690882
PRX, 21160848, 2, 0.59, 0, 0.56, 0, 3.6, 0, 2.52, 0, 0, 90, 0.56
IMU, 21160855, -0.002506501, -0.005751633, 0.01494704, 0.4113361, -0.04277495, -9.798726, 0, 0, 34.40215, 1, 1, 1000, 1000
IMU, 21200641, -0.00948719, 0.004010178, -0.001126705, 0.223105, -0.0477377, -9.767071, 0, 0, 34.40504, 1, 1, 1000, 1000
RFND, 21210613, 0.2, 25, 0, 0
IMU, 21240660, -0.0137279, 0.01063355, -0.008255465, 0.2011959, -0.06810362, -9.820988, 0, 0, 34.40636, 1, 1, 1000, 1000
MAG, 21260510, 356, 530, 347, 0, 0, 0, 0, 0, 0, 1, 21260502
RFND, 21260543, 0.2, 25, 0, 0
BARO, 21260582, -0.02239668, 992.6228, 32.49, 0.3974543, 21260, 0, 32.15
CTUN, 21260595, 0, 0, 0, 0.5022295, 0.06544276, 0.06544276, -0.02, 0, 0.19, 0, 0, 0
ATT, 21260698, 0, 0.77, 0, 0.91, 0.09, 0.1, 0, 1
RATE, 21260704, -3.473317, 0.1105825, -0.009476039, -4.132037, 0.1391509, -0.008657572, 0.02782161, -0.02204191, 0.0003525982, 216.8364, -4.599476, 0
NKF1, 21260712, 0.77, 0.91, 0.1, -0.004215879, -0.01249549, 0.005353985, 0, 0, 0, -0.06544276, 0, 0, 0
NKF2, 21260712, 1, 0, 0, 0, 0, 0, 0, 0, 0, 0, 0, 0, 0
NKF3, 21260712, 0, 0, 0, 0, -0.01, 0, 0, 0, 0, 0, 0
NKF4, 21260712, 0, 0, 0, 0, 0, 2.818076E-06, 0, 0, 0, 19, 229, 0, 0
NKF5, 21260712, 0, 0, 0, 0, 0.19, 0.13, 0, 0.19, 0.5, 2.925215E-05, 0.0002508289, 0.0005055167
NKQ1, 21260712, 0.9998863, 0.00217878, 0.01489571, 0.0008820069
AHR2, 21260755, 0.78, 0.89, 0.11, -0.02, 0, 0, 0.9999453, 0.006882934, 0.00783113, 0.0009144625
MOTB, 21260763, 1, 1, 0, 1
RCIN, 21260767, 0, 0, 0, 0, 0, 0, 0, 0, 0, 0, 0, 0, 0, 0
RCOU, 21260772, 1238, 1236, 1221, 1251, 0, 0, 0, 0, 0, 0, 0, 0, 0, 0
VIBE, 21260780, 0.5030422, 0.4365501, 0.4939347, 0, 0, 0
CTRL, 21260787, 0.008255197, 0.001988186, 0.009796427, 0.00154014, 0.0005896605
PRX, 21260818, 2, 0.58, 0, 0.56, 0, 3.6, 0, 2.5, 0, 0, 90, 0.56
IMU, 21280841, 0.007955031, -0.009502312, 0.01072392, 0.5427013, -0.03322326, -9.799535, 0, 0, 34.4059, 1, 1, 1000, 1000
RFND, 21310504, 0.2, 25, 0, 0
IMU, 21320658, 0.006703605, 0.003204647, -0.00732067, 0.241383, -0.044518, -9.748676, 0, 0, 34.40358, 1, 1, 1000, 1000
MAG, 21360794, 356, 535, 352, 0, 0, 0, 0, 0, 0, 1, 21360786
RFND, 21360825, 0.2, 25, 0, 0
BARO, 21360864, -0.03359502, 992.6241, 32.49, 0.5670007, 21360, 0, 32.15
CTUN, 21360876, 0, 0, 0, 0.5022295, 0.06507842, 0.06507842, -0.03, 0, 0.19, 0, 0, 0
ATT, 21360976, 0, 0.78, 0, 0.89, 0.1, 0.11, 0, 1
RATE, 21360982, -3.512689, 0.3061137, -0.009554874, -4.045066, 0.01346544, -0.01058612, 0.02754137, 0.1459444, 1.745446E-05, 271.2297, -6.044865, 0
NKF1, 21360990, 0.78, 0.89, 0.11, -0.001438764, -0.01343249, 0.006697029, 0, 0, 0, -0.06507842, 0, 0, 0
NKF2, 21360990, 1, 0, 0, 0, 0, 0, 0, 0, 0, 0, 0, 0, 0
NKF3, 21360990, 0, 0, 0, 0, -0.02, 0, 0, 0, 0, 0, 0
NKF4, 21360990, 0, 0, 0, 0, 0, 3.124843E-06, 0, 0, 0, 19, 229, 0, 0
NKF5, 21360990, 0, 0, 0, 0, 0.19, 0.13, 0, 0.19, 0.5, 2.665416E-05, 0.0003273349, 0.0007270322
NKQ1, 21360990, 0.9998886, 0.002249603, 0.01473215, 0.0009434656
AHR2, 21361033, 0.79, 0.87, 0.11, -0.03, 0, 0, 0.9999461, 0.006944272, 0.007654769, 0.0009761822
MOTB, 21361041, 1, 1, 0, 1
RCIN, 21361045, 0, 0, 0, 0, 0, 0, 0, 0, 0, 0, 0, 0, 0, 0
RCOU, 21361051, 1237, 1239, 1221, 1254, 0, 0, 0, 0, 0, 0, 0, 0, 0, 0
VIBE, 21361059, 0.5125672, 0.4133975, 0.5301754, 0, 0, 0
CTRL, 21361066, 0.008354263, 0.002055564, 0.009579614, 0.001905087, 0.0004976781
PRX, 21361097, 2, 0.59, 0, 0.56, 0, 3.6, 0, 2.52, 0, 0, 90, 0.56
IMU, 21361105, 0.005248809, 0.0001353237, 0.002544901, 0.2404303, -0.01151124, -9.72718, 0, 0, 34.39995, 1, 1, 1000, 1000
IMU, 21400680, -0.001057522, -0.009264948, 0.003196707, 0.38715, -0.01984372, -9.716482, 0, 0, 34.39503, 1, 1, 1000, 1000
RFND, 21410562, 0.2, 25, 0, 0
IMU, 21441228, -0.006484521, 0.009819644, -0.009490098, 0.2191688, -0.05296995, -9.791261, 0, 0, 34.38908, 1, 1, 1000, 1000
MAG, 21460585, 358, 533, 350, 0, 0, 0, 0, 0, 0, 1, 21460576
