FMT, 128, 89, FMT, BBnNZ, Type,Length,Name,Format,Columns
FMT, 129, 31, PARM, QNf, TimeUS,Name,Value
FMT, 130, 46, GPS, QBIHBcLLefffB, TimeUS,Status,GMS,GWk,NSats,HDop,Lat,Lng,Alt,Spd,GCrs,VZ,U
FMT, 131, 46, GPS2, QBIHBcLLefffB, TimeUS,Status,GMS,GWk,NSats,HDop,Lat,Lng,Alt,Spd,GCrs,VZ,U
FMT, 132, 46, GPSB, QBIHBcLLefffB, TimeUS,Status,GMS,GWk,NSats,HDop,Lat,Lng,Alt,Spd,GCrs,VZ,U
FMT, 193, 24, GPA, QCCCCBI, TimeUS,VDop,HAcc,VAcc,SAcc,VV,SMS
FMT, 194, 24, GPA2, QCCCCBI, TimeUS,VDop,HAcc,VAcc,SAcc,VV,SMS
FMT, 195, 24, GPAB, QCCCCBI, TimeUS,VDop,HAcc,VAcc,SAcc,VV,SMS
FMT, 133, 53, IMU, QffffffIIfBBHH, TimeUS,GyrX,GyrY,GyrZ,AccX,AccY,AccZ,EG,EA,T,GH,AH,GHz,AHz
FMT, 134, 75, MSG, QZ, TimeUS,Message
FMT, 135, 39, RCIN, QHHHHHHHHHHHHHH, TimeUS,C1,C2,C3,C4,C5,C6,C7,C8,C9,C10,C11,C12,C13,C14
FMT, 136, 39, RCOU, QHHHHHHHHHHHHHH, TimeUS,C1,C2,C3,C4,C5,C6,C7,C8,C9,C10,C11,C12,C13,C14
FMT, 137, 15, RSSI, Qf, TimeUS,RXRSSI
FMT, 139, 37, BARO, QffcfIff, TimeUS,Alt,Press,Temp,CRt,SMS,Offset,GndTemp
FMT, 140, 22, POWR, QffHB, TimeUS,Vcc,VServo,Flags,Safety
FMT, 143, 45, CMD, QHHHfffffff, TimeUS,CTot,CNum,CId,Prm1,Prm2,Prm3,Prm4,Lat,Lng,Alt
FMT, 144, 20, RAD, QBBBBBHH, TimeUS,RSSI,RemRSSI,TxBuf,Noise,RemNoise,RxErrors,Fixed
FMT, 146, 43, CAM, QIHLLeeeccC, TimeUS,GPSTime,GPSWeek,Lat,Lng,Alt,RelAlt,GPSAlt,Roll,Pitch,Yaw
FMT, 232, 43, TRIG, QIHLLeeeccC, TimeUS,GPSTime,GPSWeek,Lat,Lng,Alt,RelAlt,GPSAlt,Roll,Pitch,Yaw
FMT, 162, 30, ARSP, QffcffB, TimeUS,Airspeed,DiffPress,Temp,RawPress,Offset,U
FMT, 164, 45, CURR, QfffcHHHHHHHHHH, TimeUS,Volt,Curr,CurrTot,Temp,V1,V2,V3,V4,V5,V6,V7,V8,V9,V10
FMT, 165, 45, CUR2, QfffcHHHHHHHHHH, TimeUS,Volt,Curr,CurrTot,Temp,V1,V2,V3,V4,V5,V6,V7,V8,V9,V10
FMT, 163, 27, ATT, QccccCCCC, TimeUS,DesRoll,Roll,DesPitch,Pitch,DesYaw,Yaw,ErrRP,ErrYaw
FMT, 166, 34, MAG, QhhhhhhhhhBI, TimeUS,MagX,MagY,MagZ,OfsX,OfsY,OfsZ,MOfsX,MOfsY,MOfsZ,Health,S
FMT, 169, 14, MODE, QMBB, TimeUS,Mode,ModeNum,Rsn
FMT, 196, 17, RFND, QCBCB, TimeUS,Dist1,Orient1,Dist2,Orient2
FMT, 223, 33, DMS, IIIIIBBBBBBBBBB, TimeMS,N,Dp,RT,RS,Er,Fa,Fmn,Fmx,Pa,Pmn,Pmx,Sa,Smn,Smx
FMT, 240, 41, BCN, QBBfffffff, TimeUS,Health,Cnt,D0,D1,D2,D3,PosX,PosY,PosZ
FMT, 138, 53, IMU2, QffffffIIfBBHH, TimeUS,GyrX,GyrY,GyrZ,AccX,AccY,AccZ,EG,EA,T,GH,AH,GHz,AHz
FMT, 147, 53, IMU3, QffffffIIfBBHH, TimeUS,GyrX,GyrY,GyrZ,AccX,AccY,AccZ,EG,EA,T,GH,AH,GHz,AHz
FMT, 141, 45, AHR2, QccCfLLffff, TimeUS,Roll,Pitch,Yaw,Alt,Lat,Lng,Q1,Q2,Q3,Q4
FMT, 180, 31, POS, QLLfff, TimeUS,Lat,Lng,Alt,RelHomeAlt,RelOriginAlt
FMT, 142, 45, SIM, QccCfLLffff, TimeUS,Roll,Pitch,Yaw,Alt,Lat,Lng,Q1,Q2,Q3,Q4
FMT, 198, 51, NKF1, QccCfffffffccc, TimeUS,Roll,Pitch,Yaw,VN,VE,VD,dPD,PN,PE,PD,GX,GY,GZ
FMT, 199, 35, NKF2, QbccccchhhhhhB, TimeUS,AZbias,GSX,GSY,GSZ,VWN,VWE,MN,ME,MD,MX,MY,MZ,MI
FMT, 200, 33, NKF3, Qcccccchhhcc, TimeUS,IVN,IVE,IVD,IPN,IPE,IPD,IMX,IMY,IMZ,IYAW,IVT
FMT, 201, 35, NKF4, QcccccfbbHBHHb, TimeUS,SV,SP,SH,SM,SVT,errRP,OFN,OFE,FS,TS,SS,GPS,PI
FMT, 202, 40, NKF5, QBhhhcccCCfff, TimeUS,NI,FIX,FIY,AFI,HAGL,offset,RI,rng,Herr,eAng,eVel,ePos
FMT, 203, 51, NKF6, QccCfffffffccc, TimeUS,Roll,Pitch,Yaw,VN,VE,VD,dPD,PN,PE,PD,GX,GY,GZ
FMT, 204, 35, NKF7, QbccccchhhhhhB, TimeUS,AZbias,GSX,GSY,GSZ,VWN,VWE,MN,ME,MD,MX,MY,MZ,MI
FMT, 205, 33, NKF8, Qcccccchhhcc, TimeUS,IVN,IVE,IVD,IPN,IPE,IPD,IMX,IMY,IMZ,IYAW,IVT
FMT, 206, 35, NKF9, QcccccfbbHBHHb, TimeUS,SV,SP,SH,SM,SVT,errRP,OFN,OFE,FS,TS,SS,GPS,PI
FMT, 207, 36, NKF0, QBccCCcccccccc, TimeUS,ID,rng,innov,SIV,TR,BPN,BPE,BPD,OFH,OFL,OFN,OFE,OFD
FMT, 208, 27, NKQ1, Qffff, TimeUS,Q1,Q2,Q3,Q4
FMT, 209, 27, NKQ2, Qffff, TimeUS,Q1,Q2,Q3,Q4
FMT, 210, 51, XKF1, QccCfffffffccc, TimeUS,Roll,Pitch,Yaw,VN,VE,VD,dPD,PN,PE,PD,GX,GY,GZ
FMT, 211, 34, XKF2, QccccchhhhhhB, TimeUS,AX,AY,AZ,VWN,VWE,MN,ME,MD,MX,MY,MZ,MI
FMT, 212, 33, XKF3, Qcccccchhhcc, TimeUS,IVN,IVE,IVD,IPN,IPE,IPD,IMX,IMY,IMZ,IYAW,IVT
FMT, 213, 35, XKF4, QcccccfbbHBHHb, TimeUS,SV,SP,SH,SM,SVT,errRP,OFN,OFE,FS,TS,SS,GPS,PI
FMT, 214, 40, XKF5, QBhhhcccCCfff, TimeUS,NI,FIX,FIY,AFI,HAGL,offset,RI,rng,Herr,eAng,eVel,ePos
FMT, 215, 51, XKF6, QccCfffffffccc, TimeUS,Roll,Pitch,Yaw,VN,VE,VD,dPD,PN,PE,PD,GX,GY,GZ
FMT, 216, 34, XKF7, QccccchhhhhhB, TimeUS,AX,AY,AZ,VWN,VWE,MN,ME,MD,MX,MY,MZ,MI
FMT, 217, 33, XKF8, Qcccccchhhcc, TimeUS,IVN,IVE,IVD,IPN,IPE,IPD,IMX,IMY,IMZ,IYAW,IVT
FMT, 218, 35, XKF9, QcccccfbbHBHHb, TimeUS,SV,SP,SH,SM,SVT,errRP,OFN,OFE,FS,TS,SS,GPS,PI
FMT, 219, 36, XKF0, QBccCCcccccccc, TimeUS,ID,rng,innov,SIV,TR,BPN,BPE,BPD,OFH,OFL,OFN,OFE,OFD
FMT, 220, 27, XKQ1, Qffff, TimeUS,Q1,Q2,Q3,Q4
FMT, 221, 27, XKQ2, Qffff, TimeUS,Q1,Q2,Q3,Q4
FMT, 222, 35, XKFD, Qffffff, TimeUS,IX,IY,IZ,IVX,IVY,IVZ
FMT, 148, 34, TERR, QBLLHffHH, TimeUS,Status,Lat,Lng,Spacing,TerrH,CHeight,Pending,Loaded
FMT, 149, 18, UBX1, QBHBBH, TimeUS,Instance,noisePerMS,jamInd,aPower,agcCnt
FMT, 150, 16, UBX2, QBbBbB, TimeUS,Instance,ofsI,magI,ofsQ,magQ
FMT, 151, 18, UBY1, QBHBBH, TimeUS,Instance,noisePerMS,jamInd,aPower,agcCnt
FMT, 152, 16, UBY2, QBbBbB, TimeUS,Instance,ofsI,magI,ofsQ,magQ
FMT, 170, 42, GRAW, QIHBBddfBbB, TimeUS,WkMS,Week,numSV,sv,cpMes,prMes,doMes,mesQI,cno,lli
FMT, 171, 24, GRXH, QdHbBB, TimeUS,rcvTime,week,leapS,numMeas,recStat
FMT, 172, 41, GRXS, QddfBBBHBBBBB, TimeUS,prMes,cpMes,doMes,gnss,sv,freq,lock,cno,prD,cpD,doD,trk
FMT, 173, 63, SBFE, QIHBBdddfffff, TimeUS,TOW,WN,Mode,Err,Lat,Lng,Height,Undul,Vn,Ve,Vu,COG
FMT, 153, 19, ESC1, Qcccc, TimeUS,RPM,Volt,Curr,Temp
FMT, 154, 19, ESC2, Qcccc, TimeUS,RPM,Volt,Curr,Temp
FMT, 155, 19, ESC3, Qcccc, TimeUS,RPM,Volt,Curr,Temp
FMT, 156, 19, ESC4, Qcccc, TimeUS,RPM,Volt,Curr,Temp
FMT, 157, 19, ESC5, Qcccc, TimeUS,RPM,Volt,Curr,Temp
FMT, 158, 19, ESC6, Qcccc, TimeUS,RPM,Volt,Curr,Temp
FMT, 159, 19, ESC7, Qcccc, TimeUS,RPM,Volt,Curr,Temp
FMT, 160, 19, ESC8, Qcccc, TimeUS,RPM,Volt,Curr,Temp
FMT, 167, 34, MAG2, QhhhhhhhhhBI, TimeUS,MagX,MagY,MagZ,OfsX,OfsY,OfsZ,MOfsX,MOfsY,MOfsZ,Health,S
FMT, 168, 34, MAG3, QhhhhhhhhhBI, TimeUS,MagX,MagY,MagZ,OfsX,OfsY,OfsZ,MOfsX,MOfsY,MOfsZ,Health,S
FMT, 174, 31, ACC1, QQfff, TimeUS,SampleUS,AccX,AccY,AccZ
FMT, 175, 31, ACC2, QQfff, TimeUS,SampleUS,AccX,AccY,AccZ
FMT, 176, 31, ACC3, QQfff, TimeUS,SampleUS,AccX,AccY,AccZ
FMT, 177, 31, GYR1, QQfff, TimeUS,SampleUS,GyrX,GyrY,GyrZ
FMT, 178, 31, GYR2, QQfff, TimeUS,SampleUS,GyrX,GyrY,GyrZ
FMT, 179, 31, GYR3, QQfff, TimeUS,SampleUS,GyrX,GyrY,GyrZ
FMT, 181, 35, PIDR, Qffffff, TimeUS,Des,P,I,D,FF,AFF
FMT, 182, 35, PIDP, Qffffff, TimeUS,Des,P,I,D,FF,AFF
FMT, 183, 35, PIDY, Qffffff, TimeUS,Des,P,I,D,FF,AFF
FMT, 184, 35, PIDA, Qffffff, TimeUS,Des,P,I,D,FF,AFF
FMT, 185, 35, PIDS, Qffffff, TimeUS,Des,P,I,D,FF,AFF
FMT, 186, 35, PIDL, Qffffff, TimeUS,Des,P,I,D,FF,AFF
FMT, 161, 37, BAR2, QffcfIff, TimeUS,Alt,Press,Temp,CRt,SMS,Offset,GndTemp
FMT, 197, 37, BAR3, QffcfIff, TimeUS,Alt,Press,Temp,CRt,SMS,Offset,GndTemp
FMT, 187, 35, VIBE, QfffIII, TimeUS,VibeX,VibeY,VibeZ,Clip0,Clip1,Clip2
FMT, 188, 47, IMT, Qfffffffff, TimeUS,DelT,DelvT,DelaT,DelAX,DelAY,DelAZ,DelVX,DelVY,DelVZ
FMT, 189, 47, IMT2, Qfffffffff, TimeUS,DelT,DelvT,DelaT,DelAX,DelAY,DelAZ,DelVX,DelVY,DelVZ
FMT, 190, 47, IMT3, Qfffffffff, TimeUS,DelT,DelvT,DelaT,DelAX,DelAY,DelAZ,DelVX,DelVY,DelVZ
FMT, 191, 24, ORGN, QBLLe, TimeUS,Type,Lat,Lng,Alt
FMT, 192, 19, RPM, Qff, TimeUS,rpm1,rpm2
FMT, 233, 47, GMB1, Iffffffffff, TimeMS,dt,dax,day,daz,dvx,dvy,dvz,jx,jy,jz
FMT, 234, 44, GMB2, IBfffffffff, TimeMS,es,ex,ey,ez,rx,ry,rz,tx,ty,tz
FMT, 235, 13, GMB3, Ihhh, TimeMS,rl_torque_cmd,el_torque_cmd,az_torque_cmd
FMT, 236, 59, RATE, Qffffffffffff, TimeUS,RDes,R,ROut,PDes,P,POut,YDes,Y,YOut,ADes,A,AOut
FMT, 237, 23, RALY, QBBLLh, TimeUS,Tot,Seq,Lat,Lng,Alt
FMT, 238, 43, VISO, Qffffffff, TimeUS,dt,AngDX,AngDY,AngDZ,PosDX,PosDY,PosDZ,conf
FMT, 224, 23, SBPH, QIII, TimeUS,CrcError,LastInject,IARhyp
FMT, 229, 80, SBR1, QHHBZ, TimeUS,msg_type,sender_id,msg_len,d1
FMT, 230, 205, SBR2, QHZZZ, TimeUS,msg_type,d2,d3,d4
FMT, 25, 41, ATUN, QBBfffffff, TimeUS,Axis,TuneStep,Targ,Min,Max,RP,RD,SP,ddt
FMT, 26, 19, ATDE, Qff, TimeUS,Angle,Rate
FMT, 31, 22, PTUN, QBfHHH, TimeUS,Param,TunVal,CtrlIn,TunLo,TunHi
FMT, 12, 28, OF, QBffff, TimeUS,Qual,flowX,flowY,bodyX,bodyY
FMT, 5, 51, NTUN, Qffffffffff, TimeUS,DPosX,DPosY,PosX,PosY,DVelX,DVelY,VelX,VelY,DAccX,DAccY
FMT, 4, 51, CTUN, Qffffffeccfhh, TimeUS,ThI,ABst,ThO,ThH,DAlt,Alt,BAlt,DSAlt,SAlt,TAlt,DCRt,CRt
FMT, 6, 32, PM, QHHIhBHII, TimeUS,NLon,NLoop,MaxT,PMT,I2CErr,INSErr,LogDrop,Mem
FMT, 30, 27, MOTB, Qffff, TimeUS,LiftMax,BatVolt,BatRes,ThLimit
FMT, 13, 12, EV, QB, TimeUS,Id
FMT, 20, 14, D16, QBh, TimeUS,Id,Value
FMT, 21, 14, DU16, QBH, TimeUS,Id,Value
FMT, 22, 16, D32, QBi, TimeUS,Id,Value
FMT, 23, 16, DU32, QBI, TimeUS,Id,Value
FMT, 24, 16, DFLT, QBf, TimeUS,Id,Value
FMT, 19, 13, ERR, QBB, TimeUS,Subsys,ECode
FMT, 32, 19, HELI, Qff, TimeUS,DRRPM,ERRPM
FMT, 33, 29, PL, QBBffff, TimeUS,Heal,TAcq,pX,pY,vX,vY
FMT, 34, 36, GUID, QBffffff, TimeUS,Type,pX,pY,pZ,vX,vY,vZ
FMT, 35, 32, THRO, QBffffbbbb, TimeUS,Stage,Vel,VelZ,Acc,AccEfZ,Throw,AttOk,HgtOk,PosOk
FMT, 36, 56, PRX, QBfffffffffff, TimeUS,Health,D0,D45,D90,D135,D180,D225,D270,D315,DUp,CAn,CDis
MODE, 19959621, 100, 100, 2
FMT, 254, 47, NKT1, QIffffffff, TimeUS,Cnt,IMUMin,IMUMax,EKFMin,EKFMax,AngMin,AngMax,VelMin,VelM
FMT, 253, 31, CTRL, Qfffff, TimeUS,RMSRollP,RMSRollD,RMSPitchP,RMSPitchD,RMSYaw
RFND, 20037823, 0.2, 25, 0, 0
MSG, 20081427, APM:Copter V3.5.7 (38483450)
MSG, 20081432, New mission
MSG, 20081443, Frame: QUAD
MODE, 20081447, Autonomous, 100, 2
MAG, 20088786, 426, 500, 314, 0, 0, 0, 0, 0, 0, 1, 20088777
RFND, 20088855, 0.2, 25, 0, 0
BARO, 20088892, 0.005644287, 992.6984, 34.82, -0.1584555, 20088, 0, 34.61
CTUN, 20088906, 0, 0, 0, 0.4878387, 0.07467184, 0.07467184, 0, 0, 0.19, 0, 0, 0
IMU, 20089033, -0.001247814, -0.001938035, 0.0006042519, 0.247282, -0.05066513, -9.814617, 0, 0, 36.68807, 1, 1, 1000, 1000
ATT, 20091400, 0, 0.75, 0, 0.6, 0.03, 0.04, 0, 1
RATE, 20091410, -3.395135, -0.07890963, -0.007744019, -2.7096, -0.08813937, -0.006140992, 0.01907002, 0.01574071, 1.914549E-05, -307.334, 0.08354187, 0
NKF1, 20091418, 0.75, 0.6, 0.04, -0.001446676, -0.00414783, -0.007588494, 0, 0, 0, -0.07465408, 0, -0.01, 0
NKF2, 20091418, -1, 0, 0, 0, 0, 0, 0, 0, 0, 0, 0, 0, 0
NKF3, 20091418, 0, 0, 0, 0, 0, 0, 0, 0, 0, 0, 0
NKF4, 20091418, 0, 0, 0, 0, 0, 2.140911E-05, 0, 0, 0, 19, 229, 0, 0
NKF5, 20091418, 0, 0, 0, 0, 0.2, 0.13, 0, 0.19, 0.5, 2.050867E-05, 0.0003945201, 0.0009983883
NKQ1, 20091418, 0.9999242, 0.002034181, 0.01213764, 0.0003340721
AHR2, 20091461, 0.75, 0.59, 0.01, 0, 0, 0, 0.999965, 0.006589106, 0.005153222, 0.0001259276
MOTB, 20091469, 1, 1, 0, 1
RCIN, 20091474, 0, 0, 0, 0, 0, 0, 0, 0, 0, 0, 0, 0, 0, 0
RCOU, 20091479, 1101, 1101, 1101, 1101, 0, 0, 0, 0, 0, 0, 0, 0, 0, 0
VIBE, 20091487, 0.01707312, 0.01530228, 0.03280235, 0, 0, 0
CTRL, 20091494, 0.008006275, 0.0001507992, 0.006401942, 0.0001722639, 4.128991E-05
PRX, 20091526, 2, 0.56, 0, 0.63, 0, 3.6, 0, 2.45, 0, 0, 0, 0.56
IMU, 20128838, -0.0001912835, 0.0001483549, 0.0004361935, 0.2534642, -0.05025966, -9.817314, 0, 0, 36.6884, 1, 1, 1000, 1000
RFND, 20138594, 0.2, 25, 0, 0
IMU, 20169576, -0.0008870113, 0.0004427941, 0.0004429675, 0.2373648, -0.04038133, -9.82848, 0, 0, 36.69002, 1, 1, 1000, 1000
MAG, 20188747, 424, 502, 314, 0, 0, 0, 0, 0, 0, 1, 20188738
RFND, 20188782, 0.2, 25, 0, 0
BARO, 20188859, -0.07337573, 992.707, 34.82, -0.2802962, 20188, 0, 34.61
CTUN, 20188873, 0, 0, 0, 0.4878387, 0.0748956, 0.0748956, -0.07, 0, 0.19, 0, 0, 0
ATT, 20191224, 0, 0.75, 0, 0.6, 0.03, 0.04, 0, 1
RATE, 20191235, -3.387639, -0.03116737, -0.00810369, -2.710204, 0.005311763, -0.006335783, 0.01794855, 0.06093992, -4.327373E-05, -338.1976, 0.9900093, 0
NKF1, 20191244, 0.75, 0.6, 0.04, -0.0008106767, -0.004559985, -0.008350559, 0, 0, 0, -0.07484702, 0, -0.01, 0
NKF2, 20191244, -1, 0, 0, 0, 0, 0, 0, 0, 0, 0, 0, 0, 0
NKF3, 20191244, 0, 0, 0, 0, 0, 0, 0, 0, 0, 0, 0
NKF4, 20191244, 0, 0, 0, 0, 0, 1.607123E-05, 0, 0, 0, 19, 229, 0, 0
NKF5, 20191244, 0, 0, 0, 0, 0.2, 0.13, 0, 0.19, 0.5, 1.232178E-05, 0.0004773103, 0.001301646
NKQ1, 20191244, 0.9999242, 0.002019443, 0.01214089, 0.0003647499
AHR2, 20191290, 0.75, 0.59, 0.02, -0.07, 0, 0, 0.9999651, 0.006573885, 0.005150231, 0.0001566731
MOTB, 20191297, 1, 1, 0, 1
RCIN, 20191302, 0, 0, 0, 0, 0, 0, 0, 0, 0, 0, 0, 0, 0, 0
RCOU, 20191307, 1101, 1101, 1101, 1101, 0, 0, 0, 0, 0, 0, 0, 0, 0, 0
VIBE, 20191314, 0.02211449, 0.02051718, 0.03095554, 0, 0, 0
CTRL, 20191321, 0.007980892, 0.000178236, 0.006394013, 0.0001640716, 3.556569E-05
PRX, 20191352, 2, 0.56, 0, 0.64, 0, 3.6, 0, 2.45, 0, 0, 0, 0.56
IMU, 20208723, -0.000493058, -0.0003250272, 0.0009002836, 0.2363326, -0.04127816, -9.81101, 0, 0, 36.69324, 1, 1, 1000, 1000
RFND, 20238683, 0.2, 25, 0, 0
IMU, 20249087, 0.0005266953, -0.001265329, 0.0006699392, 0.2326765, -0.0476121, -9.806355, 0, 0, 36.69642, 1, 1, 1000, 1000
MAG, 20288720, 421, 505, 314, 0, 0, 0, 0, 0, 0, 1, 20288712
RFND, 20288756, 0.2, 25, 0, 0
BARO, 20288827, -0.1298186, 992.7134, 34.81, -0.4222225, 20288, 0, 34.61
CTUN, 20288841, 0, 0, 0, 0.4878387, 0.07520423, 0.07520423, -0.12, 0, 0.19, 0, 0, 0
IMU, 20288919, -0.0001557027, -0.0002202407, -0.0007225039, 0.242857, -0.03873078, -9.828521, 0, 0, 36.69968, 1, 1, 1000, 1000
ATT, 20291319, 0, 0.75, 0, 0.59, 0.03, 0.04, 0, 1
RATE, 20291330, -3.392666, -0.02855534, -0.007679996, -2.696568, -0.01399306, -0.006294468, 0.01667563, -0.03988764, -2.159949E-05, -328.8203, 1.133537, 0
NKF1, 20291337, 0.75, 0.59, 0.04, -0.001103926, -0.004517758, -0.00811902, 0, 0, 0, -0.07514953, 0, -0.01, 0
NKF2, 20291337, -1, 0, 0, 0, 0, 0, 0, 0, 0, 0, 0, 0, 0
NKF3, 20291337, 0, 0, 0, 0, 0, 0, 0, 0, 0, 0, 0
NKF4, 20291337, 0, 0, 0, 0, 0, 1.034716E-05, 0, 0, 0, 19, 229, 0, 0
NKF5, 20291337, 0, 0, 0, 0, 0.2, 0.13, 0, 0.19, 0.5, 1.347982E-05, 0.0007208139, 0.001834614
NKQ1, 20291337, 0.9999245, 0.002030728, 0.01211166, 0.0003811328
AHR2, 20291382, 0.75, 0.58, 0.02, -0.12, 0, 0, 0.9999652, 0.006590746, 0.005116547, 0.0001731162
MOTB, 20291389, 1, 1, 0, 1
RCIN, 20291394, 0, 0, 0, 0, 0, 0, 0, 0, 0, 0, 0, 0, 0, 0
RCOU, 20291399, 1101, 1101, 1101, 1101, 0, 0, 0, 0, 0, 0, 0, 0, 0, 0
VIBE, 20291407, 0.01972433, 0.02026912, 0.03092426, 0, 0, 0
CTRL, 20291414, 0.007998759, 0.0001677591, 0.006363758, 0.000146798, 3.811332E-05
PRX, 20291445, 2, 0.56, 0, 0.64, 0, 3.6, 0, 2.45, 0, 0, 0, 0.56
IMU, 20328862, 0.000219712, 0.0006764411, 0.0007099055, 0.2420671, -0.03605279, -9.818989, 0, 0, 36.70319, 1, 1, 1000, 1000
RFND, 20338675, 0.2, 25, 0, 0
IMU, 20368736, 0.0009583397, 0.0002985571, -0.0006301634, 0.2312235, -0.04378225, -9.802465, 0, 0, 36.70559, 1, 1, 1000, 1000
MAG, 20388739, 422, 496, 315, 0, 0, 0, 0, 0, 0, 1, 20388730
RFND, 20388775, 0.2, 25, 0, 0
BARO, 20388841, -0.1354629, 992.7137, 34.82, -0.5572647, 20388, 0, 34.61
CTUN, 20388855, 0, 0, 0, 0.4878387, 0.07532285, 0.07532285, -0.13, 0, 0.19, 0, 0, 0
ATT, 20391219, 0, 0.75, 0, 0.59, 0.03, 0.04, 0, 1
RATE, 20391230, -3.393903, 0.004581285, -0.007763502, -2.69648, -0.03106313, -0.006174142, 0.01705966, 0.03364402, 2.295567E-05, -315.891, 0.7019997, 0
NKF1, 20391239, 0.75, 0.59, 0.04, -0.001377471, -0.004276299, -0.007799777, 0, 0, 0, -0.07527328, 0, -0.01, 0
NKF2, 20391239, -1, 0, 0, 0, 0, 0, 0, 0, 0, 0, 0, 0, 0
NKF3, 20391239, 0, 0, 0, 0, 0, 0, 0, 0, 0, 0, 0
NKF4, 20391239, 0, 0, 0, 0, 0, 6.9509E-06, 0, 0, 0, 19, 229, 0, 0
NKF5, 20391239, 0, 0, 0, 0, 0.2, 0.13, 0, 0.19, 0.5, 2.151297E-05, 0.0005996542, 0.001383396
NKQ1, 20391239, 0.9999245, 0.002031223, 0.01211321, 0.0003956004
AHR2, 20391282, 0.75, 0.58, 0.02, -0.13, 0, 0, 0.9999651, 0.006596556, 0.005112503, 0.0001875868
MOTB, 20391289, 1, 1, 0, 1
RCIN, 20391294, 0, 0, 0, 0, 0, 0, 0, 0, 0, 0, 0, 0, 0, 0
RCOU, 20391299, 1101, 1101, 1101, 1101, 0, 0, 0, 0, 0, 0, 0, 0, 0, 0
VIBE, 20391308, 0.01818488, 0.02098926, 0.03137416, 0, 0, 0
CTRL, 20391315, 0.007999946, 0.0001765784, 0.006364462, 0.0001435928, 3.319761E-05
PRX, 20391345, 2, 0.56, 0, 0.63, 0, 3.6, 0, 2.46, 0, 0, 0, 0.56
IMU, 20408760, 0.0006635132, 0.0001744803, 0.0001668079, 0.2351204, -0.03923248, -9.805611, 0, 0, 36.70741, 1, 1, 1000, 1000
RFND, 20438892, 0.2, 25, 0, 0
IMU, 20448767, -0.0009642601, 0.0007222174, 0.0002464832, 0.2522128, -0.04504919, -9.82039, 0, 0, 36.70919, 1, 1, 1000, 1000
MAG, 20488672, 415, 498, 314, 0, 0, 0, 0, 0, 0, 1, 20488663
RFND, 20488709, 0.2, 25, 0, 0
BARO, 20488746, -0.11853, 992.7123, 34.82, -0.5265611, 20488, 0, 34.61
CTUN, 20488759, 0, 0, 0, 0.4878387, 0.07551844, 0.07551844, -0.11, 0, 0.19, 0, 0, 0
IMU, 20488870, -0.0004923636, 0.0001616496, 0.0001341351, 0.2366574, -0.03678992, -9.816252, 0, 0, 36.71072, 1, 1, 1000, 1000
ATT, 20491242, 0, 0.75, 0, 0.6, 0.03, 0.04, 0, 1
RATE, 20491252, -3.391816, -0.03423987, -0.007663974, -2.713755, 0.01652484, -0.006274437, 0.01799682, 0.009827818, 3.798805E-05, -303.0259, -0.03070831, 0
NKF1, 20491260, 0.75, 0.6, 0.04, -0.001451058, -0.004246614, -0.007482122, 0, 0, 0, -0.07544746, 0, -0.01, 0
NKF2, 20491260, -1, 0, 0, 0, 0, 0, 0, 0, 0, 0, 0, 0, 0
NKF3, 20491260, 0, 0, 0, 0, 0, 0, 0, 0, 0, 0, 0
NKF4, 20491260, 0, 0, 0, 0, 0, 4.66289E-06, 0, 0, 0, 19, 229, 0, 0
NKF5, 20491260, 0, 0, 0, 0, 0.2, 0.13, 0, 0.19, 0.5, 2.880105E-05, 0.0007948219, 0.001866566
NKQ1, 20491260, 0.9999241, 0.002027697, 0.01214613, 0.0003955032
AHR2, 20491305, 0.75, 0.58, 0.02, -0.11, 0, 0, 0.9999651, 0.006595809, 0.005137045, 0.0001873849
MOTB, 20491313, 1, 1, 0, 1
RCIN, 20491317, 0, 0, 0, 0, 0, 0, 0, 0, 0, 0, 0, 0, 0, 0
RCOU, 20491323, 1101, 1101, 1101, 1101, 0, 0, 0, 0, 0, 0, 0, 0, 0, 0
VIBE, 20491331, 0.02261847, 0.01883971, 0.03179757, 0, 0, 0
CTRL, 20491339, 0.008001202, 0.0001723211, 0.006399263, 0.0001426496, 3.348118E-05
PRX, 20491370, 2, 0.56, 0, 0.64, 0, 3.6, 0, 2.46, 0, 0, 0, 0.56
IMU, 20528733, -0.0003621155, 8.699433E-05, -0.0003101152, 0.2432665, -0.0446822, -9.811689, 0, 0, 36.71207, 1, 1, 1000, 1000
RFND, 20538629, 0.2, 25, 0, 0
IMU, 20569080, -0.000539061, 0.001470966, 5.839749E-05, 0.2388981, -0.04664477, -9.800858, 0, 0, 36.71369, 1, 1, 1000, 1000
MAG, 20589004, 423, 504, 309, 0, 0, 0, 0, 0, 0, 1, 20588995
RFND, 20589041, 0.2, 25, 0, 0
BARO, 20589078, -0.03386572, 992.7025, 34.82, -0.2829937, 20589, 0, 34.61
CTUN, 20589090, 0, 0, 0, 0.4878387, 0.07556122, 0.07556122, -0.03, 0, 0.19, 0, 0, 0
ATT, 20591044, 0, 0.75, 0, 0.6, 0.03, 0.04, 0, 1
RATE, 20591055, -3.380085, -0.01040975, -0.007843449, -2.713782, -0.02575571, -0.006106322, 0.01916215, -0.06009767, 9.456576E-05, -291.1265, 0.4976273, 0
NKF1, 20591063, 0.75, 0.6, 0.04, -0.001442757, -0.004810425, -0.007188308, 0, 0, 0, -0.07551123, 0, -0.01, 0
NKF2, 20591063, -1, 0, 0, 0, 0, 0, 0, 0, 0, 0, 0, 0, 0
NKF3, 20591063, 0, 0, 0, 0, 0, 0, 0, 0, 0, 0, 0
NKF4, 20591063, 0, 0, 0, 0, 0, 3.159378E-06, 0, 0, 0, 19, 229, 0, 0
NKF5, 20591063, 0, 0, 0, 0, 0.2, 0.13, 0, 0.19, 0.5, 3.396459E-05, 0.0006736376, 0.001456076
NKQ1, 20591063, 0.9999242, 0.00200708, 0.01214476, 0.0003777062
AHR2, 20591230, 0.75, 0.58, 0.02, -0.03, 0, 0, 0.9999652, 0.00657817, 0.005126396, 0.0001697624
MOTB, 20591240, 1, 1, 0, 1
RCIN, 20591244, 0, 0, 0, 0, 0, 0, 0, 0, 0, 0, 0, 0, 0, 0
RCOU, 20591249, 1101, 1101, 1101, 1101, 0, 0, 0, 0, 0, 0, 0, 0, 0, 0
VIBE, 20591257, 0.02132738, 0.01784611, 0.03226376, 0, 0, 0
CTRL, 20591264, 0.007978539, 0.0001621856, 0.006396755, 0.0001777788, 4.194058E-05
PRX, 20591296, 2, 0.56, 0, 0.63, 0, 3.6, 0, 2.47, 0, 0, 0, 0.56
IMU, 20608754, -0.0005420774, 5.757264E-05, -0.0001793382, 0.2395211, -0.05549103, -9.830233, 0, 0, 36.71521, 1, 1, 1000, 1000
RFND, 20638900, 0.2, 25, 0, 0
IMU, 20648786, 0.001253141, 0.0006046501, 0.0001045827, 0.232743, -0.04050371, -9.803975, 0, 0, 36.71653, 1, 1, 1000, 1000
MAG, 20688699, 424, 501, 312, 0, 0, 0, 0, 0, 0, 1, 20688691
RFND, 20688737, 0.2, 25, 0, 0
BARO, 20688774, -0.03386572, 992.7029, 34.83, 0.05455587, 20688, 0, 34.61
CTUN, 20688786, 0, 0, 0, 0.4878387, 0.07565687, 0.07565687, -0.03, 0, 0.19, 0, 0, 0
IMU, 20688895, 0.0002263803, 0.0003013958, 3.326109E-06, 0.2384463, -0.0401674, -9.810184, 0, 0, 36.71716, 1, 1, 1000, 1000
ATT, 20692015, 0, 0.75, 0, 0.6, 0.03, 0.04, 0, 1
RATE, 20692027, -3.387807, 0.009045785, -0.007808038, -2.721673, 0.03030083, -0.006513739, 0.01884297, -0.008355858, 3.08158E-05, -296.8336, -0.5524635, 0
NKF1, 20692034, 0.75, 0.6, 0.04, -0.001445681, -0.00539891, -0.007329225, 0, 0, 0, -0.07558674, 0, -0.01, 0
NKF2, 20692034, -1, 0, 0, 0, 0, 0, 0, 0, 0, 0, 0, 0, 0
NKF3, 20692034, 0, 0, 0, 0, 0, 0, 0, 0, 0, 0, 0
NKF4, 20692034, 0, 0, 0, 0, 0, 2.160448E-06, 0, 0, 0, 19, 229, 0, 0
NKF5, 20692034, 0, 0, 0, 0, 0.2, 0.13, 0, 0.19, 0.5, 3.709038E-05, 0.000809752, 0.001848376
NKQ1, 20692034, 0.9999239, 0.002021174, 0.0121616, 0.0003847787
AHR2, 20692077, 0.75, 0.58, 0.02, -0.03, 0, 0, 0.9999651, 0.006595011, 0.005132555, 0.0001767008
MOTB, 20692085, 1, 1, 0, 1
RCIN, 20692089, 0, 0, 0, 0, 0, 0, 0, 0, 0, 0, 0, 0, 0, 0
RCOU, 20692095, 1101, 1101, 1101, 1101, 0, 0, 0, 0, 0, 0, 0, 0, 0, 0
VIBE, 20692260, 0.02227413, 0.02211449, 0.03125986, 0, 0, 0
CTRL, 20692274, 0.007993612, 0.0001575357, 0.006411494, 0.0001605623, 5.622955E-05
PRX, 20692306, 2, 0.56, 0, 0.63, 0, 3.6, 0, 2.46, 0, 0, 0, 0.56
IMU, 20728747, 0.0008696353, -0.0002068675, 0.001196089, 0.2217998, -0.04301849, -9.824293, 0, 0, 36.71736, 1, 1, 1000, 1000
RFND, 20738606, 0.2, 25, 0, 0
IMU, 20769242, -0.001111144, -0.0008873938, 0.0004177218, 0.2376049, -0.04334062, -9.802616, 0, 0, 36.71829, 1, 1, 1000, 1000
MAG, 20790232, 422, 502, 307, 0, 0, 0, 0, 0, 0, 1, 20790223
RFND, 20790267, 0.2, 25, 0, 0
BARO, 20790305, -0.03386572, 992.7029, 34.83, 0.2902027, 20790, 0, 34.61
CTUN, 20790319, 0, 0, 0, 0.4878387, 0.07574232, 0.07574232, -0.03, 0, 0.19, 0, 0, 0
ATT, 20792675, 0, 0.75, 0, 0.6, 0.03, 0.04, 0, 1
RATE, 20792685, -3.381945, -0.03653662, -0.008087837, -2.727499, 0.01357623, -0.006764285, 0.01806687, -0.03957197, 4.656766E-05, -295.1236, -0.1526833, 0
NKF1, 20792693, 0.75, 0.6, 0.04, -0.002195776, -0.005792628, -0.007287003, 0, 0, 0, -0.07570764, 0, -0.01, 0
NKF2, 20792693, -1, 0, 0, 0, 0, 0, 0, 0, 0, 0, 0, 0, 0
NKF3, 20792693, 0, 0, 0, 0, 0, 0, 0, 0, 0, 0, 0
NKF4, 20792693, 0, 0, 0, 0, 0, 1.500351E-06, 0, 0, 0, 19, 229, 0, 0
NKF5, 20792693, 0, 0, 0, 0, 0.2, 0.13, 0, 0.19, 0.5, 3.874486E-05, 0.0006832104, 0.001448318
NKQ1, 20792693, 0.9999238, 0.002009706, 0.01217153, 0.0003862399
AHR2, 20792736, 0.75, 0.58, 0.02, -0.03, 0, 0, 0.9999651, 0.006588099, 0.005131274, 0.0001782437
MOTB, 20792745, 1, 1, 0, 1
RCIN, 20792749, 0, 0, 0, 0, 0, 0, 0, 0, 0, 0, 0, 0, 0, 0
RCOU, 20792755, 1101, 1101, 1101, 1101, 0, 0, 0, 0, 0, 0, 0, 0, 0, 0
VIBE, 20792762, 0.01871412, 0.01928481, 0.03224044, 0, 0, 0
CTRL, 20792769, 0.007977364, 0.0001708224, 0.006418564, 0.0001790942, 5.52089E-05
PRX, 20792800, 2, 0.56, 0, 0.63, 0, 3.6, 0, 2.45, 0, 0, 0, 0.56
IMU, 20808739, -0.0007554594, 0.0004086626, -3.708861E-05, 0.2345229, -0.03670213, -9.82706, 0, 0, 36.71924, 1, 1, 1000, 1000
RFND, 20839743, 0.2, 25, 0, 0
IMU, 20849332, -2.24596E-05, -0.0002447862, 0.001064117, 0.2502348, -0.04593059, -9.82342, 0, 0, 36.72009, 1, 1, 1000, 1000
MAG, 20888711, 421, 502, 309, 0, 0, 0, 0, 0, 0, 1, 20888703
RFND, 20888747, 0.2, 25, 0, 0
BARO, 20888784, -0.11853, 992.7117, 34.83, 0.2621803, 20888, 0, 34.61
CTUN, 20888797, 0, 0, 0, 0.4878387, 0.07576714, 0.07576714, -0.11, 0, 0.19, 0, 0, 0
DU32, 20888873, 7, 50389208
IMU, 20888969, 0.0009013691, -0.0003404413, 0.0006733318, 0.2433248, -0.04143607, -9.824261, 0, 0, 36.72065, 1, 1, 1000, 1000
ATT, 20891279, 0, 0.75, 0, 0.6, 0.04, 0.05, 0, 1
RATE, 20891287, -3.378396, 0.04182574, -0.00793246, -2.718803, -0.008872265, -0.006319127, 0.01713137, 0.04524733, -6.908123E-05, -302.7658, 0.8625031, 0
NKF1, 20891296, 0.75, 0.6, 0.05, -0.002076996, -0.00578706, -0.007475699, 0, 0, 0, -0.07569975, 0, -0.01, 0
NKF2, 20891296, -1, 0, 0, 0, 0, 0, 0, 0, 0, 0, 0, 0, 0
NKF3, 20891296, 0, 0, 0, 0, 0, 0, 0, 0, 0, 0, 0
NKF4, 20891296, 0, 0, 0, 0, 0, 1.067857E-06, 0, 0, 0, 19, 229, 0, 0
NKF5, 20891296, 0, 0, 0, 0, 0.2, 0.13, 0, 0.19, 0.5, 3.89565E-05, 0.0007722427, 0.001746768
NKQ1, 20891296, 0.999924, 0.002000823, 0.01215716, 0.0004334642
AHR2, 20891464, 0.75, 0.58, 0.02, -0.11, 0, 0, 0.9999653, 0.006587715, 0.005105908, 0.0002256619
MOTB, 20891473, 1, 1, 0, 1
RCIN, 20891478, 0, 0, 0, 0, 0, 0, 0, 0, 0, 0, 0, 0, 0, 0
RCOU, 20891484, 1101, 1101, 1101, 1101, 0, 0, 0, 0, 0, 0, 0, 0, 0, 0
VIBE, 20891492, 0.01991205, 0.01893342, 0.03685095, 0, 0, 0
CTRL, 20891499, 0.007972888, 0.0001771919, 0.00641035, 0.0001841659, 5.423052E-05
PRX, 20891529, 2, 0.56, 0, 0.64, 0, 3.6, 0, 2.48, 0, 0, 0, 0.56
IMU, 20928841, -0.0003844251, -0.0008867334, 0.0001399194, 0.2404994, -0.04296724, -9.8304, 0, 0, 36.72029, 1, 1, 1000, 1000
RFND, 20938691, 0.2, 25, 0, 0
IMU, 20969197, 0.0001644208, 2.240206E-06, 0.0002686833, 0.2329105, -0.04131397, -9.812506, 0, 0, 36.72099, 1, 1, 1000, 1000
MAG, 20988896, 425, 499, 311, 0, 0, 0, 0, 0, 0, 1, 20988887
RFND, 20988931, 0.2, 25, 0, 0
BARO, 20988967, -0.1015972, 992.71, 34.83, 0.01058303, 20988, 0, 34.61
CTUN, 20988979, 0, 0, 0, 0.4878387, 0.0758656, 0.0758656, -0.1, 0, 0.19, 0, 0, 0
ATT, 20991471, 0, 0.75, 0, 0.6, 0.04, 0.05, 0, 1
RATE, 20991480, -3.385297, 0.03789544, -0.008110518, -2.720427, -0.0005281224, -0.006284236, 0.01609723, 0.01547183, -1.789476E-05, -292.1763, 0.8234024, 0
NKF1, 20991488, 0.75, 0.6, 0.05, -0.002247688, -0.005865047, -0.007214229, 0, 0, 0, -0.07582556, 0, -0.01, 0
NKF2, 20991488, -1, 0, 0, 0, 0, 0, 0, 0, 0, 0, 0, 0, 0
NKF3, 20991488, 0, 0, 0, 0, 0, 0, 0, 0, 0, 0, 0
NKF4, 20991488, 0, 0, 0, 0, 0, 7.884603E-07, 0, 0, 0, 19, 229, 0, 0
NKF5, 20991488, 0, 0, 0, 0, 0.2, 0.13, 0, 0.19, 0.5, 3.901848E-05, 0.0006511181, 0.001367656
NKQ1, 20991488, 0.999924, 0.002014716, 0.01215969, 0.0004516193
AHR2, 20991529, 0.75, 0.58, 0.03, -0.09999999, 0, 0, 0.9999651, 0.006608319, 0.005098358, 0.0002437658
MOTB, 20991536, 1, 1, 0, 1
RCIN, 20991540, 0, 0, 0, 0, 0, 0, 0, 0, 0, 0, 0, 0, 0, 0
RCOU, 20991546, 1101, 1101, 1101, 1101, 0, 0, 0, 0, 0, 0, 0, 0, 0, 0
VIBE, 20991554, 0.02013906, 0.01918497, 0.03569391, 0, 0, 0
CTRL, 20991561, 0.007982578, 0.0001589806, 0.006410738, 0.0001703699, 5.187811E-05
PRX, 20991593, 2, 0.56, 0, 0.63, 0, 3.6, 0, 2.46, 0, 0, 0, 0.56
IMU, 21008714, -0.0003129818, -0.0009767662, 0.0001511899, 0.2387898, -0.05189615, -9.826138, 0, 0, 36.72116, 1, 1, 1000, 1000
RFND, 21038656, 0.2, 25, 0, 0
IMU, 21048829, -0.0006748047, -0.001032285, 0.0001748045, 0.2350837, -0.03220646, -9.826036, 0, 0, 36.72096, 1, 1, 1000, 1000
MAG, 21088853, 423, 502, 312, 0, 0, 0, 0, 0, 0, 1, 21088845
RFND, 21088889, 0.2, 25, 0, 0
BARO, 21088925, -0.07337573, 992.707, 34.84, -0.2030538, 21088, 0, 34.61
CTUN, 21088938, 0, 0, 0, 0.4878387, 0.07582227, 0.07582227, -0.07, 0, 0.19, 0, 0, 0
IMU, 21089014, 0.0004398477, 0.0001181618, 0.0009516177, 0.2434569, -0.04832096, -9.825785, 0, 0, 36.72119, 1, 1, 1000, 1000
ATT, 21091265, 0, 0.75, 0, 0.6, 0.04, 0.05, 0, 1
RATE, 21091276, -3.3848, 0.02301672, -0.007936379, -2.715209, 0.02100471, -0.006416675, 0.01824635, 0.05013243, -6.696666E-05, -317.3278, 0.9886742, 0
NKF1, 21091285, 0.75, 0.6, 0.05, -0.002032249, -0.006359813, -0.007835254, 0, 0, 0, -0.07575834, 0, -0.01, 0
NKF2, 21091285, -1, 0, 0, 0, 0, 0, 0, 0, 0, 0, 0, 0, 0
NKF3, 21091285, 0, 0, 0, 0, 0, 0, 0, 0, 0, 0, 0
NKF4, 21091285, 0, 0, 0, 0, 0, 6.255879E-07, 0, 0, 0, 19, 229, 0, 0
NKF5, 21091285, 0, 0, 0, 0, 0.2, 0.13, 0, 0.19, 0.5, 3.817362E-05, 0.0007114992, 0.001600594
NKQ1, 21091285, 0.9999241, 0.002011988, 0.01214992, 0.0004785647
AHR2, 21091330, 0.75, 0.58, 0.03, -0.07, 0, 0, 0.9999653, 0.006608009, 0.005083007, 0.0002707765
MOTB, 21091337, 1, 1, 0, 1
RCIN, 21091342, 0, 0, 0, 0, 0, 0, 0, 0, 0, 0, 0, 0, 0, 0
RCOU, 21091348, 1101, 1101, 1101, 1101, 0, 0, 0, 0, 0, 0, 0, 0, 0, 0
VIBE, 21091356, 0.01924493, 0.01784468, 0.03520785, 0, 0, 0
CTRL, 21091363, 0.007982248, 0.0001535747, 0.006396241, 0.0001618409, 4.739896E-05
PRX, 21091394, 2, 0.56, 0, 0.64, 0, 3.6, 0, 2.47, 0, 0, 0, 0.56
IMU, 21132676, 0.0007632354, 0.0003463103, 0.0001204776, 0.2350551, -0.04154512, -9.817446, 0, 0, 36.72212, 1, 1, 1000, 1000
RFND, 21141478, 0.2, 25, 0, 0
IMU, 21171668, 0.001058014, -0.001109302, -0.0005631601, 0.2432857, -0.04259903, -9.825146, 0, 0, 36.72308, 1, 1, 1000, 1000
MAG, 21191530, 421, 499, 313, 0, 0, 0, 0, 0, 0, 1, 21191521
RFND, 21191566, 0.2, 25, 0, 0
BARO, 21191603, 0.08184216, 992.6901, 34.83, -0.1202483, 21191, 0, 34.61
CTUN, 21191616, 0, 0, 0, 0.4878387, 0.07599358, 0.07599358, 0.08, 0, 0.19, 0, 0, 0
ATT, 21194334, 0, 0.75, 0, 0.6, 0.04, 0.05, 0, 1
RATE, 21194344, -3.403299, 0.04353595, -0.008179512, -2.72274, 0.03452222, -0.006692592, 0.01702981, -0.002473567, 9.391093E-06, -312.5085, -0.6104469, 0
NKF1, 21194352, 0.75, 0.6, 0.05, -0.001948441, -0.006684178, -0.00771626, 0, 0, 0, -0.07591374, 0, -0.01, 0
NKF2, 21194352, -1, 0, 0, 0, 0, 0, 0, 0, 0, 0, 0, 0, 0
NKF3, 21194352, 0, 0, 0, 0, 0, 0, 0, 0, 0, 0, 0
NKF4, 21194352, 0, 0, 0, 0, 0, 5.166366E-07, 0, 0, 0, 19, 229, 0, 0
NKF5, 21194352, 0, 0, 0, 0, 0.2, 0.13, 0, 0.19, 0.5, 3.735684E-05, 0.0008411429, 0.001999198
NKQ1, 21194352, 0.9999238, 0.002049245, 0.01216351, 0.0004833778
AHR2, 21194395, 0.76, 0.58, 0.03, 0.08, 0, 0, 0.9999649, 0.006647953, 0.005089898, 0.0002752887
MOTB, 21194402, 1, 1, 0, 1
RCIN, 21194406, 0, 0, 0, 0, 0, 0, 0, 0, 0, 0, 0, 0, 0, 0
RCOU, 21194412, 1101, 1101, 1101, 1101, 0, 0, 0, 0, 0, 0, 0, 0, 0, 0
VIBE, 21194419, 0.02032479, 0.01863641, 0.03106043, 0, 0, 0
CTRL, 21194426, 0.008018431, 0.0001768783, 0.00641184, 0.000166232, 4.208165E-05
PRX, 21194458, 2, 0.56, 0, 0.63, 0, 0.65, 0, 2.47, 0, 0, 0, 0.56
IMU, 21211578, 0.0007132497, -0.0001961963, 0.0009860079, 0.235459, -0.04173718, -9.812531, 0, 0, 36.72422, 1, 1, 1000, 1000
RFND, 21242527, 0.2, 25, 0, 0
IMU, 21251536, -0.0002015415, 0.0004051824, -0.0005939137, 0.2379844, -0.04887165, -9.839981, 0, 0, 36.72455, 1, 1, 1000, 1000
MAG, 21291509, 418, 498, 311, 0, 0, 0, 0, 0, 0, 1, 21291501
RFND, 21291544, 0.2, 25, 0, 0
BARO, 21291580, 0.05926501, 992.6922, 34.84, 0.2437863, 21291, 0, 34.61
CTUN, 21291592, 0, 0, 0, 0.4878387, 0.07595277, 0.07595277, 0.05, 0, 0.19, 0, 0, 0
IMU, 21291758, 0.0005926826, -0.0003447762, -0.001460753, 0.2377838, -0.04621188, -9.8383, 0, 0, 36.72433, 1, 1, 1000, 1000
ATT, 21294220, 0, 0.75, 0, 0.6, 0.04, 0.05, 0, 1
RATE, 21294231, -3.404729, 0.02370965, -0.008120904, -2.720951, -0.03028561, -0.006196501, 0.01842529, -0.07593421, 9.934331E-05, -347.7126, 2.387047, 0
NKF1, 21294239, 0.75, 0.6, 0.05, -0.00241357, -0.007034479, -0.008585495, 0, 0, 0, -0.07590976, 0, -0.01, 0
NKF2, 21294239, -1, 0, 0, 0, 0, 0, 0, 0, 0, 0, 0, 0, 0
NKF3, 21294239, 0, 0, 0, 0, 0, 0, 0, 0, 0, 0, 0
NKF4, 21294239, 0, 0, 0, 0, 0, 4.779122E-07, 0, 0, 0, 19, 229, 0, 0
NKF5, 21294239, 0, 0, 0, 0, 0.2, 0.13, 0, 0.19, 0.5, 3.694766E-05, 0.0006328911, 0.001425916
NKQ1, 21294239, 0.9999239, 0.002053207, 0.01215781, 0.0004753394
AHR2, 21294285, 0.76, 0.58, 0.03, 0.05, 0, 0, 0.999965, 0.006655839, 0.005076371, 0.000267274
MOTB, 21294293, 1, 1, 0, 1
RCIN, 21294297, 0, 0, 0, 0, 0, 0, 0, 0, 0, 0, 0, 0, 0, 0
RCOU, 21294303, 1101, 1101, 1101, 1101, 0, 0, 0, 0, 0, 0, 0, 0, 0, 0
VIBE, 21294311, 0.01956617, 0.01986834, 0.03111279, 0, 0, 0
CTRL, 21294318, 0.0080306, 0.0001546689, 0.006416027, 0.0001523522, 4.113113E-05
PRX, 21294349, 2, 0.56, 0, 0.64, 0, 0.65, 0, 2.47, 0, 0, 0, 0.56
IMU, 21331625, -0.0004524052, -0.0005708761, 0.0002605263, 0.234509, -0.03031478, -9.829165, 0, 0, 36.72429, 1, 1, 1000, 1000
RFND, 21341558, 0.2, 25, 0, 0
IMU, 21372057, 0.0006843121, 0.0005840177, 7.336264E-05, 0.2390379, -0.04246996, -9.809149, 0, 0, 36.72378, 1, 1, 1000, 1000
MAG, 21391849, 421, 501, 313, 0, 0, 0, 0, 0, 0, 1, 21391839
RFND, 21391887, 0.2, 25, 0, 0
BARO, 21391925, 0.09313074, 992.6887, 34.84, 0.5425979, 21391, 0, 34.61
CTUN, 21391939, 0, 0, 0, 0.4878387, 0.07610701, 0.07610701, 0.09, 0, 0.19, 0, 0, 0
ATT, 21394260, 0, 0.75, 0, 0.6, 0.04, 0.05, 0, 1
RATE, 21394270, -3.415482, 0.09761943, -0.008394235, -2.723503, -0.02791152, -0.006066087, 0.01818787, -0.01380611, 2.786308E-05, -355.4019, 0.3574371, 0
NKF1, 21394278, 0.75, 0.6, 0.05, -0.002592705, -0.006816864, -0.008775355, 0, 0, 0, -0.07604532, 0, -0.01, 0
NKF2, 21394278, -1, 0, 0, 0, 0, 0, 0, 0, 0, 0, 0, 0, 0
NKF3, 21394278, 0, 0, 0, 0, -0.01, 0, 0, 0, 0, 0, 0
NKF4, 21394278, 0, 0, 0, 0, 0, 4.655509E-07, 0, 0, 0, 19, 229, 0, 0
NKF5, 21394278, 0, 0, 0, 0, 0.2, 0.13, 0, 0.19, 0.5, 3.63196E-05, 0.0007244788, 0.001729697
NKQ1, 21394278, 0.9999238, 0.002072603, 0.01216434, 0.0004871092
AHR2, 21394322, 0.76, 0.58, 0.03, 0.09, 0, 0, 0.9999648, 0.006678986, 0.005074931, 0.0002789099
MOTB, 21394329, 1, 1, 0, 1
RCIN, 21394334, 0, 0, 0, 0, 0, 0, 0, 0, 0, 0, 0, 0, 0, 0
RCOU, 21394339, 1101, 1101, 1101, 1101, 0, 0, 0, 0, 0, 0, 0, 0, 0, 0
VIBE, 21394348, 0.01818758, 0.02095436, 0.03350241, 0, 0, 0
CTRL, 21394355, 0.008045869, 0.0001610893, 0.006417593, 0.000152587, 4.98208E-05
PRX, 21394386, 2, 0.56, 0, 0.64, 0, 0.64, 0, 2.46, 0, 0, 0, 0.56
IMU, 21411574, 0.001294006, 0.0001813483, -0.001017639, 0.2410482, -0.04713991, -9.803493, 0, 0, 36.7238, 1, 1, 1000, 1000
RFND, 21441975, 0.2, 25, 0, 0
IMU, 21451559, 0.0004898704, -0.0004871945, -0.0002398839, 0.2395161, -0.0374745, -9.825881, 0, 0, 36.72389, 1, 1, 1000, 1000
MAG, 21491481, 419, 503, 311, 0, 0, 0, 0, 0, 0, 1, 21491473
RFND, 21491516, 0.2, 25, 0, 0
BARO, 21491553, 0.08466431, 992.6895, 34.84, 0.5089685, 21491, 0, 34.61
CTUN, 21491565, 0, 0, 0, 0.4878387, 0.07619709, 0.07619709, 0.08, 0, 0.19, 0, 0, 0
IMU, 21491734, 7.937985E-05, 0.0001208072, -0.0007972056, 0.2344611, -0.03633248, -9.811986, 0, 0, 36.72384, 1, 1, 1000, 1000
ATT, 21494241, 0, 0.76, 0, 0.6, 0.04, 0.05, 0, 1
RATE, 21494252, -3.437882, 0.002888187, -0.007925904, -2.728802, 0.02328511, -0.006547883, 0.0181819, -0.05313787, 8.458657E-05, -337.6643, -0.4376411, 0
NKF1, 21494262, 0.76, 0.6, 0.05, -0.00269131, -0.006777452, -0.008337391, 0, 0, 0, -0.07614263, 0, -0.01, 0
NKF2, 21494262, -1, 0, 0, 0, 0, 0, 0, 0, 0, 0, 0, 0, 0
NKF3, 21494262, 0, 0, 0, 0, -0.01, 0, 0, 0, 0, 0, 0
NKF4, 21494262, 0, 0, 0, 0, 0, 4.805046E-07, 0, 0, 0, 19, 229, 0, 0
NKF5, 21494262, 0, 0, 0, 0, 0.2, 0.13, 0, 0.19, 0.5, 3.62432E-05, 0.0005564553, 0.001221993
NKQ1, 21494262, 0.9999236, 0.002117196, 0.0121737, 0.0004712392
AHR2, 21494306, 0.77, 0.58, 0.03, 0.08, 0, 0, 0.9999645, 0.006726509, 0.005075545, 0.0002627272
MOTB, 21494313, 1, 1, 0, 1
RCIN, 21494318, 0, 0, 0, 0, 0, 0, 0, 0, 0, 0, 0, 0, 0, 0
RCOU, 21494324, 1101, 1101, 1101, 1101, 0, 0, 0, 0, 0, 0, 0, 0, 0, 0
VIBE, 21494332, 0.02059742, 0.0187823, 0.03116679, 0, 0, 0
CTRL, 21494339, 0.008108978, 0.0001629746, 0.006422156, 0.0001453641, 5.536416E-05
PRX, 21494371, 2, 0.56, 0, 0.64, 0, 0.64, 0, 2.44, 0, 0, 0, 0.56
IMU, 21531602, -0.0001810059, 0.0008170388, -0.000357736, 0.2446727, -0.04312798, -9.832067, 0, 0, 36.72356, 1, 1, 1000, 1000
RFND, 21541478, 0.2, 25, 0, 0
IMU, 21572264, -0.000689333, -0.001494673, 0.001386541, 0.2222477, -0.04001284, -9.796603, 0, 0, 36.72354, 1, 1, 1000, 1000
MAG, 21591808, 420, 500, 313, 0, 0, 0, 0, 0, 0, 1, 21591799
RFND, 21591843, 0.2, 25, 0, 0
BARO, 21591879, 0.09595288, 992.6884, 34.85, 0.2751451, 21591, 0, 34.61
CTUN, 21591891, 0, 0, 0, 0.4878387, 0.07624701, 0.07624701, 0.09, 0, 0.19, 0, 0, 0
ATT, 21594430, 0, 0.76, 0, 0.6, 0.04, 0.05, 0, 1
RATE, 21594441, -3.434624, 0.02395065, -0.008353608, -2.721268, -0.06747974, -0.006138137, 0.01676615, 0.06053481, -1.592312E-05, -312.804, -1.049805, 0
NKF1, 21594449, 0.76, 0.6, 0.05, -0.002897787, -0.006796573, -0.007723554, 0, 0, 0, -0.07618978, 0, -0.01, 0
NKF2, 21594449, -1, 0, 0, 0, 0, 0, 0, 0, 0, 0, 0, 0, 0
NKF3, 21594449, 0, 0, 0, 0, -0.01, 0, 0, 0, 0, 0, 0
NKF4, 21594449, 0, 0, 0, 0, 0, 5.199314E-07, 0, 0, 0, 19, 229, 0, 0
NKF5, 21594449, 0, 0, 0, 0, 0.2, 0.13, 0, 0.19, 0.5, 3.553379E-05, 0.0006216507, 0.001457226
NKQ1, 21594449, 0.9999236, 0.002108113, 0.01216198, 0.000497097
AHR2, 21594492, 0.77, 0.57, 0.03, 0.09, 0, 0, 0.9999646, 0.006719784, 0.005055136, 0.0002887179
MOTB, 21594499, 1, 1, 0, 1
RCIN, 21594504, 0, 0, 0, 0, 0, 0, 0, 0, 0, 0, 0, 0, 0, 0
RCOU, 21594509, 1101, 1101, 1101, 1101, 0, 0, 0, 0, 0, 0, 0, 0, 0, 0
VIBE, 21594518, 0.02184209, 0.02022024, 0.03180291, 0, 0, 0
CTRL, 21594525, 0.008097393, 0.0001529003, 0.006422598, 0.0001569871, 6.649527E-05
PRX, 21594557, 2, 0.56, 0, 0.63, 0, 3.6, 0, 2.45, 0, 0, 0, 0.56
IMU, 21611577, 0.0008754943, -0.0009242661, 1.673267E-05, 0.2448125, -0.03493006, -9.8049, 0, 0, 36.72404, 1, 1, 1000, 1000
RFND, 21641488, 0.2, 25, 0, 0
IMU, 21651573, -0.0006122628, -0.001036519, 0.0007988656, 0.23268, -0.03836139, -9.807918, 0, 0, 36.72481, 1, 1, 1000, 1000
MAG, 21692622, 419, 498, 309, 0, 0, 0, 0, 0, 0, 1, 21692614
RFND, 21692658, 0.2, 25, 0, 0
BARO, 21692694, 0.1128857, 992.6864, 34.85, 0.115146, 21692, 0, 34.61
CTUN, 21692707, 0, 0, 0, 0.4878387, 0.07629728, 0.07629728, 0.11, 0, 0.19, 0, 0, 0
IMU, 21692879, 0.0002690323, 0.0001648296, 0.0005042081, 0.2363876, -0.03863943, -9.828485, 0, 0, 36.72546, 1, 1, 1000, 1000
ATT, 21695749, 0, 0.76, 0, 0.6, 0.05, 0.06, 0, 1
RATE, 21695759, -3.431213, 0.008147936, -0.008085405, -2.722656, 0.03246274, -0.006603283, 0.01911553, 0.01748147, -1.541431E-05, -306.9574, 1.390553, 0
NKF1, 21695768, 0.76, 0.6, 0.06, -0.002897632, -0.006535463, -0.007579194, 0, 0, 0, -0.07626177, 0, -0.01, 0
NKF2, 21695768, -1, 0, 0, 0, 0, 0, 0, 0, 0, 0, 0, 0, 0
NKF3, 21695768, 0, 0, 0, 0, -0.01, 0, 0, 0, 0, 0, 0
NKF4, 21695768, 0, 0, 0, 0, 0, 5.619862E-07, 0, 0, 0, 19, 229, 0, 0
NKF5, 21695768, 0, 0, 0, 0, 0.2, 0.13, 0, 0.19, 0.5, 3.557183E-05, 0.0004844588, 0.001023362
NKQ1, 21695768, 0.9999237, 0.00210277, 0.01216392, 0.0005014234
AHR2, 21695814, 0.76, 0.57, 0.03, 0.11, 0, 0, 0.9999647, 0.006714777, 0.005049132, 0.0002930769
MOTB, 21695822, 1, 1, 0, 1
RCIN, 21695827, 0, 0, 0, 0, 0, 0, 0, 0, 0, 0, 0, 0, 0, 0
RCOU, 21695832, 1101, 1101, 1101, 1101, 0, 0, 0, 0, 0, 0, 0, 0, 0, 0
VIBE, 21695840, 0.02025542, 0.02231509, 0.03263242, 0, 0, 0
CTRL, 21695847, 0.008091913, 0.0001424985, 0.006407847, 0.0001559509, 5.824983E-05
PRX, 21695879, 2, 0.56, 0, 0.63, 0, 3.6, 0, 2.46, 0, 0, 0, 0.56
IMU, 21732077, -0.0002915425, -0.0001196506, -0.0002998475, 0.2372326, -0.03132089, -9.814231, 0, 0, 36.72609, 1, 1, 1000, 1000
RFND, 21741963, 0.2, 25, 0, 0
IMU, 21771926, -0.000265774, 7.462347E-05, 4.618827E-05, 0.2371136, -0.03925318, -9.817122, 0, 0, 36.72686, 1, 1, 1000, 1000
MAG, 21791817, 424, 500, 312, 0, 0, 0, 0, 0, 0, 1, 21791808
RFND, 21791852, 0.2, 25, 0, 0
BARO, 21791889, 0.15804, 992.6816, 34.85, 0.0950802, 21791, 0, 34.61
CTUN, 21791901, 0, 0, 0, 0.4878387, 0.07622179, 0.07622179, 0.15, 0, 0.19, 0, 0, 0
ATT, 21794571, 0, 0.76, 0, 0.6, 0.05, 0.06, 0, 1
RATE, 21794583, -3.424734, -0.007107729, -0.008272533, -2.723532, 0.01033356, -0.006395483, 0.0182525, -0.01054389, 5.169556E-05, -303.0261, 0.4382133, 0
NKF1, 21794591, 0.76, 0.6, 0.06, -0.003350587, -0.006202618, -0.007482126, 0, 0, 0, -0.07616138, 0, -0.01, 0
NKF2, 21794591, -1, 0, 0, 0, 0, 0, 0, 0, 0, 0, 0, 0, 0
NKF3, 21794591, 0, 0, 0, 0, -0.01, 0, 0, 0, 0, 0, 0
NKF4, 21794591, 0, 0, 0, 0, 0, 6.376846E-07, 0, 0, 0, 19, 229, 0, 0
NKF5, 21794591, 0, 0, 0, 0, 0.2, 0.13, 0, 0.19, 0.5, 3.484754E-05, 0.0005357897, 0.001240475
NKQ1, 21794591, 0.9999238, 0.002090817, 0.01216495, 0.0005035131
AHR2, 21794634, 0.76, 0.57, 0.03, 0.15, 0, 0, 0.9999648, 0.00670202, 0.005042524, 0.0002952412
MOTB, 21794642, 1, 1, 0, 1
RCIN, 21794646, 0, 0, 0, 0, 0, 0, 0, 0, 0, 0, 0, 0, 0, 0
RCOU, 21794652, 1101, 1101, 1101, 1101, 0, 0, 0, 0, 0, 0, 0, 0, 0, 0
VIBE, 21794660, 0.01863765, 0.01940622, 0.03362432, 0, 0, 0
CTRL, 21794667, 0.008075336, 0.00014858, 0.006415871, 0.0001528329, 5.143618E-05
PRX, 21794699, 2, 0.56, 0, 0.63, 0, 3.6, 0, 2.45, 0, 0, 0, 0.56
IMU, 21812873, 0.002164752, -0.0006930878, -0.0002736669, 0.2323576, -0.039416, -9.821357, 0, 0, 36.72766, 1, 1, 1000, 1000
RFND, 21841819, 0.2, 25, 0, 0
IMU, 21851921, -0.0008910226, 0.000385597, 0.0006052156, 0.2460077, -0.04000019, -9.813158, 0, 0, 36.72816, 1, 1, 1000, 1000
MAG, 21891850, 421, 500, 313, 0, 0, 0, 0, 0, 0, 1, 21891842
RFND, 21891886, 0.2, 25, 0, 0
BARO, 21891923, 0.1411072, 992.6833, 34.85, 0.1505889, 21891, 0, 34.61
CTUN, 21891935, 0, 0, 0, 0.4878387, 0.07632301, 0.07632301, 0.14, 0, 0.19, 0, 0, 0
DU32, 21891974, 7, 50389208
IMU, 21892102, -0.001109277, 0.0001018038, 0.0007712043, 0.2392705, -0.04197639, -9.804786, 0, 0, 36.72857, 1, 1, 1000, 1000
ATT, 21894783, 0, 0.75, 0, 0.6, 0.05, 0.06, 0, 1
RATE, 21894794, -3.418062, -0.06769262, -0.007652031, -2.7377, 0.01332221, -0.006250678, 0.01747882, 0.05044413, -5.242489E-06, -287.5457, -1.126099, 0
NKF1, 21894801, 0.75, 0.6, 0.06, -0.003015376, -0.006307635, -0.007099892, 0, 0, 0, -0.07623097, 0, -0.01, 0
NKF2, 21894801, -1, 0, 0, 0, 0, 0, 0, 0, 0, 0, 0, 0, 0
NKF3, 21894801, 0, 0, 0, 0, -0.01, 0, 0, 0, 0, 0, 0
NKF4, 21894801, 0, 0, 0, 0, 0, 6.976691E-07, 0, 0, 0, 19, 229, 0, 0
NKF5, 21894801, 0, 0, 0, 0, 0.2, 0.13, 0, 0.19, 0.5, 3.404955E-05, 0.000689137, 0.001678037
NKQ1, 21894801, 0.9999233, 0.00207669, 0.01219429, 0.0005237215
AHR2, 21894844, 0.76, 0.58, 0.04, 0.14, 0, 0, 0.9999648, 0.006684255, 0.005064093, 0.0003153968
MOTB, 21894851, 1, 1, 0, 1
RCIN, 21894855, 0, 0, 0, 0, 0, 0, 0, 0, 0, 0, 0, 0, 0, 0
RCOU, 21894861, 1101, 1101, 1101, 1101, 0, 0, 0, 0, 0, 0, 0, 0, 0, 0
VIBE, 21894869, 0.02115703, 0.01673189, 0.03036167, 0, 0, 0
CTRL, 21894876, 0.008071383, 0.0002056307, 0.006453509, 0.00015846, 5.305536E-05
PRX, 21894908, 2, 0.56, 0, 0.63, 0, 3.6, 0, 2.45, 0, 0, 0, 0.56
IMU, 21932308, 0.001458432, 0.0004853961, 0.0002964772, 0.2292556, -0.03962232, -9.800651, 0, 0, 36.72924, 1, 1, 1000, 1000
RFND, 21941820, 0.2, 25, 0, 0
EV, 21961586, 57
IMU, 21972375, 0.0004348496, -6.08844E-05, 0.001807689, 0.2432017, -0.03463941, -9.807198, 0, 0, 36.72948, 1, 1, 1000, 1000
MAG, 21991829, 418, 501, 312, 0, 0, 0, 0, 0, 0, 1, 21991820
RFND, 21991864, 0.2, 25, 0, 0
BARO, 21991901, 0.1269965, 992.685, 34.85, 0.1781478, 21991, 0, 34.61
CTUN, 21991914, 0, 0, 0, 0.4878387, 0.07612027, 0.07612027, 0.12, 0, 0.19, 0, 0, 0
ATT, 21994604, 0, 0.75, 0, 0.6, 0.05, 0.06, 0, 1
RATE, 21994615, -3.416594, -0.01828743, -0.007718762, -2.745317, 0.001761968, -0.006482052, 0.01818441, -0.03308896, -4.467835E-05, -246.6429, -0.1344681, 0
NKF1, 21994623, 0.75, 0.6, 0.06, -0.002918233, -0.006528587, -0.006089949, 0, 0, 0, -0.07606136, 0, -0.01, 0
NKF2, 21994623, -1, 0, 0, 0, 0, 0, 0, 0, 0, 0, 0, 0, 0
NKF3, 21994623, 0, 0, 0, 0, -0.01, 0, 0, 0, 0, 0, 0
NKF4, 21994623, 0, 0, 0, 0, 0, 8.036796E-07, 0, 0, 0, 19, 229, 0, 0
NKF5, 21994623, 0, 0, 0, 0, 0.2, 0.13, 0, 0.19, 0.5, 3.426899E-05, 0.000459302, 0.001039807
NKQ1, 21994623, 0.9999232, 0.002075441, 0.01220708, 0.0005461072
AHR2, 21994668, 0.76, 0.58, 0.04, 0.12, 0, 0, 0.9999648, 0.006680867, 0.005069434, 0.0003377238
MOTB, 21994676, 1, 1, 0, 1
RCIN, 21994680, 0, 0, 0, 0, 0, 0, 0, 0, 0, 0, 0, 0, 0, 0
RCOU, 21994686, 1108, 1108, 1108, 1108, 0, 0, 0, 0, 0, 0, 0, 0, 0, 0
VIBE, 21994694, 0.02183257, 0.02151156, 0.03157716, 0, 0, 0
CTRL, 21994700, 0.008071335, 0.0002213588, 0.00646217, 0.0001616752, 4.998289E-05
PRX, 21994731, 2, 0.56, 0, 0.63, 0, 3.6, 0, 2.44, 0, 0, 0, 0.56
IMU, 22011902, 0.001470704, -0.0002625927, 0.0004081693, 0.2360999, -0.03820729, -9.81018, 0, 0, 36.72989, 1, 1, 1000, 1000
RFND, 22041829, 0.2, 25, 0, 0
IMU, 22051900, -0.0007642623, -0.0004952946, 0.0006266041, 0.2312435, -0.04465675, -9.804729, 0, 0, 36.73008, 1, 1, 1000, 1000
MAG, 22092769, 421, 504, 313, 0, 0, 0, 0, 0, 0, 1, 22092760
RFND, 22092804, 0.2, 25, 0, 0
BARO, 22092842, 0.02822144, 992.6959, 34.85, 0.065513, 22092, 0, 34.61
CTUN, 22092855, 0, 0, 0, 0.4878387, 0.07595631, 0.07595631, 0.02, 0, 0.19, 0, 0, 0
IMU, 22092930, -0.0006959669, 0.0001788393, -0.0004272753, 0.2325728, -0.04714774, -9.827584, 0, 0, 36.73051, 1, 1, 999, 999
ATT, 22095567, 0, 0.76, 0, 0.6, 0.05, 0.06, 0, 1
RATE, 22095578, -3.421735, -0.04648174, -0.007715174, -2.74469, 0.030242, -0.006663763, 0.0182016, -0.02181444, 1.201121E-05, -227.0571, 1.100159, 0
NKF1, 22095586, 0.76, 0.6, 0.06, -0.003363999, -0.006407621, -0.005606349, 0, 0, 0, -0.07587602, 0, -0.01, 0
NKF2, 22095586, -1, 0, 0, 0, 0, 0, 0, 0, 0, 0, 0, 0, 0
NKF3, 22095586, 0, 0, 0, 0, -0.01, 0, 0, 0, 0, 0, 0
NKF4, 22095586, 0, 0, 0, 0, 0, 8.979868E-07, 0, 0, 0, 19, 229, 0, 0
NKF5, 22095586, 0, 0, 0, 0, 0.2, 0.13, 0, 0.19, 0.5, 3.351251E-05, 0.0005696827, 0.001383499
NKQ1, 22095586, 0.9999232, 0.002083899, 0.01220526, 0.0005571735
AHR2, 22095629, 0.76, 0.57, 0.04, 0.02, 0, 0, 0.9999648, 0.006691818, 0.005061425, 0.0003487476
MOTB, 22095636, 1, 1, 0, 1
RCIN, 22095641, 0, 0, 0, 0, 0, 0, 0, 0, 0, 0, 0, 0, 0, 0
RCOU, 22095647, 1132, 1132, 1132, 1132, 0, 0, 0, 0, 0, 0, 0, 0, 0, 0
VIBE, 22095654, 0.02316796, 0.02037476, 0.03224803, 0, 0, 0
CTRL, 22095661, 0.008077638, 0.0002264628, 0.006459042, 0.000141884, 4.291234E-05
PRX, 22095693, 2, 0.56, 0, 0.63, 0, 3.6, 0, 2.46, 0, 0, 0, 0.56
IMU, 22132867, 0.0004805698, -0.0007459801, 0.0004118595, 0.2376865, -0.03198252, -9.817533, 0, 0, 36.73095, 1, 1, 999, 999
RFND, 22142791, 0.2, 25, 0, 0
IMU, 22172900, -0.0008212992, 0.001139416, 0.0001641525, 0.2349307, -0.03788839, -9.818339, 0, 0, 36.73116, 1, 1, 999, 999
MAG, 22192814, 415, 499, 308, 0, 0, 0, 0, 0, 0, 1, 22192806
RFND, 22192850, 0.2, 25, 0, 0
BARO, 22192887, -0.005644287, 992.6992, 34.85, -0.1860323, 22192, 0, 34.61
CTUN, 22192899, 0, 0, 0, 0.4878387, 0.07574869, 0.07574869, 0, 0, 0.19, 0, 0, 0
ATT, 22195646, 0, 0.76, 0, 0.61, 0.05, 0.06, 0, 1
RATE, 22195655, -3.423114, 0.02083256, -0.00814891, -2.75307, 0.01786997, -0.0065034, 0.01826779, -0.00495878, 2.539976E-05, -253.2573, 2.452374, 0
NKF1, 22195664, 0.76, 0.61, 0.06, -0.003773615, -0.006002446, -0.006253267, 0, 0, 0, -0.075696, 0, -0.01, 0
NKF2, 22195664, -1, 0, 0, 0, 0, 0, 0, 0, 0, 0, 0, 0, 0
NKF3, 22195664, 0, 0, 0, 0, -0.01, 0, 0, 0, 0, 0, 0
NKF4, 22195664, 0, 0, 0, 0, 0, 1.003547E-06, 0, 0, 0, 19, 229, 0, 0
NKF5, 22195664, 0, 0, 0, 0, 0.2, 0.13, 0, 0.19, 0.5, 3.391176E-05, 0.0003802626, 0.000823565
NKQ1, 22195664, 0.999923, 0.00208656, 0.01222235, 0.0005678523
AHR2, 22195706, 0.76, 0.58, 0.04, 0, 0, 0, 0.9999647, 0.006696107, 0.005071664, 0.0003593391
MOTB, 22195713, 1, 1, 0, 1
RCIN, 22195717, 0, 0, 0, 0, 0, 0, 0, 0, 0, 0, 0, 0, 0, 0
RCOU, 22195723, 1156, 1156, 1156, 1156, 0, 0, 0, 0, 0, 0, 0, 0, 0, 0
VIBE, 22195730, 0.01987146, 0.01910556, 0.03581657, 0, 0, 0
CTRL, 22195738, 0.008075205, 0.0002093798, 0.006480493, 0.0001623888, 3.668293E-05
PRX, 22195768, 2, 0.56, 0, 0.63, 0, 3.6, 0, 2.46, 0, 0, 0, 0.56
IMU, 22212864, -0.0004724092, 0.0004996096, 0.0002376953, 0.2417021, -0.03674003, -9.822893, 0, 0, 36.73148, 1, 1, 999, 999
RFND, 22242748, 0.2, 25, 0, 0
IMU, 22252912, -0.0004560343, -0.0009541811, -4.74256E-05, 0.2449474, -0.0382219, -9.817885, 0, 0, 36.73164, 1, 1, 999, 999
MAG, 22292807, 418, 500, 314, 0, 0, 0, 0, 0, 0, 1, 22292799
RFND, 22292842, 0.2, 25, 0, 0
BARO, 22292877, 0.01128857, 992.6976, 34.85, -0.4113507, 22292, 0, 34.61
CTUN, 22292890, 0, 0, 0, 0.4878387, 0.07561687, 0.07561687, 0.01, 0, 0.19, 0, 0, 0
IMU, 22292969, 0.000652265, 0.001096236, 0.004730381, 0.2346345, -0.04545736, -9.823326, 0, 0, 36.73224, 1, 1, 999, 999
ATT, 22295549, 0, 0.76, 0, 0.61, 0.06, 0.07, 0, 1
RATE, 22295560, -3.430126, 0.0362602, -0.0081381, -2.751544, 0.06031647, -0.00654873, 0.01830471, 0.3056974, 5.637666E-05, -258.7735, 0.614357, 0
NKF1, 22295568, 0.76, 0.61, 0.07, -0.003352489, -0.006002495, -0.006389468, 0, 0, 0, -0.07554566, 0, -0.01, 0
NKF2, 22295568, -1, 0, 0, 0, 0, 0, 0, 0, 0, 0, 0, 0, 0
NKF3, 22295568, 0, 0, 0, 0, -0.01, 0, 0, 0, 0, 0, 0
NKF4, 22295568, 0, 0, 0, 0, 0, 1.122507E-06, 0, 0, 0, 19, 229, 0, 0
NKF5, 22295568, 0, 0, 0, 0, 0.2, 0.13, 0, 0.19, 0.5, 3.287157E-05, 0.0004620656, 0.001115972
NKQ1, 22295568, 0.9999229, 0.002093409, 0.01222743, 0.0005917592
AHR2, 22295612, 0.76, 0.58, 0.04, 0.01, 0, 0, 0.9999647, 0.006702214, 0.00506774, 0.0003831874
MOTB, 22295619, 1, 1, 0, 1
RCIN, 22295624, 0, 0, 0, 0, 0, 0, 0, 0, 0, 0, 0, 0, 0, 0
RCOU, 22295629, 1180, 1180, 1180, 1180, 0, 0, 0, 0, 0, 0, 0, 0, 0, 0
VIBE, 22295637, 0.02751042, 0.02840105, 0.04537864, 0, 0, 0
CTRL, 22295645, 0.008078909, 0.0001949621, 0.006489947, 0.0001781516, 5.71263E-05
PRX, 22295676, 2, 0.56, 0, 0.64, 0, 3.6, 0, 2.45, 0, 0, 0, 0.56
IMU, 22332882, 0.0007674729, -0.001115943, -0.008881456, 0.2476611, -0.01894714, -9.823359, 0, 0, 36.7327, 1, 1, 999, 999
RFND, 22342786, 0.2, 25, 0, 0
IMU, 22372851, -0.002764828, 0.004846211, 0.03825004, 0.248631, 0.0421593, -9.847836, 0, 0, 36.73319, 1, 1, 999, 999
MAG, 22392818, 426, 500, 314, 0, 0, 0, 0, 0, 0, 1, 22392810
RFND, 22392854, 0.2, 25, 0, 0
BARO, 22392891, 0.05926501, 992.6923, 34.86, -0.3989045, 22392, 0, 34.61
CTUN, 22392904, 0, 0, 0, 0.4878387, 0.07550131, 0.07550131, 0.05, 0, 0.19, 0, 0, 0
ATT, 22395612, 0, 0.75, 0, 0.61, 0.08, 0.09, 0, 1
RATE, 22395623, -3.392535, -0.1248445, -0.007243096, -2.79787, -0.1680998, -0.004484161, 0.01835724, -1.464304, -0.001042984, -255.7762, 0.07162094, 0
NKF1, 22395630, 0.75, 0.61, 0.09, -0.003758322, -0.007774751, -0.006315462, 0, 0, 0, -0.07545403, 0, -0.01, 0
NKF2, 22395630, -1, 0, 0, 0, 0, 0, 0, 0, 0, 0, 0, 0, 0
NKF3, 22395630, 0, 0, 0, 0, -0.01, 0, 0, 0, 0, 0, 0
NKF4, 22395630, 0, 0, 0, 0, 0, 1.237557E-06, 0, 0, 0, 19, 229, 0, 0
NKF5, 22395630, 0, 0, 0, 0, 0.2, 0.13, 0, 0.19, 0.5, 3.357588E-05, 0.0003198378, 0.000637305
NKQ1, 22395630, 0.9999223, 0.002054838, 0.01227226, 0.0007991091
AHR2, 22395674, 0.76, 0.58, 0.07, 0.05, 0, 0, 0.9999647, 0.006661661, 0.005104341, 0.0005905826
MOTB, 22395681, 1, 1, 0, 1
RCIN, 22395686, 0, 0, 0, 0, 0, 0, 0, 0, 0, 0, 0, 0, 0, 0
RCOU, 22395692, 1204, 1204, 1204, 1204, 0, 0, 0, 0, 0, 0, 0, 0, 0, 0
VIBE, 22395699, 0.1921799, 0.2661006, 0.2490368, 0, 0, 0
CTRL, 22395706, 0.008036654, 0.0003853235, 0.006572215, 0.0005186629, 0.0006270128
PRX, 22395738, 2, 0.56, 0, 0.64, 0, 3.6, 0, 2.45, 0, 0, 0, 0.56
IMU, 22412992, 0.0003590715, 0.001839855, -0.002060268, 0.357035, -0.06720495, -9.780674, 0, 0, 36.73339, 1, 1, 999, 999
RFND, 22442784, 0.2, 25, 0, 0
IMU, 22452977, 0.002108971, -0.0007654662, -0.01622901, 0.2367151, -0.03967748, -9.813628, 0, 0, 36.73367, 1, 1, 999, 999
MAG, 22492768, 420, 497, 312, 0, 0, 0, 0, 0, 0, 1, 22492760
RFND, 22492869, 0.2, 25, 0, 0
BARO, 22492909, 0.1354629, 992.6841, 34.86, -0.1126717, 22492, 0, 34.61
CTUN, 22492921, 0, 0, 0, 0.4878387, 0.07531133, 0.07531133, 0.13, 0, 0.19, 0, 0, 0
IMU, 22492997, -0.003145667, 0.003884779, 0.01318845, 0.2195575, -0.05926032, -9.837392, 0, 0, 36.73379, 1, 1, 999, 999
ATT, 22495554, 0, 0.74, 0, 0.62, 0.08, 0.09, 0, 1
RATE, 22495622, -3.381711, -0.1568826, -0.007765807, -2.826331, 0.1585374, -0.00644007, 0.01854526, 0.6989874, -0.0001885551, -218.2459, 1.653862, 0
NKF1, 22495631, 0.74, 0.62, 0.09, -0.003495055, -0.004978828, -0.005388787, 0, 0, 0, -0.07524588, 0, -0.01, 0
NKF2, 22495631, -1, 0, 0, 0, 0, 0, 0, 0, 0, 0, 0, 0, 0
NKF3, 22495631, 0, 0, 0, 0, -0.01, 0, 0, 0, 0, 0, 0
NKF4, 22495631, 0, 0, 0, 0, 0, 1.38136E-06, 0, 0, 0, 19, 229, 0, 0
NKF5, 22495631, 0, 0, 0, 0, 0.2, 0.13, 0, 0.19, 0.5, 3.239732E-05, 0.0003674387, 0.0008572902
NKQ1, 22495631, 0.999921, 0.001987643, 0.01238259, 0.000839322
AHR2, 22495675, 0.75, 0.59, 0.07, 0.13, 0, 0, 0.9999646, 0.006583973, 0.005205514, 0.0006307053
MOTB, 22495682, 1, 1, 0, 1
RCIN, 22495687, 0, 0, 0, 0, 0, 0, 0, 0, 0, 0, 0, 0, 0, 0
RCOU, 22495693, 1234, 1232, 1221, 1245, 0, 0, 0, 0, 0, 0, 0, 0, 0, 0
VIBE, 22495701, 0.36219, 0.4180194, 0.3995484, 0, 0, 0
CTRL, 22495708, 0.007973295, 0.0004913365, 0.006684073, 0.000591972, 0.0005570401
PRX, 22495740, 2, 0.56, 0, 0.64, 0, 3.6, 0, 2.47, 0, 0, 0, 0.56
IMU, 22532801, -0.004484983, -0.001516301, 0.004606522, 0.2611429, -0.02113012, -9.827209, 0, 0, 36.73381, 1, 1, 999, 999
RFND, 22542803, 0.2, 25, 0, 0
IMU, 22572823, -0.004410564, 0.00296798, -0.01941979, 0.2616418, 0.02631378, -9.759687, 0, 0, 36.73401, 1, 1, 999, 999
MAG, 22592768, 418, 502, 317, 0, 0, 0, 0, 0, 0, 1, 22592760
RFND, 22592804, 0.2, 25, 0, 0
BARO, 22592839, 0.1044193, 992.6875, 34.86, 0.228429, 22592, 0, 34.61
CTUN, 22592852, 0, 0, 0, 0.4878387, 0.07521991, 0.07521991, 0.1, 0, 0.19, 0, 0, 0
ATT, 22595515, 0, 0.74, 0, 0.64, 0.07, 0.08, 0, 1
RATE, 22595525, -3.366771, 0.00899695, -0.009896071, -2.867803, 0.2564099, -0.007839949, 0.01875329, 1.503964, 0.0002213421, -184.184, -1.661587, 0
NKF1, 22595533, 0.74, 0.64, 0.08, -0.004043223, -0.004282383, -0.004547752, 0, 0, 0, -0.07517505, 0, -0.01, 0
NKF2, 22595533, -1, 0, 0, 0, 0, 0, 0, 0, 0, 0, 0, 0, 0
NKF3, 22595533, 0, 0, 0, 0, -0.01, 0, 0, 0, 0, 0, 0
NKF4, 22595533, 0, 0, 0, 0, 0, 1.501245E-06, 0, 0, 0, 19, 229, 0, 0
NKF5, 22595533, 0, 0, 0, 0, 0.2, 0.13, 0, 0.19, 0.5, 3.310783E-05, 0.0002739138, 0.0004832635
NKQ1, 22595533, 0.99992, 0.001942505, 0.01248336, 0.0007472198
AHR2, 22595576, 0.74, 0.6, 0.06, 0.09999999, 0, 0, 0.9999645, 0.006529697, 0.005298502, 0.0005384117
MOTB, 22595582, 1, 1, 0, 1
RCIN, 22595587, 0, 0, 0, 0, 0, 0, 0, 0, 0, 0, 0, 0, 0, 0
RCOU, 22595592, 1238, 1235, 1221, 1250, 0, 0, 0, 0, 0, 0, 0, 0, 0, 0
VIBE, 22595600, 0.3758505, 0.3420145, 0.3664862, 0, 0, 0
CTRL, 22595607, 0.007884326, 0.0007677008, 0.006775008, 0.0005556808, 0.0006028797
PRX, 22595639, 2, 0.56, 0, 0.63, 0, 3.6, 0, 2.47, 0, 0, 0, 0.56
IMU, 22613191, -0.0002858128, 0.00350264, -0.005695565, 0.2098526, -0.04055054, -9.877044, 0, 0, 36.73404, 1, 1, 999, 999
RFND, 22642814, 0.2, 25, 0, 0
IMU, 22652801, -0.0006907751, 0.005340931, -0.01068811, 0.2734973, -0.04364674, -9.821825, 0, 0, 36.73383, 1, 1, 999, 999
MAG, 22692748, 419, 502, 301, 0, 0, 0, 0, 0, 0, 1, 22692740
RFND, 22692786, 0.2, 25, 0, 0
BARO, 22692821, -0.02257715, 992.7014, 34.86, 0.3157273, 22692, 0, 34.61
CTUN, 22692833, 0, 0, 0, 0.4878387, 0.07498676, 0.07498676, -0.02, 0, 0.19, 0, 0, 0
IMU, 22692908, -0.002099767, -0.0006859567, 0.01216397, 0.2986134, -0.05119472, -9.778455, 0, 0, 36.73389, 1, 1, 999, 999
ATT, 22695548, 0, 0.73, 0, 0.65, 0.07, 0.08, 0, 1
RATE, 22695559, -3.331733, -0.170146, -0.006586032, -2.924669, -0.004536247, -0.007119983, 0.01890571, 0.8314268, 0.0002279377, -252.9857, -0.7214546, 0
NKF1, 22695567, 0.73, 0.65, 0.08, -0.004164368, -0.004545096, -0.006246561, 0, 0, 0, -0.07492898, 0, -0.01, 0
NKF2, 22695567, -1, 0, 0, 0, 0, 0, 0, 0, 0, 0, 0, 0, 0
NKF3, 22695567, 0, 0, 0, 0, -0.01, 0, 0, 0, 0, 0, 0
NKF4, 22695567, 0, 0, 0, 0, 0, 1.6721E-06, 0, 0, 0, 19, 229, 0, 0
NKF5, 22695567, 0, 0, 0, 0, 0.2, 0.13, 0, 0.19, 0.5, 3.190528E-05, 0.0002851454, 0.0006552298
NKQ1, 22695567, 0.9999189, 0.001888676, 0.012576, 0.0007169687
AHR2, 22695611, 0.74, 0.61, 0.06, -0.02, 0, 0, 0.9999644, 0.006474718, 0.005391026, 0.0005080543
MOTB, 22695619, 1, 1, 0, 1
RCIN, 22695623, 0, 0, 0, 0, 0, 0, 0, 0, 0, 0, 0, 0, 0, 0
RCOU, 22695629, 1233, 1233, 1221, 1244, 0, 0, 0, 0, 0, 0, 0, 0, 0, 0
VIBE, 22695637, 0.4421408, 0.3602394, 0.4196711, 0, 0, 0
CTRL, 22695644, 0.00789221, 0.0007626427, 0.006919144, 0.0007503966, 0.0005378633
PRX, 22695676, 2, 0.56, 0, 0.63, 0, 3.6, 0, 2.44, 0, 0, 0, 0.56
IMU, 22732892, -0.0003445111, 0.005120337, 0.009303821, 0.2781236, 0.007367685, -9.765221, 0, 0, 36.73455, 1, 1, 999, 999
RFND, 22742812, 0.2, 25, 0, 0
IMU, 22772879, 0.0009569264, 0.008318252, 0.007244105, 0.3603052, -0.04432332, -9.802608, 0, 0, 36.73456, 1, 1, 999, 999
MAG, 22792764, 418, 496, 314, 0, 0, 0, 0, 0, 0, 1, 22792756
RFND, 22792801, 0.2, 25, 0, 0
BARO, 22792837, -0.05644287, 992.7051, 34.86, 0.01234687, 22792, 0, 34.61
CTUN, 22792850, 0, 0, 0, 0.4878387, 0.07491416, 0.07491416, -0.05, 0, 0.19, 0, 0, 0
ATT, 22795510, 0, 0.74, 0, 0.65, 0.07, 0.08, 0, 1
RATE, 22795520, -3.343354, -0.2670705, -0.004476824, -2.963981, -0.3916422, -0.002948929, 0.01921169, -0.1358109, 0.0001384226, -196.1368, -2.477551, 0
NKF1, 22795528, 0.74, 0.65, 0.08, -0.004647755, -0.004299884, -0.004842884, 0, 0, 0, -0.07483988, 0, -0.01, 0
NKF2, 22795528, -1, 0, 0, 0, 0, 0, 0, 0, 0, 0, 0, 0, 0
NKF3, 22795528, 0, 0, 0, 0, -0.01, 0, 0, 0, 0, 0, 0
NKF4, 22795528, 0, 0, 0, 0, 0, 1.808182E-06, 0, 0, 0, 19, 229, 0, 0
NKF5, 22795528, 0, 0, 0, 0, 0.2, 0.13, 0, 0.19, 0.5, 3.050665E-05, 0.0004116271, 0.001040288
NKQ1, 22795528, 0.9999181, 0.00193309, 0.0126285, 0.0007136083
AHR2, 22795571, 0.74, 0.62, 0.06, -0.05, 0, 0, 0.9999638, 0.006518026, 0.00543938, 0.0005041478
MOTB, 22795578, 1, 1, 0, 1
RCIN, 22795582, 0, 0, 0, 0, 0, 0, 0, 0, 0, 0, 0, 0, 0, 0
RCOU, 22795588, 1229, 1226, 1221, 1234, 0, 0, 0, 0, 0, 0, 0, 0, 0, 0
VIBE, 22795596, 0.4037607, 0.3285077, 0.3802222, 0, 0, 0
CTRL, 22795602, 0.007939856, 0.0009537861, 0.007053624, 0.001087326, 0.0004499058
PRX, 22795634, 2, 0.56, 0, 0.64, 0, 3.6, 0, 2.47, 0, 0, 0, 0.56
IMU, 22812850, -0.001881543, 0.002746989, 0.02840677, 0.3104661, -0.1022724, -9.815099, 0, 0, 36.73443, 1, 1, 999, 999
RFND, 22842742, 0.2, 25, 0, 0
IMU, 22852806, 0.003650628, 0.003604569, -0.01625762, 0.3472139, 0.05298878, -9.7816, 0, 0, 36.73447, 1, 1, 999, 999
MAG, 22892834, 417, 501, 312, 0, 0, 0, 0, 0, 0, 1, 22892825
RFND, 22892871, 0.2, 25, 0, 0
BARO, 22892907, -0.02822144, 992.702, 34.87, -0.4039193, 22892, 0, 34.61
CTUN, 22892921, 0, 0, 0, 0.4878387, 0.07471129, 0.07471129, -0.02, 0, 0.19, 0, 0, 0
DU32, 22892963, 7, 33611992
IMU, 22893058, 0.007264671, 0.00133635, -0.008055646, 0.1692349, 0.009862033, -9.834607, 0, 0, 36.73457, 1, 1, 999, 999
ATT, 22895577, 0, 0.74, 0, 0.67, 0.07, 0.08, 0, 1
RATE, 22895587, -3.33398, 0.1076106, -0.007202423, -3.029986, 0.04987674, -0.007156099, 0.01958709, 0.1127563, 0.0004318573, -219.0139, -2.882671, 0
NKF1, 22895595, 0.74, 0.67, 0.08, -0.007070825, -0.004109911, -0.005407749, 0, 0, 0, -0.07466332, 0, -0.01, 0
NKF2, 22895595, -1, 0, 0, 0, 0, 0, 0, 0, 0, 0, 0, 0, 0
NKF3, 22895595, 0, 0, 0, 0, -0.01, 0, 0, 0, 0, 0, 0
NKF4, 22895595, 0, 0, 0, 0, 0, 1.995602E-06, 0, 0, 0, 19, 229, 0, 0
NKF5, 22895595, 0, 0, 0, 0, 0.2, 0.13, 0, 0.19, 0.5, 3.128499E-05, 0.0002179694, 0.0004290622
NKQ1, 22895595, 0.9999165, 0.001909047, 0.01276232, 0.0006979768
AHR2, 22895637, 0.74, 0.63, 0.06, -0.02, 0, 0, 0.9999634, 0.006491998, 0.005551815, 0.000488164
MOTB, 22895645, 1, 1, 0, 1
RCIN, 22895649, 0, 0, 0, 0, 0, 0, 0, 0, 0, 0, 0, 0, 0, 0
RCOU, 22895654, 1234, 1234, 1221, 1245, 0, 0, 0, 0, 0, 0, 0, 0, 0, 0
VIBE, 22895662, 0.451, 0.4298139, 0.4549568, 0, 0, 0
CTRL, 22895669, 0.007939747, 0.001164055, 0.00716519, 0.0009833751, 0.0005264807
PRX, 22895700, 2, 0.55, 0, 0.63, 0, 3.6, 0, 2.45, 0, 0, 0, 0.55
IMU, 22932924, 0.001612276, 0.0001357641, -0.02554902, 0.1460366, -0.0540995, -9.851566, 0, 0, 36.73465, 1, 1, 999, 999
RFND, 22942781, 0.2, 25, 0, 0
IMU, 22972841, -0.01369568, -0.006518059, 0.0109635, 0.2483618, -0.02890737, -9.843916, 0, 0, 36.73463, 1, 1, 999, 999
MAG, 22992811, 422, 501, 311, 0, 0, 0, 0, 0, 0, 1, 22992803
RFND, 22992847, 0.2, 25, 0, 0
BARO, 22992883, 0.07337573, 992.6909, 34.87, -0.4515429, 22992, 0, 34.61
CTUN, 22992895, 0, 0, 0, 0.4878387, 0.07465065, 0.07465065, 0.07, 0, 0.19, 0, 0, 0
ATT, 22995657, 0, 0.74, 0, 0.66, 0.07, 0.08, 0, 1
RATE, 22995668, -3.326289, 0.6458353, -0.01320721, -3.010927, 0.1282869, -0.008041269, 0.01940649, -0.752562, -0.0001433795, -262.0606, 2.396488, 0
NKF1, 22995677, 0.74, 0.66, 0.08, -0.006626653, -0.003812432, -0.006470632, 0, 0, 0, -0.07458902, 0, -0.01, 0
NKF2, 22995677, -1, 0, 0, 0, 0, 0, 0, 0, 0, 0, 0, 0, 0
NKF3, 22995677, 0, 0, 0, 0, -0.02, 0, 0, 0, 0, 0, 0
NKF4, 22995677, 0, 0, 0, 0, 0, 2.158315E-06, 0, 0, 0, 19, 229, 0, 0
NKF5, 22995677, 0, 0, 0, 0, 0.2, 0.13, 0, 0.19, 0.5, 2.971513E-05, 0.0003123349, 0.0007663794
NKQ1, 22995677, 0.9999173, 0.001913311, 0.01270396, 0.0007451988
AHR2, 22995722, 0.74, 0.62, 0.06, 0.07, 0, 0, 0.9999638, 0.006493905, 0.005473841, 0.0005357022
MOTB, 22995730, 1, 1, 0, 1
RCIN, 22995735, 0, 0, 0, 0, 0, 0, 0, 0, 0, 0, 0, 0, 0, 0
RCOU, 22995740, 1243, 1234, 1221, 1256, 0, 0, 0, 0, 0, 0, 0, 0, 0, 0
VIBE, 22995748, 0.4380129, 0.4098525, 0.3947872, 0, 0, 0
CTRL, 22995756, 0.007830208, 0.001532284, 0.007090688, 0.000967318, 0.0005740361
PRX, 22995787, 2, 0.56, 0, 0.63, 0, 3.6, 0, 2.46, 0, 0, 0, 0.56
IMU, 23012895, 0.004389327, -0.008959162, 0.008217255, 0.3597607, -0.09349172, -9.847606, 0, 0, 36.7347, 1, 1, 999, 999
RFND, 23043009, 0.2, 25, 0, 0
IMU, 23052810, 0.01150564, 0.001146493, -0.00734549, 0.2359799, 0.006664676, -9.790936, 0, 0, 36.73469, 1, 1, 999, 999
MAG, 23092785, 419, 500, 312, 0, 0, 0, 0, 0, 0, 1, 23092776
RFND, 23092821, 0.2, 25, 0, 0
