FMT, 128, 89, FMT, BBnNZ, Type,Length,Name,Format,Columns
FMT, 129, 31, PARM, QNf, TimeUS,Name,Value
FMT, 130, 46, GPS, QBIHBcLLefffB, TimeUS,Status,GMS,GWk,NSats,HDop,Lat,Lng,Alt,Spd,GCrs,VZ,U
FMT, 131, 46, GPS2, QBIHBcLLefffB, TimeUS,Status,GMS,GWk,NSats,HDop,Lat,Lng,Alt,Spd,GCrs,VZ,U
FMT, 132, 46, GPSB, QBIHBcLLefffB, TimeUS,Status,GMS,GWk,NSats,HDop,Lat,Lng,Alt,Spd,GCrs,VZ,U
FMT, 193, 24, GPA, QCCCCBI, TimeUS,VDop,HAcc,VAcc,SAcc,VV,SMS
FMT, 194, 24, GPA2, QCCCCBI, TimeUS,VDop,HAcc,VAcc,SAcc,VV,SMS
FMT, 195, 24, GPAB, QCCCCBI, TimeUS,VDop,HAcc,VAcc,SAcc,VV,SMS
FMT, 133, 53, IMU, QffffffIIfBBHH, TimeUS,GyrX,GyrY,GyrZ,AccX,AccY,AccZ,EG,EA,T,GH,AH,GHz,AHz
FMT, 134, 75, MSG, QZ, TimeUS,Message
FMT, 135, 39, RCIN, QHHHHHHHHHHHHHH, TimeUS,C1,C2,C3,C4,C5,C6,C7,C8,C9,C10,C11,C12,C13,C14
FMT, 136, 39, RCOU, QHHHHHHHHHHHHHH, TimeUS,C1,C2,C3,C4,C5,C6,C7,C8,C9,C10,C11,C12,C13,C14
FMT, 137, 15, RSSI, Qf, TimeUS,RXRSSI
FMT, 139, 37, BARO, QffcfIff, TimeUS,Alt,Press,Temp,CRt,SMS,Offset,GndTemp
FMT, 140, 22, POWR, QffHB, TimeUS,Vcc,VServo,Flags,Safety
FMT, 143, 45, CMD, QHHHfffffff, TimeUS,CTot,CNum,CId,Prm1,Prm2,Prm3,Prm4,Lat,Lng,Alt
FMT, 144, 20, RAD, QBBBBBHH, TimeUS,RSSI,RemRSSI,TxBuf,Noise,RemNoise,RxErrors,Fixed
FMT, 146, 43, CAM, QIHLLeeeccC, TimeUS,GPSTime,GPSWeek,Lat,Lng,Alt,RelAlt,GPSAlt,Roll,Pitch,Yaw
FMT, 232, 43, TRIG, QIHLLeeeccC, TimeUS,GPSTime,GPSWeek,Lat,Lng,Alt,RelAlt,GPSAlt,Roll,Pitch,Yaw
FMT, 162, 30, ARSP, QffcffB, TimeUS,Airspeed,DiffPress,Temp,RawPress,Offset,U
FMT, 164, 45, CURR, QfffcHHHHHHHHHH, TimeUS,Volt,Curr,CurrTot,Temp,V1,V2,V3,V4,V5,V6,V7,V8,V9,V10
FMT, 165, 45, CUR2, QfffcHHHHHHHHHH, TimeUS,Volt,Curr,CurrTot,Temp,V1,V2,V3,V4,V5,V6,V7,V8,V9,V10
FMT, 163, 27, ATT, QccccCCCC, TimeUS,DesRoll,Roll,DesPitch,Pitch,DesYaw,Yaw,ErrRP,ErrYaw
FMT, 166, 34, MAG, QhhhhhhhhhBI, TimeUS,MagX,MagY,MagZ,OfsX,OfsY,OfsZ,MOfsX,MOfsY,MOfsZ,Health,S
FMT, 169, 14, MODE, QMBB, TimeUS,Mode,ModeNum,Rsn
FMT, 196, 17, RFND, QCBCB, TimeUS,Dist1,Orient1,Dist2,Orient2
FMT, 223, 33, DMS, IIIIIBBBBBBBBBB, TimeMS,N,Dp,RT,RS,Er,Fa,Fmn,Fmx,Pa,Pmn,Pmx,Sa,Smn,Smx
FMT, 240, 41, BCN, QBBfffffff, TimeUS,Health,Cnt,D0,D1,D2,D3,PosX,PosY,PosZ
FMT, 138, 53, IMU2, QffffffIIfBBHH, TimeUS,GyrX,GyrY,GyrZ,AccX,AccY,AccZ,EG,EA,T,GH,AH,GHz,AHz
FMT, 147, 53, IMU3, QffffffIIfBBHH, TimeUS,GyrX,GyrY,GyrZ,AccX,AccY,AccZ,EG,EA,T,GH,AH,GHz,AHz
FMT, 141, 45, AHR2, QccCfLLffff, TimeUS,Roll,Pitch,Yaw,Alt,Lat,Lng,Q1,Q2,Q3,Q4
FMT, 180, 31, POS, QLLfff, TimeUS,Lat,Lng,Alt,RelHomeAlt,RelOriginAlt
FMT, 142, 45, SIM, QccCfLLffff, TimeUS,Roll,Pitch,Yaw,Alt,Lat,Lng,Q1,Q2,Q3,Q4
FMT, 198, 51, NKF1, QccCfffffffccc, TimeUS,Roll,Pitch,Yaw,VN,VE,VD,dPD,PN,PE,PD,GX,GY,GZ
FMT, 199, 35, NKF2, QbccccchhhhhhB, TimeUS,AZbias,GSX,GSY,GSZ,VWN,VWE,MN,ME,MD,MX,MY,MZ,MI
FMT, 200, 33, NKF3, Qcccccchhhcc, TimeUS,IVN,IVE,IVD,IPN,IPE,IPD,IMX,IMY,IMZ,IYAW,IVT
FMT, 201, 35, NKF4, QcccccfbbHBHHb, TimeUS,SV,SP,SH,SM,SVT,errRP,OFN,OFE,FS,TS,SS,GPS,PI
FMT, 202, 40, NKF5, QBhhhcccCCfff, TimeUS,NI,FIX,FIY,AFI,HAGL,offset,RI,rng,Herr,eAng,eVel,ePos
FMT, 203, 51, NKF6, QccCfffffffccc, TimeUS,Roll,Pitch,Yaw,VN,VE,VD,dPD,PN,PE,PD,GX,GY,GZ
FMT, 204, 35, NKF7, QbccccchhhhhhB, TimeUS,AZbias,GSX,GSY,GSZ,VWN,VWE,MN,ME,MD,MX,MY,MZ,MI
FMT, 205, 33, NKF8, Qcccccchhhcc, TimeUS,IVN,IVE,IVD,IPN,IPE,IPD,IMX,IMY,IMZ,IYAW,IVT
FMT, 206, 35, NKF9, QcccccfbbHBHHb, TimeUS,SV,SP,SH,SM,SVT,errRP,OFN,OFE,FS,TS,SS,GPS,PI
FMT, 207, 36, NKF0, QBccCCcccccccc, TimeUS,ID,rng,innov,SIV,TR,BPN,BPE,BPD,OFH,OFL,OFN,OFE,OFD
FMT, 208, 27, NKQ1, Qffff, TimeUS,Q1,Q2,Q3,Q4
FMT, 209, 27, NKQ2, Qffff, TimeUS,Q1,Q2,Q3,Q4
FMT, 210, 51, XKF1, QccCfffffffccc, TimeUS,Roll,Pitch,Yaw,VN,VE,VD,dPD,PN,PE,PD,GX,GY,GZ
FMT, 211, 34, XKF2, QccccchhhhhhB, TimeUS,AX,AY,AZ,VWN,VWE,MN,ME,MD,MX,MY,MZ,MI
FMT, 212, 33, XKF3, Qcccccchhhcc, TimeUS,IVN,IVE,IVD,IPN,IPE,IPD,IMX,IMY,IMZ,IYAW,IVT
FMT, 213, 35, XKF4, QcccccfbbHBHHb, TimeUS,SV,SP,SH,SM,SVT,errRP,OFN,OFE,FS,TS,SS,GPS,PI
FMT, 214, 40, XKF5, QBhhhcccCCfff, TimeUS,NI,FIX,FIY,AFI,HAGL,offset,RI,rng,Herr,eAng,eVel,ePos
FMT, 215, 51, XKF6, QccCfffffffccc, TimeUS,Roll,Pitch,Yaw,VN,VE,VD,dPD,PN,PE,PD,GX,GY,GZ
FMT, 216, 34, XKF7, QccccchhhhhhB, TimeUS,AX,AY,AZ,VWN,VWE,MN,ME,MD,MX,MY,MZ,MI
FMT, 217, 33, XKF8, Qcccccchhhcc, TimeUS,IVN,IVE,IVD,IPN,IPE,IPD,IMX,IMY,IMZ,IYAW,IVT
FMT, 218, 35, XKF9, QcccccfbbHBHHb, TimeUS,SV,SP,SH,SM,SVT,errRP,OFN,OFE,FS,TS,SS,GPS,PI
FMT, 219, 36, XKF0, QBccCCcccccccc, TimeUS,ID,rng,innov,SIV,TR,BPN,BPE,BPD,OFH,OFL,OFN,OFE,OFD
FMT, 220, 27, XKQ1, Qffff, TimeUS,Q1,Q2,Q3,Q4
FMT, 221, 27, XKQ2, Qffff, TimeUS,Q1,Q2,Q3,Q4
FMT, 222, 35, XKFD, Qffffff, TimeUS,IX,IY,IZ,IVX,IVY,IVZ
FMT, 148, 34, TERR, QBLLHffHH, TimeUS,Status,Lat,Lng,Spacing,TerrH,CHeight,Pending,Loaded
FMT, 149, 18, UBX1, QBHBBH, TimeUS,Instance,noisePerMS,jamInd,aPower,agcCnt
FMT, 150, 16, UBX2, QBbBbB, TimeUS,Instance,ofsI,magI,ofsQ,magQ
FMT, 151, 18, UBY1, QBHBBH, TimeUS,Instance,noisePerMS,jamInd,aPower,agcCnt
FMT, 152, 16, UBY2, QBbBbB, TimeUS,Instance,ofsI,magI,ofsQ,magQ
FMT, 170, 42, GRAW, QIHBBddfBbB, TimeUS,WkMS,Week,numSV,sv,cpMes,prMes,doMes,mesQI,cno,lli
FMT, 171, 24, GRXH, QdHbBB, TimeUS,rcvTime,week,leapS,numMeas,recStat
FMT, 172, 41, GRXS, QddfBBBHBBBBB, TimeUS,prMes,cpMes,doMes,gnss,sv,freq,lock,cno,prD,cpD,doD,trk
FMT, 173, 63, SBFE, QIHBBdddfffff, TimeUS,TOW,WN,Mode,Err,Lat,Lng,Height,Undul,Vn,Ve,Vu,COG
FMT, 153, 19, ESC1, Qcccc, TimeUS,RPM,Volt,Curr,Temp
FMT, 154, 19, ESC2, Qcccc, TimeUS,RPM,Volt,Curr,Temp
FMT, 155, 19, ESC3, Qcccc, TimeUS,RPM,Volt,Curr,Temp
FMT, 156, 19, ESC4, Qcccc, TimeUS,RPM,Volt,Curr,Temp
FMT, 157, 19, ESC5, Qcccc, TimeUS,RPM,Volt,Curr,Temp
FMT, 158, 19, ESC6, Qcccc, TimeUS,RPM,Volt,Curr,Temp
FMT, 159, 19, ESC7, Qcccc, TimeUS,RPM,Volt,Curr,Temp
FMT, 160, 19, ESC8, Qcccc, TimeUS,RPM,Volt,Curr,Temp
FMT, 167, 34, MAG2, QhhhhhhhhhBI, TimeUS,MagX,MagY,MagZ,OfsX,OfsY,OfsZ,MOfsX,MOfsY,MOfsZ,Health,S
FMT, 168, 34, MAG3, QhhhhhhhhhBI, TimeUS,MagX,MagY,MagZ,OfsX,OfsY,OfsZ,MOfsX,MOfsY,MOfsZ,Health,S
FMT, 174, 31, ACC1, QQfff, TimeUS,SampleUS,AccX,AccY,AccZ
FMT, 175, 31, ACC2, QQfff, TimeUS,SampleUS,AccX,AccY,AccZ
FMT, 176, 31, ACC3, QQfff, TimeUS,SampleUS,AccX,AccY,AccZ
FMT, 177, 31, GYR1, QQfff, TimeUS,SampleUS,GyrX,GyrY,GyrZ
FMT, 178, 31, GYR2, QQfff, TimeUS,SampleUS,GyrX,GyrY,GyrZ
FMT, 179, 31, GYR3, QQfff, TimeUS,SampleUS,GyrX,GyrY,GyrZ
FMT, 181, 35, PIDR, Qffffff, TimeUS,Des,P,I,D,FF,AFF
FMT, 182, 35, PIDP, Qffffff, TimeUS,Des,P,I,D,FF,AFF
FMT, 183, 35, PIDY, Qffffff, TimeUS,Des,P,I,D,FF,AFF
FMT, 184, 35, PIDA, Qffffff, TimeUS,Des,P,I,D,FF,AFF
FMT, 185, 35, PIDS, Qffffff, TimeUS,Des,P,I,D,FF,AFF
FMT, 186, 35, PIDL, Qffffff, TimeUS,Des,P,I,D,FF,AFF
FMT, 161, 37, BAR2, QffcfIff, TimeUS,Alt,Press,Temp,CRt,SMS,Offset,GndTemp
FMT, 197, 37, BAR3, QffcfIff, TimeUS,Alt,Press,Temp,CRt,SMS,Offset,GndTemp
FMT, 187, 35, VIBE, QfffIII, TimeUS,VibeX,VibeY,VibeZ,Clip0,Clip1,Clip2
FMT, 188, 47, IMT, Qfffffffff, TimeUS,DelT,DelvT,DelaT,DelAX,DelAY,DelAZ,DelVX,DelVY,DelVZ
FMT, 189, 47, IMT2, Qfffffffff, TimeUS,DelT,DelvT,DelaT,DelAX,DelAY,DelAZ,DelVX,DelVY,DelVZ
FMT, 190, 47, IMT3, Qfffffffff, TimeUS,DelT,DelvT,DelaT,DelAX,DelAY,DelAZ,DelVX,DelVY,DelVZ
FMT, 191, 24, ORGN, QBLLe, TimeUS,Type,Lat,Lng,Alt
FMT, 192, 19, RPM, Qff, TimeUS,rpm1,rpm2
FMT, 233, 47, GMB1, Iffffffffff, TimeMS,dt,dax,day,daz,dvx,dvy,dvz,jx,jy,jz
FMT, 234, 44, GMB2, IBfffffffff, TimeMS,es,ex,ey,ez,rx,ry,rz,tx,ty,tz
FMT, 235, 13, GMB3, Ihhh, TimeMS,rl_torque_cmd,el_torque_cmd,az_torque_cmd
FMT, 236, 59, RATE, Qffffffffffff, TimeUS,RDes,R,ROut,PDes,P,POut,YDes,Y,YOut,ADes,A,AOut
FMT, 237, 23, RALY, QBBLLh, TimeUS,Tot,Seq,Lat,Lng,Alt
FMT, 238, 43, VISO, Qffffffff, TimeUS,dt,AngDX,AngDY,AngDZ,PosDX,PosDY,PosDZ,conf
FMT, 224, 23, SBPH, QIII, TimeUS,CrcError,LastInject,IARhyp
FMT, 229, 80, SBR1, QHHBZ, TimeUS,msg_type,sender_id,msg_len,d1
FMT, 230, 205, SBR2, QHZZZ, TimeUS,msg_type,d2,d3,d4
FMT, 25, 41, ATUN, QBBfffffff, TimeUS,Axis,TuneStep,Targ,Min,Max,RP,RD,SP,ddt
FMT, 26, 19, ATDE, Qff, TimeUS,Angle,Rate
FMT, 31, 22, PTUN, QBfHHH, TimeUS,Param,TunVal,CtrlIn,TunLo,TunHi
FMT, 12, 28, OF, QBffff, TimeUS,Qual,flowX,flowY,bodyX,bodyY
FMT, 5, 51, NTUN, Qffffffffff, TimeUS,DPosX,DPosY,PosX,PosY,DVelX,DVelY,VelX,VelY,DAccX,DAccY
FMT, 4, 51, CTUN, Qffffffeccfhh, TimeUS,ThI,ABst,ThO,ThH,DAlt,Alt,BAlt,DSAlt,SAlt,TAlt,DCRt,CRt
FMT, 6, 32, PM, QHHIhBHII, TimeUS,NLon,NLoop,MaxT,PMT,I2CErr,INSErr,LogDrop,Mem
FMT, 30, 27, MOTB, Qffff, TimeUS,LiftMax,BatVolt,BatRes,ThLimit
FMT, 13, 12, EV, QB, TimeUS,Id
FMT, 20, 14, D16, QBh, TimeUS,Id,Value
FMT, 21, 14, DU16, QBH, TimeUS,Id,Value
FMT, 22, 16, D32, QBi, TimeUS,Id,Value
FMT, 23, 16, DU32, QBI, TimeUS,Id,Value
FMT, 24, 16, DFLT, QBf, TimeUS,Id,Value
FMT, 19, 13, ERR, QBB, TimeUS,Subsys,ECode
FMT, 32, 19, HELI, Qff, TimeUS,DRRPM,ERRPM
FMT, 33, 29, PL, QBBffff, TimeUS,Heal,TAcq,pX,pY,vX,vY
FMT, 34, 36, GUID, QBffffff, TimeUS,Type,pX,pY,pZ,vX,vY,vZ
FMT, 35, 32, THRO, QBffffbbbb, TimeUS,Stage,Vel,VelZ,Acc,AccEfZ,Throw,AttOk,HgtOk,PosOk
FMT, 36, 56, PRX, QBfffffffffff, TimeUS,Health,D0,D45,D90,D135,D180,D225,D270,D315,DUp,CAn,CDis
MODE, 33931266, 100, 100, 2
FMT, 254, 47, NKT1, QIffffffff, TimeUS,Cnt,IMUMin,IMUMax,EKFMin,EKFMax,AngMin,AngMax,VelMin,VelM
FMT, 253, 31, CTRL, Qfffff, TimeUS,RMSRollP,RMSRollD,RMSPitchP,RMSPitchD,RMSYaw
RFND, 34034365, 0.2, 25, 0, 0
IMU, 34064417, 0.001549794, -0.0005252075, -0.0007440103, 0.177223, -0.0168972, -9.813353, 0, 0, 33.51075, 1, 1, 1000, 1000
MSG, 34100604, APM:Copter V3.5.7 (38483450)
MSG, 34100609, New mission
MSG, 34100619, Frame: QUAD
MODE, 34100623, Autonomous, 100, 2
IMU, 34105304, -0.0001270257, -0.001728716, 0.001225807, 0.1648364, -0.02500817, -9.804663, 0, 0, 33.51229, 1, 1, 1000, 1000
RFND, 34135564, 0.2, 25, 0, 0
IMU, 34145284, -0.0003816714, -0.0009892462, -0.0005021425, 0.1705327, -0.002783225, -9.804544, 0, 0, 33.51359, 1, 1, 1000, 1000
MAG, 34185260, 344, 444, 351, 0, 0, 0, 0, 0, 0, 1, 34185252
RFND, 34185290, 0.2, 25, 0, 0
BARO, 34185323, -1.243707, 992.688, 31.58, 0.1144915, 34185, 0, 30.95
CTUN, 34185336, 0, 0, 0, 0.4627517, -0.09231227, -0.09231227, -1.24, 0, 0.19, 0, 0, -13
ATT, 34185393, 0, 0.08, 0, 0.58, 20.32, 20.32, 0, 1
RATE, 34185398, -0.3806109, -0.1312503, -0.0006151845, -2.648827, 0.1279206, -0.006618998, -0.002204021, 0.6462404, -0.001964819, 5309.568, -5.724716, 0
NKF1, 34185406, 0.08, 0.58, 20.32, -0.02516321, -0.1999026, 0.1311004, 0, 0, 0, 0.09231227, 0.1, -0.13, -0.63
NKF2, 34185406, -5, 0, 0, 0, 0, 0, 0, 0, 0, 0, 0, 0, 0
NKF3, 34185406, 0, 0, 0, 0, -0.17, 0.18, 0, 0, 0, 0, 0
NKF4, 34185406, 0, 0, 0.06, 0, 0, 0.0001583074, 0, 0, 0, 19, 229, 0, 0
NKF5, 34185406, 0, 0, 0, 0, 0.03, 0.1, 0, 0.19, 0.5, 0.0004797459, 0.01814092, 0.03422784
NKQ1, 34185406, 0.9842272, -0.005881051, 0.01116084, 0.1764584
AHR2, 34185450, 0.55, -0.09, 8.82, -1.24, 0, 0, 0.9970239, 0.004909834, -0.0004636754, 0.07693599
MOTB, 34185458, 1, 1, 0, 1
RCIN, 34185462, 0, 0, 0, 0, 0, 0, 0, 0, 0, 0, 0, 0, 0, 0
RCOU, 34185467, 1101, 1101, 1101, 1101, 0, 0, 0, 0, 0, 0, 0, 0, 0, 0
VIBE, 34185475, 0.01909452, 0.01901659, 0.03126287, 0, 0, 0
CTRL, 34185482, 0.0006726075, 0.0001941558, 0.006281571, 0.0001220372, 0.001969261
PRX, 34185514, 2, 0.48, 0, 0.46, 0, 0.9, 0, 2.64, 0, 0, 90, 0.46
IMU, 34185521, -0.0003883602, -0.0001622108, 0.0001555426, 0.1691516, -0.01974495, -9.801338, 0, 0, 33.51347, 1, 1, 1000, 1000
IMU, 34225311, -0.0005792934, -0.0004655534, 3.733331E-05, 0.1656383, -0.008360913, -9.80452, 0, 0, 33.51287, 1, 1, 1000, 1000
RFND, 34235165, 0.2, 25, 0, 0
IMU, 34265264, 0.00083188, -0.00201864, -0.001096632, 0.1748756, -0.01475533, -9.823836, 0, 0, 33.5128, 1, 1, 1000, 1000
MAG, 34285248, 350, 451, 348, 0, 0, 0, 0, 0, 0, 1, 34285240
RFND, 34285279, 0.2, 25, 0, 0
BARO, 34285313, -1.143318, 992.6763, 31.58, 0.3261233, 34285, 0, 30.95
CTUN, 34285326, 0, 0, 0, 0.4627517, -0.09230887, -0.09230887, -1.14, 0, 0.19, 0, 0, -13
ATT, 34285382, 0, 0.07, 0, 0.59, 20.38, 20.38, 0, 1
RATE, 34285388, -0.3462369, -0.1136723, -0.000380906, -2.683202, 0.1117745, -0.006952404, -0.006476503, 0.5737888, -0.001937878, 5305.259, -5.63736, 0
NKF1, 34285396, 0.07, 0.59, 20.38, -0.02945629, -0.2077888, 0.1309941, 0, 0, 0, 0.09230887, 0.1, -0.13, -0.63
NKF2, 34285396, -5, 0, 0, 0, 0, 0, 0, 0, 0, 0, 0, 0, 0
NKF3, 34285396, 0, 0, 0, -0.01, -0.2, 0.18, 0, 0, 0, 0, 0
NKF4, 34285396, 0, 0, 0.06, 0, 0, 0.0001070881, 0, 0, 0, 19, 229, 0, 0
NKF5, 34285396, 0, 0, 0, 0, 0.04, 0.1, 0, 0.19, 0.5, 0.0004093693, 0.01810019, 0.03470557
NKQ1, 34285396, 0.9841256, -0.005963531, 0.01121271, 0.1770184
AHR2, 34285441, 0.55, -0.09, 8.82, -1.14, 0, 0, 0.9970258, 0.00487799, -0.0004136077, 0.07691313
MOTB, 34285449, 1, 1, 0, 1
RCIN, 34285453, 0, 0, 0, 0, 0, 0, 0, 0, 0, 0, 0, 0, 0, 0
RCOU, 34285458, 1101, 1101, 1101, 1101, 0, 0, 0, 0, 0, 0, 0, 0, 0, 0
VIBE, 34285466, 0.0182051, 0.0206187, 0.03213556, 0, 0, 0
CTRL, 34285473, 0.0006480616, 0.0001803714, 0.006344054, 0.0001344676, 0.001975845
PRX, 34285503, 2, 0.48, 0, 0.46, 0, 0.9, 0, 2.63, 0, 0, 90, 0.46
IMU, 34305167, -0.0002229237, -0.0006658331, 0.0003045849, 0.1646052, -0.006701756, -9.802125, 0, 0, 33.51316, 1, 1, 1000, 1000
RFND, 34335261, 0.2, 25, 0, 0
IMU, 34345317, -0.001641433, -0.0008672735, -0.0009434051, 0.1785115, -0.0008905891, -9.838739, 0, 0, 33.51271, 1, 1, 1000, 1000
MAG, 34385257, 348, 446, 348, 0, 0, 0, 0, 0, 0, 1, 34385171
RFND, 34385287, 0.2, 25, 0, 0
BARO, 34385321, -1.154473, 992.6778, 31.58, 0.4515155, 34385, 0, 30.95
CTUN, 34385332, 0, 0, 0, 0.4627517, -0.08905288, -0.08905288, -1.15, 0, 0.19, 0, 0, -12
ATT, 34385387, 0, 0.06, 0, 0.6, 20.45, 20.45, 0, 1
RATE, 34385393, -0.2993886, -0.05949516, -0.000502577, -2.72393, 0.1590216, -0.007131986, -0.005070638, 0.6347616, -0.001922162, 5206.968, -3.004169, 0
NKF1, 34385401, 0.06, 0.6, 20.45, -0.03302603, -0.2165373, 0.1285671, 0, 0, 0, 0.08905288, 0.1, -0.13, -0.63
NKF2, 34385401, -5, 0, 0, 0, 0, 0, 0, 0, 0, 0, 0, 0, 0
NKF3, 34385401, 0, 0, 0, -0.01, -0.2, 0.18, 0, 0, 0, 0, 0
NKF4, 34385401, 0, 0, 0.06, 0, 0, 7.155706E-05, 0, 0, 0, 19, 229, 0, 0
NKF5, 34385401, 0, 0, 0, 0, 0.03, 0.1, 0, 0.19, 0.5, 0.0003217901, 0.020492, 0.04084344
NKQ1, 34385401, 0.9840228, -0.006074698, 0.01126951, 0.1775816
AHR2, 34385564, 0.54, -0.08, 8.81, -1.15, 0, 0, 0.9970275, 0.004831839, -0.0003596945, 0.0768935
MOTB, 34385572, 1, 1, 0, 1
RCIN, 34385577, 0, 0, 0, 0, 0, 0, 0, 0, 0, 0, 0, 0, 0, 0
RCOU, 34385582, 1101, 1101, 1101, 1101, 0, 0, 0, 0, 0, 0, 0, 0, 0, 0
VIBE, 34385590, 0.02229264, 0.02027996, 0.03335485, 0, 0, 0
CTRL, 34385596, 0.0005904557, 0.000198258, 0.006422117, 0.0001533219, 0.001961991
PRX, 34385629, 2, 0.48, 0, 0.46, 0, 3.6, 0, 2.64, 0, 0, 90, 0.46
IMU, 34385636, 0.0008701206, 0.0003762509, -7.17213E-05, 0.1719809, -0.007791962, -9.827856, 0, 0, 33.51346, 1, 1, 1000, 1000
IMU, 34425161, 0.0001212129, -0.0009330454, -0.0001727995, 0.1704046, -0.008357363, -9.813098, 0, 0, 33.51596, 1, 1, 1000, 1000
RFND, 34435170, 0.2, 25, 0, 0
IMU, 34465164, -0.0001912353, -0.0007520526, -0.0004305647, 0.1622845, -0.004526509, -9.811654, 0, 0, 33.51863, 1, 1, 1000, 1000
MAG, 34485138, 347, 447, 345, 0, 0, 0, 0, 0, 0, 1, 34485129
RFND, 34485169, 0.2, 25, 0, 0
BARO, 34485276, -1.27717, 992.6917, 31.58, 0.3740519, 34485, 0, 30.95
CTUN, 34485289, 0, 0, 0, 0.4627517, -0.08740596, -0.08740596, -1.27, 0, 0.19, 0, 0, -12
ATT, 34485347, 0, 0.05, 0, 0.61, 20.51, 20.52, 0, 1
RATE, 34485353, -0.2588784, -0.1102953, -0.0002170272, -2.755504, 0.06115423, -0.006586105, -0.004686707, 0.6552103, -0.001983705, 5163.932, -6.050777, 0
NKF1, 34485361, 0.05, 0.61, 20.52, -0.03712843, -0.2261181, 0.1275045, 0, 0, 0, 0.08740596, 0.1, -0.13, -0.63
NKF2, 34485361, -5, 0, 0, 0, 0, 0, 0, 0, 0, 0, 0, 0, 0
NKF3, 34485361, 0, 0, 0, -0.02, -0.24, 0.17, 0, 0, 0, 0, 0
NKF4, 34485361, 0, 0, 0.06, 0, 0, 4.888652E-05, 0, 0, 0, 19, 229, 0, 0
NKF5, 34485361, 0, 0, 0, 0, 0.04, 0.1, 0, 0.19, 0.5, 0.0003632937, 0.01945195, 0.03876226
NKQ1, 34485361, 0.9839185, -0.006169915, 0.01131125, 0.1781531
AHR2, 34485405, 0.54, -0.07, 8.81, -1.27, 0, 0, 0.9970284, 0.004809206, -0.0003270288, 0.07688431
MOTB, 34485412, 1, 1, 0, 1
RCIN, 34485416, 0, 0, 0, 0, 0, 0, 0, 0, 0, 0, 0, 0, 0, 0
RCOU, 34485421, 1101, 1101, 1101, 1101, 0, 0, 0, 0, 0, 0, 0, 0, 0, 0
VIBE, 34485430, 0.02077195, 0.01891451, 0.03507764, 0, 0, 0
CTRL, 34485437, 0.0005446344, 0.0001732752, 0.006490814, 0.0001538986, 0.001960549
PRX, 34485470, 2, 0.48, 0, 0.46, 0, 0.88, 0, 2.62, 0, 0, 90, 0.46
IMU, 34505263, 6.388348E-05, -0.0005680578, -0.0005474283, 0.1624909, -0.004339311, -9.808418, 0, 0, 33.52229, 1, 1, 1000, 1000
RFND, 34535121, 0.2, 25, 0, 0
IMU, 34545248, -0.000772786, -0.0006200342, 0.000238694, 0.1695138, -0.009754276, -9.797054, 0, 0, 33.5257, 1, 1, 1000, 1000
MAG, 34585263, 347, 445, 346, 0, 0, 0, 0, 0, 0, 1, 34585255
RFND, 34585295, 0.2, 25, 0, 0
BARO, 34585329, -1.271593, 992.6908, 31.59, 0.08361095, 34585, 0, 30.95
CTUN, 34585341, 0, 0, 0, 0.4627517, -0.0857327, -0.0857327, -1.27, 0, 0.19, 0, 0, -12
ATT, 34585398, 0, 0.04, 0, 0.62, 20.58, 20.58, 0, 1
RATE, 34585404, -0.221834, -0.03133721, -0.000519194, -2.812734, 0.1355721, -0.007125841, -0.002120439, 0.6360681, -0.001965153, 5122.709, -3.940582, 0
NKF1, 34585413, 0.04, 0.62, 20.58, -0.04103504, -0.2365239, 0.1264866, 0, 0, 0, 0.0857327, 0.1, -0.13, -0.64
NKF2, 34585413, -5, 0, 0, 0, 0, 0, 0, 0, 0, 0, 0, 0, 0
NKF3, 34585413, 0, 0, 0, -0.02, -0.24, 0.17, 0, 0, 0, 0, 0
NKF4, 34585413, 0, 0, 0.06, 0, 0, 3.401812E-05, 0, 0, 0, 19, 229, 0, 0
NKF5, 34585413, 0, 0, 0, 0, 0.03, 0.1, 0, 0.19, 0.5, 0.0003104146, 0.02133781, 0.0438213
NKQ1, 34585413, 0.983815, -0.006266703, 0.01140402, 0.1787141
AHR2, 34585457, 0.54, -0.07, 8.81, -1.27, 0, 0, 0.9970296, 0.004794521, -0.0002440882, 0.0768691
MOTB, 34585463, 1, 1, 0, 1
RCIN, 34585468, 0, 0, 0, 0, 0, 0, 0, 0, 0, 0, 0, 0, 0, 0
RCOU, 34585473, 1101, 1101, 1101, 1101, 0, 0, 0, 0, 0, 0, 0, 0, 0, 0
VIBE, 34585481, 0.01717643, 0.02083616, 0.03179919, 0, 0, 0
CTRL, 34585489, 0.0004868733, 0.0001736922, 0.006604723, 0.0001699425, 0.001967752
PRX, 34585521, 2, 0.48, 0, 0.46, 0, 0.88, 0, 2.63, 0, 0, 90, 0.46
IMU, 34585528, 0.001366541, -3.608452E-05, -6.978605E-05, 0.1690303, -0.007472518, -9.818022, 0, 0, 33.52907, 1, 1, 1000, 1000
IMU, 34625142, -0.0004299989, -0.001256629, -0.001064516, 0.1721167, -0.0181553, -9.815022, 0, 0, 33.53317, 1, 1, 1000, 1000
RFND, 34635453, 0.2, 25, 0, 0
IMU, 34666111, 0.0001636286, -0.0009075726, -0.0007048229, 0.1781679, 0.002520422, -9.819763, 0, 0, 33.53563, 1, 1, 1000, 1000
MAG, 34685241, 343, 450, 342, 0, 0, 0, 0, 0, 0, 1, 34685164
RFND, 34685279, 0.2, 25, 0, 0
BARO, 34685310, -1.332942, 992.6979, 31.59, -0.2823438, 34685, 0, 30.95
CTUN, 34685323, 0, 0, 0, 0.4627517, -0.08397149, -0.08397149, -1.33, 0, 0.19, 0, 0, -12
ATT, 34685381, 0, 0.03, 0, 0.63, 20.64, 20.65, 0, 1
RATE, 34685387, -0.1497437, -0.2024978, 0.0005920944, -2.853779, 0.03088371, -0.00663182, -0.01300912, 0.6503315, -0.001930835, 5080.563, -4.183102, 0
NKF1, 34685394, 0.03, 0.63, 20.65, -0.0447742, -0.2476402, 0.125446, 0, 0, 0, 0.08397149, 0.11, -0.13, -0.64
NKF2, 34685394, -5, 0, 0, 0, 0, 0, 0, 0, 0, 0, 0, 0, 0
NKF3, 34685394, 0, 0, 0, -0.02, -0.28, 0.17, 0, 0, 0, 0, 0
NKF4, 34685394, 0, 0, 0.06, 0, 0, 2.416919E-05, 0, 0, 0, 19, 229, 0, 0
NKF5, 34685394, 0, 0, 0, 0, 0.04, 0.1, 0, 0.19, 0.5, 0.000354303, 0.01953979, 0.03985086
NKQ1, 34685394, 0.9837107, -0.006425491, 0.01145356, 0.1792782
AHR2, 34685438, 0.53, -0.06, 8.81, -1.33, 0, 0, 0.9970322, 0.004718632, -0.0002025199, 0.07684104
MOTB, 34685444, 1, 1, 0, 1
RCIN, 34685448, 0, 0, 0, 0, 0, 0, 0, 0, 0, 0, 0, 0, 0, 0
RCOU, 34685454, 1101, 1101, 1101, 1101, 0, 0, 0, 0, 0, 0, 0, 0, 0, 0
VIBE, 34685462, 0.01823549, 0.01897977, 0.03478767, 0, 0, 0
CTRL, 34685469, 0.0004047162, 0.0001972946, 0.006707385, 0.000186966, 0.001956853
PRX, 34685502, 2, 0.48, 0, 0.46, 0, 0.88, 0, 2.61, 0, 0, 90, 0.46
IMU, 34705304, -7.168682E-05, -0.0005327746, 0.0005471708, 0.1749703, -0.01394805, -9.806537, 0, 0, 33.53796, 1, 1, 1000, 1000
RFND, 34735298, 0.2, 25, 0, 0
IMU, 34745276, -0.0001220046, -0.001636205, -0.0005307603, 0.1644346, -0.009672928, -9.813532, 0, 0, 33.5403, 1, 1, 1000, 1000
MAG, 34785351, 346, 446, 347, 0, 0, 0, 0, 0, 0, 1, 34785343
RFND, 34785387, 0.2, 25, 0, 0
BARO, 34785416, -1.305056, 992.6948, 31.59, -0.4392014, 34785, 0, 30.95
CTUN, 34785428, 0, 0, 0, 0.4627517, -0.0837775, -0.0837775, -1.3, 0, 0.19, 0, 0, -12
DU32, 34785451, 7, 50389208
ATT, 34785571, 0, 0.01, 0, 0.64, 20.71, 20.71, 0, 1
RATE, 34785578, -0.09647046, -0.1736479, 0.0002482765, -2.891884, 0.0990379, -0.007184942, -0.007769004, 0.6321819, -0.00199138, 5038.955, -2.82774, 0
NKF1, 34785586, 0.01, 0.64, 20.71, -0.04830853, -0.2590349, 0.1244186, 0, 0, 0, 0.0837775, 0.1, -0.13, -0.64
NKF2, 34785586, -5, 0, 0, 0, 0, 0, 0, 0, 0, 0, 0, 0, 0
NKF3, 34785586, 0, 0, 0, -0.02, -0.28, 0.17, 0, 0, 0, 0, 0
NKF4, 34785586, 0, 0, 0.06, 0, 0, 1.782836E-05, 0, 0, 0, 19, 229, 0, 0
NKF5, 34785586, 0, 0, 0, 0, 0.03, 0.1, 0, 0.19, 0.5, 0.0002914941, 0.02111839, 0.0442479
NKQ1, 34785586, 0.9836046, -0.006546951, 0.01150459, 0.1798522
AHR2, 34785630, 0.53, -0.05, 8.81, -1.3, 0, 0, 0.9970329, 0.004680467, -0.0001610077, 0.07683492
MOTB, 34785637, 1, 1, 0, 1
RCIN, 34785641, 0, 0, 0, 0, 0, 0, 0, 0, 0, 0, 0, 0, 0, 0
RCOU, 34785647, 1101, 1101, 1101, 1101, 0, 0, 0, 0, 0, 0, 0, 0, 0, 0
VIBE, 34785655, 0.01845867, 0.01719271, 0.03188477, 0, 0, 0
CTRL, 34785662, 0.0003368896, 0.0001973034, 0.006784198, 0.000178217, 0.001968079
PRX, 34785693, 2, 0.49, 0, 0.47, 0, 0.88, 0, 2.63, 0, 0, 90, 0.47
IMU, 34785700, -0.001113278, -0.0006756591, -0.0001532516, 0.172015, -0.001240105, -9.828494, 0, 0, 33.54319, 1, 1, 1000, 1000
IMU, 34825787, -0.0007468328, -0.001413854, 0.0008312996, 0.1710947, -0.009855068, -9.803063, 0, 0, 33.54626, 1, 1, 1000, 1000
RFND, 34835271, 0.2, 25, 0, 0
IMU, 34865304, -0.0009399265, -0.001411246, -0.0005550843, 0.178956, -0.01188337, -9.801162, 0, 0, 33.54898, 1, 1, 1000, 1000
MAG, 34885161, 347, 451, 343, 0, 0, 0, 0, 0, 0, 1, 34885153
RFND, 34885277, 0.2, 25, 0, 0
BARO, 34885309, -1.388714, 992.7037, 31.6, -0.3520584, 34885, 0, 30.95
CTUN, 34885322, 0, 0, 0, 0.4627517, -0.08084433, -0.08084433, -1.38, 0, 0.19, 0, 0, -12
ATT, 34885380, 0, 0, 0, 0.65, 20.78, 20.78, 0, 1
RATE, 34885386, -0.0386687, -0.1116189, 4.210525E-05, -2.938035, 0.1213303, -0.007423888, -0.002721008, 0.565552, -0.001945166, 4974.77, -4.488754, 0
NKF1, 34885393, 0, 0.65, 20.78, -0.05172387, -0.2709909, 0.1228338, 0, 0, 0, 0.08084433, 0.11, -0.13, -0.64
NKF2, 34885393, -5, 0, 0, 0, 0, 0, 0, 0, 0, 0, 0, 0, 0
NKF3, 34885393, 0, 0, 0, -0.03, -0.32, 0.17, 0, 0, 0, 0, 0
NKF4, 34885393, 0, 0, 0.06, 0, 0, 1.401005E-05, 0, 0, 0, 19, 229, 0, 0
NKF5, 34885393, 0, 0, 0, 0, 0.04, 0.1, 0, 0.19, 0.5, 0.0003290449, 0.01890564, 0.039162
NKQ1, 34885393, 0.983502, -0.006678504, 0.01156862, 0.1804038
AHR2, 34885438, 0.52, -0.05, 8.81, -1.38, 0, 0, 0.9970345, 0.004632884, -0.0001028067, 0.07681625
MOTB, 34885446, 1, 1, 0, 1
RCIN, 34885450, 0, 0, 0, 0, 0, 0, 0, 0, 0, 0, 0, 0, 0, 0
RCOU, 34885455, 1101, 1101, 1101, 1101, 0, 0, 0, 0, 0, 0, 0, 0, 0, 0
VIBE, 34885464, 0.01896131, 0.01752149, 0.03060342, 0, 0, 0
CTRL, 34885471, 0.0002971314, 0.0002006712, 0.006887374, 0.0001738659, 0.001979786
PRX, 34885504, 2, 0.49, 0, 0.46, 0, 0.85, 0, 2.63, 0, 0, 90, 0.46
IMU, 34905259, -8.446987E-05, -0.001106864, 0.0002211577, 0.1675309, -0.01457785, -9.81032, 0, 0, 33.55209, 1, 1, 1000, 1000
RFND, 34935144, 0.2, 25, 0, 0
IMU, 34945314, 0.0002758394, -0.0005817917, -0.0005213991, 0.1816542, -0.009509699, -9.79726, 0, 0, 33.55568, 1, 1, 1000, 1000
MAG, 34985155, 344, 445, 346, 0, 0, 0, 0, 0, 0, 1, 34985147
RFND, 34985273, 0.2, 25, 0, 0
BARO, 34985304, -1.388714, 992.7039, 31.6, -0.2649153, 34985, 0, 30.95
CTUN, 34985316, 0, 0, 0, 0.4627517, -0.08185883, -0.08185883, -1.38, 0, 0.19, 0, 0, -12
ATT, 34985376, 0, 0, 0, 0.66, 20.84, 20.84, 0, 1
RATE, 34985381, 0.02333657, -0.1684091, 0.0005286039, -2.97701, 0.03155134, -0.007066112, -0.005649025, 0.610972, -0.001941591, 4978.721, -3.644753, 0
NKF1, 34985389, 0, 0.66, 20.84, -0.055599, -0.2838233, 0.1229314, 0, 0, 0, 0.08185883, 0.11, -0.13, -0.64
NKF2, 34985389, -5, 0, 0, 0, 0, 0, 0, 0, 0, 0, 0, 0, 0
NKF3, 34985389, 0, 0, 0, -0.03, -0.32, 0.17, 0, 0, 0, 0, 0
NKF4, 34985389, 0, 0, 0.06, 0, 0, 1.158648E-05, 0, 0, 0, 19, 229, 0, 0
NKF5, 34985389, 0, 0, 0, 0, 0.03, 0.1, 0, 0.19, 0.5, 0.0002606955, 0.02038198, 0.0433368
NKQ1, 34985389, 0.9833959, -0.006818143, 0.01161634, 0.1809725
AHR2, 34985553, 0.52, -0.04, 8.8, -1.38, 0, 0, 0.9970359, 0.004579807, -6.295519E-05, 0.07680171
MOTB, 34985562, 1, 1, 0, 1
RCIN, 34985567, 0, 0, 0, 0, 0, 0, 0, 0, 0, 0, 0, 0, 0, 0
RCOU, 34985572, 1101, 1101, 1101, 1101, 0, 0, 0, 0, 0, 0, 0, 0, 0, 0
VIBE, 34985580, 0.02031652, 0.01921779, 0.02970239, 0, 0, 0
CTRL, 34985587, 0.0003102398, 0.0002088778, 0.006982108, 0.0001734909, 0.001977819
PRX, 34985619, 2, 0.48, 0, 0.46, 0, 0.87, 0, 2.65, 0, 0, 90, 0.46
IMU, 34985626, -0.001018431, -0.001854887, -0.0005365147, 0.1592958, -0.007623679, -9.820176, 0, 0, 33.55807, 1, 1, 1000, 1000
IMU, 35025317, 0.0007241697, 0.0005378107, -0.001100996, 0.1685133, -0.01371061, -9.805842, 0, 0, 33.56029, 1, 1, 1000, 1000
RFND, 35035236, 0.2, 25, 0, 0
IMU, 35065278, -0.0004539978, -0.0008996211, -0.0004768033, 0.1609771, -0.01365318, -9.813997, 0, 0, 33.56351, 1, 1, 1000, 1000
MAG, 35085250, 347, 447, 346, 0, 0, 0, 0, 0, 0, 1, 35085167
RFND, 35085286, 0.2, 25, 0, 0
BARO, 35085318, -1.433331, 992.7092, 31.6, -0.2823441, 35085, 0, 30.95
CTUN, 35085331, 0, 0, 0, 0.4627517, -0.07867558, -0.07867558, -1.43, 0, 0.19, 0, 0, -12
ATT, 35085388, 0, -0.01, 0, 0.67, 20.91, 20.91, 0, 1
RATE, 35085394, 0.0585135, -0.06698883, 0.000185926, -3.01879, 0.09515467, -0.007429853, -0.006709608, 0.6245334, -0.001950027, 4904.327, -2.938747, 0
NKF1, 35085402, -0.01, 0.67, 20.91, -0.05979826, -0.2968035, 0.1210945, 0, 0, 0, 0.07867558, 0.1, -0.13, -0.64
NKF2, 35085402, -4, 0, 0, 0, 0, 0, 0, 0, 0, 0, 0, 0, 0
NKF3, 35085402, 0, 0, 0, -0.04, -0.37, 0.17, 0, 0, 0, 0, 0
NKF4, 35085402, 0, 0, 0.06, 0, 0, 1.061688E-05, 0, 0, 0, 19, 229, 0, 0
NKF5, 35085402, 0, 0, 0, 0, 0.04, 0.1, 0, 0.19, 0.5, 0.0002969597, 0.01797004, 0.03759323
NKQ1, 35085402, 0.9832897, -0.006907286, 0.01168031, 0.1815413
AHR2, 35085446, 0.52, -0.04, 8.8, -1.43, 0, 0, 0.9970372, 0.004580333, -1.101712E-05, 0.07678378
MOTB, 35085454, 1, 1, 0, 1
RCIN, 35085458, 0, 0, 0, 0, 0, 0, 0, 0, 0, 0, 0, 0, 0, 0
RCOU, 35085463, 1101, 1101, 1101, 1101, 0, 0, 0, 0, 0, 0, 0, 0, 0, 0
VIBE, 35085471, 0.01743346, 0.02045171, 0.03167616, 0, 0, 0
CTRL, 35085478, 0.0003166334, 0.0001969442, 0.007077215, 0.0001803377, 0.001969183
PRX, 35085511, 2, 0.48, 0, 0.46, 0, 0.87, 0, 2.63, 0, 0, 90, 0.46
IMU, 35105269, 0.001149305, -0.001110705, 0.001772368, 0.1708891, -0.01492898, -9.804432, 0, 0, 33.56699, 1, 1, 1000, 1000
RFND, 35135065, 0.2, 25, 0, 0
IMU, 35145117, -0.001185522, -0.0008304137, -0.0003351211, 0.1716319, -0.007364871, -9.79735, 0, 0, 33.56878, 1, 1, 1000, 1000
MAG, 35185068, 350, 444, 349, 0, 0, 0, 0, 0, 0, 1, 35185060
RFND, 35185102, 0.2, 25, 0, 0
BARO, 35185131, -1.416599, 992.707, 31.61, -0.3015156, 35185, 0, 30.95
CTUN, 35185143, 0, 0, 0, 0.4627517, -0.07869627, -0.07869627, -1.41, 0, 0.19, 0, 0, -12
ATT, 35185265, 0, -0.02, 0, 0.67, 20.98, 20.98, 0, 1
RATE, 35185272, 0.1061158, -0.07928585, 0.0001897891, -3.055302, 0.06431, -0.007468829, -0.006087517, 0.6155721, -0.002033268, 4916.589, -3.689289, 0
NKF1, 35185280, -0.02, 0.67, 20.98, -0.06354461, -0.3100967, 0.1213973, 0, 0, 0, 0.07869627, 0.11, -0.13, -0.64
NKF2, 35185280, -4, 0, 0, 0, 0, 0, 0, 0, 0, 0, 0, 0, 0
NKF3, 35185280, 0, 0, 0, -0.05, -0.42, 0.16, 0, 0, 0, 0, 0
NKF4, 35185280, 0, 0, 0.06, 0, 0, 1.012321E-05, 0, 0, 0, 19, 229, 0, 0
NKF5, 35185280, 0, 0, 0, 0, 0.05, 0.1, 0, 0.19, 0.5, 0.0003296357, 0.01578526, 0.03280068
NKQ1, 35185280, 0.98318, -0.007017721, 0.01172826, 0.1821275
AHR2, 35185324, 0.52, -0.03, 8.8, -1.41, 0, 0, 0.9970366, 0.004556866, 2.411425E-05, 0.07679325
MOTB, 35185332, 1, 1, 0, 1
RCIN, 35185336, 0, 0, 0, 0, 0, 0, 0, 0, 0, 0, 0, 0, 0, 0
RCOU, 35185341, 1101, 1101, 1101, 1101, 0, 0, 0, 0, 0, 0, 0, 0, 0, 0
VIBE, 35185349, 0.01661301, 0.01950073, 0.03131775, 0, 0, 0
CTRL, 35185356, 0.0003896391, 0.0001992913, 0.007160642, 0.0001633079, 0.001995233
PRX, 35185387, 2, 0.48, 0, 0.46, 0, 0.89, 0, 2.63, 0, 0, 90, 0.46
IMU, 35185394, 0.0005379855, -0.001278928, -0.0004504399, 0.1662773, -0.01538974, -9.818406, 0, 0, 33.56943, 1, 1, 1000, 1000
IMU, 35225169, -0.001148843, -0.0007046495, -0.0001741739, 0.1735395, -0.0183518, -9.814206, 0, 0, 33.56937, 1, 1, 1000, 1000
RFND, 35235153, 0.2, 25, 0, 0
IMU, 35265255, -0.0008724019, -0.001099399, -0.000759079, 0.1765093, -0.01176064, -9.827116, 0, 0, 33.56937, 1, 1, 1000, 1000
MAG, 35285173, 344, 444, 348, 0, 0, 0, 0, 0, 0, 1, 35285166
RFND, 35285287, 0.2, 25, 0, 0
BARO, 35285319, -1.27717, 992.6915, 31.61, -0.191715, 35285, 0, 30.95
CTUN, 35285332, 0, 0, 0, 0.4627517, -0.07662669, -0.07662669, -1.27, 0, 0.19, 0, 0, -11
ATT, 35285390, 0, -0.03, 0, 0.68, 21.04, 21.04, 0, 1
RATE, 35285395, 0.1621112, -0.1222671, 0.0005265822, -3.094063, 0.06564447, -0.00743568, -0.00734038, 0.6400654, -0.002001121, 4838.728, -3.782463, 0
NKF1, 35285403, -0.03, 0.68, 21.04, -0.06717932, -0.3232134, 0.1194748, 0, 0, 0, 0.07662669, 0.11, -0.13, -0.64
NKF2, 35285403, -4, 0, 0, 0, 0, 0, 0, 0, 0, 0, 0, 0, 0
NKF3, 35285403, 0, 0, 0, -0.05, -0.42, 0.16, 0, 0, 0, 0, 0
NKF4, 35285403, 0, 0, 0.06, 0, 0, 1.053404E-05, 0, 0, 0, 19, 229, 0, 0
NKF5, 35285403, 0, 0, 0, 0, 0.04, 0.1, 0, 0.19, 0.5, 0.000272143, 0.01697052, 0.03572684
NKQ1, 35285403, 0.9830732, -0.007145695, 0.01177799, 0.1826948
AHR2, 35285448, 0.51, -0.03, 8.8, -1.27, 0, 0, 0.9970378, 0.004516352, 5.838947E-05, 0.0767802
MOTB, 35285455, 1, 1, 0, 1
RCIN, 35285459, 0, 0, 0, 0, 0, 0, 0, 0, 0, 0, 0, 0, 0, 0
RCOU, 35285465, 1101, 1101, 1101, 1101, 0, 0, 0, 0, 0, 0, 0, 0, 0, 0
VIBE, 35285473, 0.01806777, 0.01852019, 0.03307571, 0, 0, 0
CTRL, 35285480, 0.0004864858, 0.0001890992, 0.007256134, 0.0001497953, 0.001995548
PRX, 35285512, 2, 0.48, 0, 0.46, 0, 0.89, 0, 2.63, 0, 0, 90, 0.46
IMU, 35305252, 0.0001032359, -0.001539106, -0.0006121121, 0.169925, -0.01406461, -9.798158, 0, 0, 33.56917, 1, 1, 1000, 1000
RFND, 35335110, 0.2, 25, 0, 0
IMU, 35345201, 0.0005496155, -0.0008771047, -0.0004631701, 0.1642091, -0.01478249, -9.818672, 0, 0, 33.5681, 1, 1, 1000, 1000
MAG, 35385149, 346, 445, 345, 0, 0, 0, 0, 0, 0, 1, 35385141
RFND, 35385255, 0.2, 25, 0, 0
BARO, 35385287, -1.394291, 992.7043, 31.61, 0.06797175, 35385, 0, 30.95
CTUN, 35385301, 0, 0, 0, 0.4627517, -0.07574952, -0.07574952, -1.39, 0, 0.19, 0, 0, -11
ATT, 35385356, 0, -0.05, 0, 0.69, 21.11, 21.11, 0, 1
RATE, 35385362, 0.2202161, -0.2406978, 0.001204634, -3.134986, 0.09127142, -0.007598768, -0.009776582, 0.6483482, -0.002019105, 4800.564, -4.17347, 0
NKF1, 35385369, -0.05, 0.69, 21.11, -0.07107101, -0.3370848, 0.1185325, 0, 0, 0, 0.07574952, 0.11, -0.13, -0.64
NKF2, 35385369, -4, 0, 0, 0, 0, 0, 0, 0, 0, 0, 0, 0, 0
NKF3, 35385369, 0, 0, 0, -0.06, -0.47, 0.16, 0, 0, 0, 0, 0
NKF4, 35385369, 0, 0, 0.06, 0, 0, 1.118175E-05, 0, 0, 0, 19, 229, 0, 0
NKF5, 35385369, 0, 0, 0, 0, 0.05, 0.1, 0, 0.19, 0.5, 0.0003107534, 0.01449997, 0.0299961
NKQ1, 35385369, 0.9829656, -0.00727846, 0.01183198, 0.1832645
AHR2, 35385415, 0.51, -0.02, 8.8, -1.39, 0, 0, 0.9970386, 0.004472033, 9.868298E-05, 0.07677274
MOTB, 35385422, 1, 1, 0, 1
RCIN, 35385426, 0, 0, 0, 0, 0, 0, 0, 0, 0, 0, 0, 0, 0, 0
RCOU, 35385431, 1101, 1101, 1101, 1101, 0, 0, 0, 0, 0, 0, 0, 0, 0, 0
VIBE, 35385439, 0.01938799, 0.01768946, 0.03256173, 0, 0, 0
CTRL, 35385446, 0.0006033698, 0.0002038937, 0.007349951, 0.0001358871, 0.002001486
PRX, 35385477, 2, 0.48, 0, 0.46, 0, 0.89, 0, 2.63, 0, 0, 90, 0.46
IMU, 35385484, -0.002272865, -0.0008138192, 8.892373E-05, 0.1696418, -0.01118411, -9.813049, 0, 0, 33.56772, 1, 1, 1000, 1000
IMU, 35425086, 0.0008828509, 0.0001271687, -0.0005428346, 0.1688551, -0.008369426, -9.805197, 0, 0, 33.56715, 1, 1, 1000, 1000
RFND, 35435061, 0.2, 25, 0, 0
IMU, 35465072, 0.0006334734, -0.0002083723, -0.0005998795, 0.1708356, -0.01239731, -9.798035, 0, 0, 33.56604, 1, 1, 1000, 1000
MAG, 35485442, 345, 446, 347, 0, 0, 0, 0, 0, 0, 1, 35485434
RFND, 35485477, 0.2, 25, 0, 0
BARO, 35485508, -1.366405, 992.7014, 31.62, 0.244001, 35485, 0, 30.95
CTUN, 35485521, 0, 0, 0, 0.4627517, -0.07458792, -0.07458792, -1.36, 0, 0.19, 0, 0, -11
ATT, 35485577, 0, -0.06, 0, 0.7, 21.17, 21.17, 0, 1
RATE, 35485583, 0.2655323, -0.135543, 0.001073933, -3.185378, 0.07280923, -0.00765751, -0.004690065, 0.6810496, -0.001974756, 4802.604, -5.584145, 0
NKF1, 35485591, -0.06, 0.7, 21.17, -0.07506774, -0.3504388, 0.1185828, 0, 0, 0, 0.07458792, 0.11, -0.13, -0.64
NKF2, 35485591, -4, 0, 0, 0, 0, 0, 0, 0, 0, 0, 0, 0, 0
NKF3, 35485591, 0, 0, 0, -0.06, -0.47, 0.16, 0, 0, 0, 0, 0
NKF4, 35485591, 0, 0, 0.06, 0, 0, 1.230017E-05, 0, 0, 0, 19, 229, 0, 0
NKF5, 35485591, 0, 0, 0, 0, 0.04, 0.1, 0, 0.19, 0.5, 0.0002535411, 0.01602952, 0.03384571
NKQ1, 35485591, 0.9828616, -0.007390187, 0.01190673, 0.1838119
AHR2, 35485637, 0.5, -0.02, 8.8, -1.36, 0, 0, 0.9970407, 0.004451099, 0.0001604528, 0.0767465
MOTB, 35485644, 1, 1, 0, 1
RCIN, 35485648, 0, 0, 0, 0, 0, 0, 0, 0, 0, 0, 0, 0, 0, 0
RCOU, 35485653, 1101, 1101, 1101, 1101, 0, 0, 0, 0, 0, 0, 0, 0, 0, 0
VIBE, 35485661, 0.01992811, 0.01631651, 0.03485242, 0, 0, 0
CTRL, 35485668, 0.0006999684, 0.0002024824, 0.007472417, 0.0001464861, 0.001987282
PRX, 35485700, 2, 0.48, 0, 0.46, 0, 0.88, 0, 2.65, 0, 0, 90, 0.46
IMU, 35505062, -0.001139517, 3.167894E-05, 0.0001805182, 0.1703267, -0.005810952, -9.811211, 0, 0, 33.56504, 1, 1, 1000, 1000
RFND, 35535155, 0.2, 25, 0, 0
IMU, 35545290, -0.001663229, -0.0006618659, 0.000740029, 0.1708729, -0.01020478, -9.794596, 0, 0, 33.56429, 1, 1, 1000, 1000
MAG, 35585243, 346, 448, 343, 0, 0, 0, 0, 0, 0, 1, 35585234
RFND, 35585280, 0.2, 25, 0, 0
BARO, 35585311, -1.243707, 992.6877, 31.62, 0.1638293, 35585, 0, 30.95
CTUN, 35585323, 0, 0, 0, 0.4627517, -0.07311806, -0.07311806, -1.24, 0, 0.19, 0, 0, -11
ATT, 35585378, 0, -0.07, 0, 0.71, 21.24, 21.24, 0, 1
RATE, 35585383, 0.321763, -0.07895748, 0.0006828245, -3.225927, 0.08446165, -0.007907326, -0.01706162, 0.6837925, -0.002098286, 4786.423, -4.317665, 0
NKF1, 35585392, -0.07, 0.71, 21.24, -0.07920112, -0.3638431, 0.1181833, 0, 0, 0, 0.07311806, 0.11, -0.13, -0.64
NKF2, 35585392, -4, 0, 0, 0, 0, 0, 0, 0, 0, 0, 0, 0, 0
NKF3, 35585392, 0, 0, 0, -0.07, -0.53, 0.16, 0, 0, 0, 0, 0
NKF4, 35585392, 0, 0, 0.06, 0, 0, 1.375272E-05, 0, 0, 0, 19, 229, 0, 0
NKF5, 35585392, 0, 0, 0, 0, 0.05, 0.1, 0, 0.19, 0.5, 0.0002962976, 0.01336215, 0.02744118
NKQ1, 35585392, 0.9827453, -0.007519752, 0.01195983, 0.1844237
AHR2, 35585435, 0.5, -0.01, 8.8, -1.24, 0, 0, 0.9970386, 0.004410389, 0.0001991349, 0.07677568
MOTB, 35585442, 1, 1, 0, 1
RCIN, 35585447, 0, 0, 0, 0, 0, 0, 0, 0, 0, 0, 0, 0, 0, 0
RCOU, 35585452, 1101, 1101, 1101, 1101, 0, 0, 0, 0, 0, 0, 0, 0, 0, 0
VIBE, 35585459, 0.0188287, 0.01878775, 0.03455625, 0, 0, 0
CTRL, 35585467, 0.0008339297, 0.0001935769, 0.007570862, 0.0001567892, 0.002012312
PRX, 35585500, 2, 0.48, 0, 0.46, 0, 0.87, 0, 2.61, 0, 0, 90, 0.46
IMU, 35585506, 0.0005561565, -0.0009380482, 0.0006748938, 0.1649558, -0.005179754, -9.811296, 0, 0, 33.56521, 1, 1, 1000, 1000
IMU, 35625261, -0.000986354, -0.0001104082, -0.001086823, 0.1744027, -0.006949794, -9.821704, 0, 0, 33.56652, 1, 1, 1000, 1000
RFND, 35635138, 0.2, 25, 0, 0
IMU, 35665252, 1.415068E-05, -0.0007423942, -0.002762948, 0.1695581, -0.01349148, -9.81119, 0, 0, 33.56911, 1, 1, 1000, 1000
MAG, 35685166, 346, 445, 349, 0, 0, 0, 0, 0, 0, 1, 35685158
RFND, 35685259, 0.2, 25, 0, 0
BARO, 35685290, -1.232553, 992.6868, 31.62, 0.1394292, 35685, 0, 30.95
CTUN, 35685302, 0, 0, 0, 0.4627517, -0.07318858, -0.07318858, -1.23, 0, 0.19, 0, 0, -11
ATT, 35685359, 0, -0.08, 0, 0.72, 21.3, 21.3, 0, 1
RATE, 35685365, 0.3752618, -0.1175769, 0.001262288, -3.271373, 0.09032408, -0.007881009, -0.009516293, 0.5791136, -0.001855026, 4766.658, -3.639317, 0
NKF1, 35685373, -0.08, 0.72, 21.3, -0.08336377, -0.3778167, 0.1176952, 0, 0, 0, 0.07318858, 0.11, -0.13, -0.64
NKF2, 35685373, -4, 0, 0, 0, 0, 0, 0, 0, 0, 0, 0, 0, 0
NKF3, 35685373, 0, 0, 0, -0.07, -0.53, 0.16, 0, 0, 0, 0, 0
NKF4, 35685373, 0, 0, 0.06, 0, 0, 1.528323E-05, 0, 0, 0, 19, 229, 0, 0
NKF5, 35685373, 0, 0, 0, 0, 0.04, 0.1, 0, 0.19, 0.5, 0.00023907, 0.01520241, 0.03216152
NKQ1, 35685373, 0.9826481, -0.0076416, 0.0120228, 0.1849322
AHR2, 35685417, 0.5, -0.01, 8.79, -1.23, 0, 0, 0.9970441, 0.004375854, 0.000245841, 0.07670573
MOTB, 35685425, 1, 1, 0, 1
RCIN, 35685430, 0, 0, 0, 0, 0, 0, 0, 0, 0, 0, 0, 0, 0, 0
RCOU, 35685435, 1101, 1101, 1101, 1101, 0, 0, 0, 0, 0, 0, 0, 0, 0, 0
VIBE, 35685443, 0.01854228, 0.02204523, 0.03455558, 0, 0, 0
CTRL, 35685449, 0.0009356114, 0.0001840929, 0.007678821, 0.0001449706, 0.002004004
PRX, 35685481, 2, 0.48, 0, 0.46, 0, 0.87, 0, 2.64, 0, 0, 90, 0.46
IMU, 35705292, 0.0002617378, -0.0007802039, -9.787006E-05, 0.1698896, -0.01097495, -9.815756, 0, 0, 33.57133, 1, 1, 1000, 1000
RFND, 35735128, 0.2, 25, 0, 0
IMU, 35745281, -0.0001658128, -0.001000228, 0.001041583, 0.1760925, -0.00203662, -9.814461, 0, 0, 33.57272, 1, 1, 1000, 1000
MAG, 35785046, 349, 444, 344, 0, 0, 0, 0, 0, 0, 1, 35785038
RFND, 35785075, 0.2, 25, 0, 0
BARO, 35785106, -1.221399, 992.6851, 31.62, 0.3520584, 35785, 0, 30.95
CTUN, 35785118, 0, 0, 0, 0.4627517, -0.07087027, -0.07087027, -1.22, 0, 0.19, 0, 0, -11
DU32, 35785137, 7, 50389208
ATT, 35785298, 0, -0.09, 0, 0.73, 21.37, 21.37, 0, 1
RATE, 35785305, 0.4170235, -0.06093815, 0.0008969372, -3.310864, 0.07331483, -0.008002848, -0.009093937, 0.6496047, -0.001956391, 4708.552, -4.317284, 0
NKF1, 35785313, -0.09, 0.73, 21.37, -0.08743325, -0.3919533, 0.1162605, 0, 0, 0, 0.07087027, 0.11, -0.13, -0.64
NKF2, 35785313, -4, 0, 0, 0, 0, 0, 0, 0, 0, 0, 0, 0, 0
NKF3, 35785313, 0, 0, 0, -0.09, -0.59, 0.16, 0, 0, 0, 0, 0
NKF4, 35785313, 0, 0, 0.05, 0, 0, 1.74672E-05, 0, 0, 0, 19, 229, 0, 0
NKF5, 35785313, 0, 0, 0, 0, 0.05, 0.1, 0, 0.19, 0.5, 0.0002851414, 0.01240255, 0.02521618
NKQ1, 35785313, 0.982538, -0.007744114, 0.01207736, 0.1855083
AHR2, 35785355, 0.5, 0, 8.79, -1.22, 0, 0, 0.9970444, 0.004358627, 0.0002824976, 0.07670297
MOTB, 35785363, 1, 1, 0, 1
RCIN, 35785367, 0, 0, 0, 0, 0, 0, 0, 0, 0, 0, 0, 0, 0, 0
RCOU, 35785372, 1101, 1101, 1101, 1101, 0, 0, 0, 0, 0, 0, 0, 0, 0, 0
VIBE, 35785380, 0.01831484, 0.0219257, 0.03176497, 0, 0, 0
CTRL, 35785386, 0.001038919, 0.0001749146, 0.007764685, 0.0001593517, 0.00198728
PRX, 35785418, 2, 0.48, 0, 0.46, 0, 0.88, 0, 2.64, 0, 0, 90, 0.46
IMU, 35785425, 0.0008644006, -0.001122745, 0.0001162692, 0.1701086, -0.02191764, -9.81068, 0, 0, 33.57441, 1, 1, 1000, 1000
PM, 35785437, 56, 4000, 9590, 10, 0, 0, 41, 262144
IMU, 35825068, -0.0006792455, -0.001495023, 0.0002570521, 0.1653612, -0.005587275, -9.817379, 0, 0, 33.57595, 1, 1, 1000, 1000
RFND, 35835033, 0.2, 25, 0, 0
IMU, 35865088, 0.0004739302, -0.002491892, 0.0006574666, 0.1886066, -0.008589932, -9.799911, 0, 0, 33.57726, 1, 1, 1000, 1000
MAG, 35885167, 348, 450, 347, 0, 0, 0, 0, 0, 0, 1, 35885159
RFND, 35885252, 0.2, 25, 0, 0
BARO, 35885285, -1.171204, 992.68, 31.62, 0.4583729, 35885, 0, 30.95
CTUN, 35885297, 0, 0, 0, 0.4627517, -0.07179001, -0.07179001, -1.17, 0, 0.19, 0, 0, -11
ATT, 35885356, 0, -0.1, 0, 0.74, 21.44, 21.44, 0, 1
RATE, 35885362, 0.4620906, -0.1653433, 0.001683303, -3.334692, 0.08157525, -0.00826, -0.009747392, 0.6405144, -0.002055285, 4699.865, -4.486942, 0
NKF1, 35885369, -0.1, 0.74, 21.44, -0.09134547, -0.4059686, 0.116046, 0, 0, 0, 0.07179001, 0.11, -0.13, -0.64
NKF2, 35885369, -4, 0, 0, 0, 0, 0, 0, 0, 0, 0, 0, 0, 0
NKF3, 35885369, 0, 0, 0, -0.09, -0.59, 0.16, 0, 0, 0, 0, 0
NKF4, 35885369, 0, 0, 0.05, 0, 0, 1.926162E-05, 0, 0, 0, 19, 229, 0, 0
NKF5, 35885369, 0, 0, 0, 0, 0.04, 0.1, 0, 0.19, 0.5, 0.0002257867, 0.01450318, 0.0307463
NKQ1, 35885369, 0.9824271, -0.00784557, 0.01210174, 0.1860891
AHR2, 35885414, 0.49, 0, 8.79, -1.17, 0, 0, 0.9970441, 0.004338868, 0.0002885106, 0.07670785
MOTB, 35885422, 1, 1, 0, 1
RCIN, 35885426, 0, 0, 0, 0, 0, 0, 0, 0, 0, 0, 0, 0, 0, 0
RCOU, 35885431, 1101, 1101, 1101, 1101, 0, 0, 0, 0, 0, 0, 0, 0, 0, 0
VIBE, 35885438, 0.01896962, 0.0194113, 0.03468714, 0, 0, 0
CTRL, 35885446, 0.001129942, 0.000182085, 0.007823654, 0.0001609273, 0.001995773
PRX, 35885477, 2, 0.48, 0, 0.46, 0, 0.88, 0, 2.64, 0, 0, 90, 0.46
IMU, 35905282, -0.001301656, -0.001224818, 0.0003196391, 0.1642352, -0.01109025, -9.799447, 0, 0, 33.57791, 1, 1, 1000, 1000
EV, 35932395, 57
RFND, 35935256, 0.2, 25, 0, 0
IMU, 35945153, -0.0001044531, -0.0009495828, -0.0008844195, 0.1646475, -0.0007918836, -9.794888, 0, 0, 33.5769, 1, 1, 1000, 1000
MAG, 35985245, 348, 449, 343, 0, 0, 0, 0, 0, 0, 1, 35985237
RFND, 35985276, 0.2, 25, 0, 0
BARO, 35985309, -1.187936, 992.6817, 31.62, 0.343344, 35985, 0, 30.95
CTUN, 35985322, 0, 0, 0, 0.4627517, -0.06882378, -0.06882378, -1.18, 0, 0.19, 0, 0, -11
ATT, 35985379, 0, -0.11, 0, 0.75, 21.51, 21.5, 0, 1
RATE, 35985385, 0.5160289, -0.1416158, 0.001735602, -3.381079, 0.110338, -0.008336518, -0.003454568, 0.652581, -0.002010902, 4656.664, -3.640079, 0
NKF1, 35985393, -0.11, 0.75, 21.5, -0.09596772, -0.4198616, 0.1149794, 0, 0, 0, 0.06882378, 0.11, -0.13, -0.64
NKF2, 35985393, -4, 0, 0, 0, 0, 0, 0, 0, 0, 0, 0, 0, 0
NKF3, 35985393, 0, 0, 0, -0.1, -0.66, 0.15, 0, 0, 0, 0, 0
NKF4, 35985393, 0, 0, 0.05, 0, 0, 2.216914E-05, 0, 0, 0, 19, 229, 0, 0
NKF5, 35985393, 0, 0, 0, 0, 0.05, 0.1, 0, 0.19, 0.5, 0.0002723264, 0.01162166, 0.02343694
NKQ1, 35985393, 0.9823169, -0.007972755, 0.01216601, 0.1866605
AHR2, 35985436, 0.49, 0, 8.79, -1.18, 0, 0, 0.997045, 0.004297234, 0.0003371413, 0.07669927
MOTB, 35985444, 1, 1, 0, 1
RCIN, 35985448, 0, 0, 0, 0, 0, 0, 0, 0, 0, 0, 0, 0, 0, 0
RCOU, 35985454, 1113, 1113, 1113, 1113, 0, 0, 0, 0, 0, 0, 0, 0, 0, 0
VIBE, 35985462, 0.01743049, 0.01887169, 0.03401168, 0, 0, 0
CTRL, 35985468, 0.001261845, 0.000175321, 0.007930617, 0.0001600797, 0.002011277
PRX, 35985500, 2, 0.48, 0, 0.47, 0, 0.85, 0, 2.62, 0, 0, 90, 0.47
IMU, 35985507, -0.00053453, -0.0004861238, 0.0001151263, 0.1680871, -0.007086226, -9.817084, 0, 0, 33.57568, 1, 1, 1000, 1000
IMU, 36025277, 0.0004487684, -0.001122156, -0.0009011779, 0.1647922, -0.01925755, -9.810889, 0, 0, 33.57402, 1, 1, 1000, 1000
RFND, 36035260, 0.2, 25, 0, 0
IMU, 36065251, 0.00133292, -0.0007290817, -0.0004391362, 0.1815046, -0.01749227, -9.79565, 0, 0, 33.57357, 1, 1, 1000, 1000
MAG, 36085383, 341, 451, 348, 0, 0, 0, 0, 0, 0, 1, 36085375
RFND, 36085415, 0.2, 25, 0, 0
BARO, 36085448, -1.249285, 992.6887, 31.63, 0.2021721, 36085, 0, 30.95
CTUN, 36085459, 0, 0, 0, 0.4627517, -0.0690543, -0.0690543, -1.24, 0, 0.19, 0, 0, -11
ATT, 36085518, 0, -0.12, 0, 0.76, 21.57, 21.57, 0, 1
RATE, 36085523, 0.5524126, -0.112486, 0.001735089, -3.42077, 0.09094375, -0.008149447, -0.003708339, 0.5566881, -0.001876451, 4661.59, -3.372192, 0
NKF1, 36085531, -0.12, 0.76, 21.57, -0.100235, -0.4349523, 0.115101, 0, 0, 0, 0.0690543, 0.11, -0.13, -0.64
NKF2, 36085531, -4, 0, 0, 0, 0, 0, 0, 0, 0, 0, 0, 0, 0
NKF3, 36085531, 0, 0, 0, -0.12, -0.72, 0.15, 0, 0, 0, 0, 0
NKF4, 36085531, 0, 0.01, 0.05, 0, 0, 2.451997E-05, 0, 0, 0, 19, 229, 0, 0
NKF5, 36085531, 0, 0, 0, 0, 0.06, 0.1, 0, 0.19, 0.5, 0.0003146578, 0.008710768, 0.01642592
NKQ1, 36085531, 0.9822142, -0.008061228, 0.01222571, 0.1871927
AHR2, 36085574, 0.49, 0, 8.79, -1.24, 0, 0, 0.9970488, 0.004295615, 0.000374028, 0.0766489
MOTB, 36085581, 1, 1, 0, 1
RCIN, 36085586, 0, 0, 0, 0, 0, 0, 0, 0, 0, 0, 0, 0, 0, 0
RCOU, 36085591, 1137, 1137, 1137, 1137, 0, 0, 0, 0, 0, 0, 0, 0, 0, 0
VIBE, 36085599, 0.01818759, 0.01663145, 0.03709737, 0, 0, 0
CTRL, 36085607, 0.001338656, 0.0001629634, 0.008033149, 0.0001521695, 0.001989888
PRX, 36085639, 2, 0.48, 0, 0.46, 0, 0.85, 0, 2.62, 0, 0, 90, 0.46
IMU, 36105155, -0.000464032, -0.001727285, -0.0003245243, 0.1679693, -0.01034334, -9.813269, 0, 0, 33.57368, 1, 1, 1000, 1000
RFND, 36135248, 0.2, 25, 0, 0
IMU, 36145164, 0.0003163571, -0.0007495997, -0.0005002507, 0.1782346, -0.01369806, -9.810249, 0, 0, 33.57425, 1, 1, 1000, 1000
MAG, 36185263, 349, 447, 343, 0, 0, 0, 0, 0, 0, 1, 36185255
RFND, 36185294, 0.2, 25, 0, 0
BARO, 36185326, -1.221399, 992.6851, 31.62, 0.038343, 36185, 0, 30.95
CTUN, 36185339, 0, 0, 0, 0.4627517, -0.06719888, -0.06719888, -1.22, 0, 0.19, 0, 0, -11
ATT, 36185397, 0, -0.13, 0, 0.76, 21.63, 21.63, 0, 1
RATE, 36185403, 0.589723, -0.08149391, 0.001607133, -3.459471, 0.127449, -0.008379681, -0.004023612, 0.6261887, -0.001972547, 4591.079, -1.746178, 0
NKF1, 36185411, -0.13, 0.76, 21.63, -0.1042841, -0.4490765, 0.11336, 0, 0, 0, 0.06719888, 0.11, -0.13, -0.64
NKF2, 36185411, -4, 0, 0, 0, 0, 0, 0, 0, 0, 0, 0, 0, 0
NKF3, 36185411, 0, 0, 0, -0.12, -0.72, 0.15, 0, 0, 0, 0, 0
NKF4, 36185411, 0, 0.01, 0.05, 0, 0, 2.787957E-05, 0, 0, 0, 19, 229, 0, 0
NKF5, 36185411, 0, 0, 0, 0, 0.05, 0.1, 0, 0.19, 0.5, 0.0002608964, 0.01100787, 0.02210702
NKQ1, 36185411, 0.9821043, -0.00815493, 0.01227934, 0.1877604
AHR2, 36185456, 0.49, 0, 8.79, -1.22, 0, 0, 0.9970497, 0.004286753, 0.0004072878, 0.07663706
MOTB, 36185463, 1, 1, 0, 1
RCIN, 36185467, 0, 0, 0, 0, 0, 0, 0, 0, 0, 0, 0, 0, 0, 0
RCOU, 36185473, 1161, 1161, 1161, 1161, 0, 0, 0, 0, 0, 0, 0, 0, 0, 0
VIBE, 36185480, 0.01767682, 0.01880765, 0.03777494, 0, 0, 0
CTRL, 36185487, 0.001430697, 0.0001448819, 0.008119882, 0.0001675911, 0.0019735
PRX, 36185519, 2, 0.48, 0, 0.46, 0, 0.85, 0, 2.62, 0, 0, 90, 0.46
IMU, 36185526, 0.0005079808, -0.0001773681, -0.0003072541, 0.1784426, -0.01094065, -9.835157, 0, 0, 33.5752, 1, 1, 1000, 1000
IMU, 36225268, 0.001334194, -0.0001939826, -0.0008448269, 0.1606292, -0.01221914, -9.815316, 0, 0, 33.57648, 1, 1, 1000, 1000
RFND, 36235083, 0.2, 25, 0, 0
IMU, 36265191, -0.0002127732, 0.000130068, 0.003616792, 0.1810728, -0.006452142, -9.817301, 0, 0, 33.57751, 1, 1, 1000, 1000
MAG, 36285151, 342, 450, 349, 0, 0, 0, 0, 0, 0, 1, 36285143
RFND, 36285248, 0.2, 25, 0, 0
BARO, 36285282, -1.299479, 992.6939, 31.63, -0.1429148, 36285, 0, 30.95
CTUN, 36285295, 0, 0, 0, 0.4627517, -0.06646464, -0.06646464, -1.29, 0, 0.19, 0, 0, -11
ATT, 36285353, 0, -0.14, 0, 0.78, 21.7, 21.7, 0, 1
RATE, 36285359, 0.6277782, -0.1379538, 0.001797682, -3.515276, 0.1150883, -0.008286218, -0.004354196, 0.5039139, -0.002164076, 4577.282, -4.527378, 0
NKF1, 36285367, -0.14, 0.78, 21.7, -0.1090038, -0.4632582, 0.1130193, 0, 0, 0, 0.06646464, 0.11, -0.13, -0.64
NKF2, 36285367, -4, 0, 0, 0, 0, 0, 0, 0, 0, 0, 0, 0, 0
NKF3, 36285367, 0, 0, 0, -0.13, -0.8, 0.15, 0, 0, 0, 0, 0
NKF4, 36285367, 0, 0.01, 0.05, 0, 0, 3.10124E-05, 0, 0, 0, 19, 229, 0, 0
NKF5, 36285367, 0, 0, 0, 0, 0.06, 0.1, 0, 0.19, 0.5, 0.0003078736, 0.007691434, 0.01369817
NKQ1, 36285367, 0.9819902, -0.008252399, 0.01236816, 0.1883463
AHR2, 36285412, 0.49, 0.01, 8.79, -1.29, 0, 0, 0.997049, 0.004279987, 0.0004752321, 0.07664626
MOTB, 36285419, 1, 1, 0, 1
RCIN, 36285423, 0, 0, 0, 0, 0, 0, 0, 0, 0, 0, 0, 0, 0, 0
RCOU, 36285429, 1185, 1185, 1185, 1185, 0, 0, 0, 0, 0, 0, 0, 0, 0, 0
VIBE, 36285437, 0.02946101, 0.02364631, 0.03495235, 0, 0, 0
CTRL, 36285444, 0.001512766, 0.0001443294, 0.008254605, 0.0001614692, 0.001995016
PRX, 36285476, 2, 0.48, 0, 0.46, 0, 0.85, 0, 2.64, 0, 0, 90, 0.46
IMU, 36305729, 0.003325226, -0.006805682, -0.01106063, 0.1843747, -0.003704712, -9.83492, 0, 0, 33.57764, 1, 1, 1000, 1000
RFND, 36335257, 0.2, 25, 0, 0
IMU, 36345172, -0.00257321, 0.007542693, 0.02597371, 0.1405592, -0.0673084, -9.781142, 0, 0, 33.57748, 1, 1, 1000, 1000
MAG, 36385275, 343, 448, 345, 0, 0, 0, 0, 0, 0, 1, 36385267
RFND, 36385306, 0.2, 25, 0, 0
BARO, 36385338, -1.299479, 992.6939, 31.63, -0.2370294, 36385, 0, 30.95
CTUN, 36385350, 0, 0, 0, 0.4627517, -0.06558931, -0.06558931, -1.29, 0, 0.19, 0, 0, -11
ATT, 36385407, 0, -0.14, 0, 0.8, 21.87, 21.86, 0, 1
RATE, 36385414, 0.6346508, 0.08229627, -0.0009967871, -3.632758, 0.1122162, -0.005641685, -0.004707666, 2.237181, -0.005709886, 4559.274, -9.019947, 0
NKF1, 36385421, -0.14, 0.8, 21.86, -0.1110686, -0.4801684, 0.1125747, 0, 0, 0, 0.06558931, 0.11, -0.13, -0.64
NKF2, 36385421, -4, 0, 0, 0, 0, 0, 0, 0, 0, 0, 0, 0, 0
NKF3, 36385421, 0, 0, 0, -0.13, -0.8, 0.15, 0, 0, 0, 0, 0
NKF4, 36385421, 0, 0.01, 0.05, 0, 0, 3.470434E-05, 0, 0, 0, 19, 229, 0, 0
NKF5, 36385421, 0, 0, 0, 0, 0.05, 0.1, 0, 0.19, 0.5, 0.0002520651, 0.01054732, 0.02123405
NKQ1, 36385421, 0.9817171, -0.008371268, 0.01255916, 0.1897466
AHR2, 36385465, 0.49, 0.03, 8.88, -1.29, 0, 0, 0.9969845, 0.004265099, 0.0006457307, 0.07748131
MOTB, 36385472, 1, 1, 0, 1
RCIN, 36385476, 0, 0, 0, 0, 0, 0, 0, 0, 0, 0, 0, 0, 0, 0
RCOU, 36385481, 1208, 1208, 1208, 1208, 0, 0, 0, 0, 0, 0, 0, 0, 0, 0
VIBE, 36385490, 0.1387917, 0.1429833, 0.1746319, 0, 0, 0
CTRL, 36385496, 0.001693091, 0.00060975, 0.008569926, 0.0009972078, 0.002401962
PRX, 36385527, 2, 0.48, 0, 0.46, 0, 3.6, 0, 2.62, 0, 0, 90, 0.46
IMU, 36385534, 0.003367357, -0.0004427109, 0.02780257, 0.1927662, -0.04562221, -9.761987, 0, 0, 33.57801, 1, 1, 1000, 1000
IMU, 36425483, -0.01265618, 0.002908627, 0.006319351, 0.1029865, -0.02851836, -9.821324, 0, 0, 33.57815, 1, 1, 1000, 1000
RFND, 36435238, 0.2, 25, 0, 0
IMU, 36465277, -0.0006148887, 0.001013585, -0.00899105, 0.1833722, 0.01939528, -9.783641, 0, 0, 33.57822, 1, 1, 1000, 1000
MAG, 36485262, 339, 447, 347, 0, 0, 0, 0, 0, 0, 1, 36485254
RFND, 36485294, 0.2, 25, 0, 0
BARO, 36485327, -1.299479, 992.6939, 31.63, -0.2579435, 36485, 0, 30.95
CTUN, 36485339, 0, 0, 0, 0.4627517, -0.06397939, -0.06397939, -1.29, 0, 0.19, 0, 0, -11
ATT, 36485396, 0, -0.17, 0, 0.83, 21.95, 21.95, 0, 1
RATE, 36485402, 0.7853301, -0.3628456, 0.002784359, -3.749597, -0.2210704, -0.007440299, -0.005838085, 1.364916, -0.003214722, 4513.261, -5.464363, 0
NKF1, 36485411, -0.17, 0.83, 21.95, -0.117363, -0.4934365, 0.1114386, 0, 0, 0, 0.06397939, 0.11, -0.13, -0.64
NKF2, 36485411, -4, 0, 0, 0, 0, 0, 0, 0, 0, 0, 0, 0, 0
NKF3, 36485411, 0, 0, 0, -0.15, -0.87, 0.15, 0, 0, 0, 0, 0
NKF4, 36485411, 0, 0.01, 0.05, 0, 0, 3.880747E-05, 0, 0, 0, 19, 229, 0, 0
NKF5, 36485411, 0, 0, 0, 0, 0.06, 0.1, 0, 0.19, 0.5, 0.0003051881, 0.006953349, 0.01183491
NKQ1, 36485411, 0.9815764, -0.008689173, 0.01272845, 0.1904478
AHR2, 36485456, 0.47, 0.05, 8.9, -1.29, 0, 0, 0.996975, 0.004052708, 0.0008165241, 0.07761316
MOTB, 36485463, 1, 1, 0, 1
RCIN, 36485468, 0, 0, 0, 0, 0, 0, 0, 0, 0, 0, 0, 0, 0, 0
RCOU, 36485473, 1221, 1238, 1231, 1239, 0, 0, 0, 0, 0, 0, 0, 0, 0, 0
VIBE, 36485481, 0.2660066, 0.3431592, 0.3227488, 0, 0, 0
CTRL, 36485488, 0.002037874, 0.001097939, 0.008843941, 0.001398024, 0.00298751
PRX, 36485521, 2, 0.48, 0, 0.46, 0, 0.88, 0, 2.63, 0, 0, 90, 0.46
IMU, 36505288, -0.001431741, 0.01063347, 0.01705535, 0.1798888, -0.01459698, -9.835217, 0, 0, 33.57827, 1, 1, 1000, 1000
RFND, 36535427, 0.2, 25, 0, 0
IMU, 36545289, -0.0009013638, -0.009027768, -0.03298097, 0.1971068, 0.05868764, -9.871093, 0, 0, 33.57806, 1, 1, 1000, 1000
MAG, 36585132, 342, 449, 349, 0, 0, 0, 0, 0, 0, 1, 36585123
RFND, 36585165, 0.2, 25, 0, 0
BARO, 36585197, -1.282748, 992.6922, 31.63, -0.2143719, 36585, 0, 30.95
CTUN, 36585209, 0, 0, 0, 0.4627517, -0.06401727, -0.06401727, -1.28, 0, 0.19, 0, 0, -11
ATT, 36585336, 0, -0.19, 0, 0.86, 21.99, 21.99, 0, 1
RATE, 36585343, 0.8503089, -0.3792243, 0.004175928, -3.897455, 0.7463906, -0.01435244, -0.006752868, 2.724153, -0.0007045472, 4502.881, -9.371471, 0
NKF1, 36585351, -0.19, 0.86, 21.99, -0.1227539, -0.5097222, 0.1111822, 0, 0, 0, 0.06401727, 0.11, -0.13, -0.64
NKF2, 36585351, -4, 0, 0, 0, 0, 0, 0, 0, 0, 0, 0, 0, 0
NKF3, 36585351, 0, 0, 0, -0.15, -0.87, 0.15, 0, 0, 0, 0, 0
NKF4, 36585351, 0, 0.01, 0.05, 0, 0, 4.272893E-05, 0, 0, 0, 19, 229, 0, 0
NKF5, 36585351, 0, 0, 0, 0, 0.05, 0.1, 0, 0.19, 0.5, 0.0002461912, 0.01021586, 0.02075957
NKQ1, 36585351, 0.9814957, -0.008911051, 0.0129644, 0.1908368
AHR2, 36585394, 0.45, 0.08, 8.88, -1.28, 0, 0, 0.9969901, 0.003939003, 0.001049318, 0.07742241
MOTB, 36585402, 1, 1, 0, 1
RCIN, 36585407, 0, 0, 0, 0, 0, 0, 0, 0, 0, 0, 0, 0, 0, 0
RCOU, 36585412, 1221, 1252, 1229, 1246, 0, 0, 0, 0, 0, 0, 0, 0, 0, 0
VIBE, 36585420, 0.334177, 0.3067197, 0.3221669, 0, 0, 0
CTRL, 36585427, 0.002184554, 0.001047728, 0.009061848, 0.001628111, 0.002901525
PRX, 36585458, 2, 0.48, 0, 0.47, 0, 0.88, 0, 2.63, 0, 0, 90, 0.47
IMU, 36585465, -0.004687363, 0.01062644, 0.03629462, 0.1904449, -0.05078349, -9.758345, 0, 0, 33.57873, 1, 1, 1000, 1000
IMU, 36625340, -0.003242219, -0.003470156, -0.01970047, 0.182754, 0.0498492, -9.765465, 0, 0, 33.58064, 1, 1, 1000, 1000
RFND, 36635241, 0.2, 25, 0, 0
IMU, 36665270, -0.007215065, 0.01128401, 0.02082859, 0.1938757, -0.1059531, -9.728033, 0, 0, 33.58247, 1, 1, 1000, 1000
MAG, 36685162, 343, 450, 345, 0, 0, 0, 0, 0, 0, 1, 36685154
RFND, 36685274, 0.2, 25, 0, 0
BARO, 36685308, -1.176781, 992.6803, 31.63, -0.05402878, 36685, 0, 30.95
CTUN, 36685321, 0, 0, 0, 0.4627517, -0.06180437, -0.06180437, -1.17, 0, 0.19, 0, 0, -10
ATT, 36685378, 0, -0.22, 0, 0.91, 22.09, 22.09, 0, 1
RATE, 36685383, 0.9676037, -0.9491308, 0.005912758, -4.141991, 1.853772, -0.01646352, -0.008151852, 3.174817, -0.003221067, 4402.641, -1.684761, 0
NKF1, 36685391, -0.22, 0.91, 22.09, -0.1272333, -0.5251238, 0.1087072, 0, 0, 0, 0.06180437, 0.11, -0.13, -0.64
NKF2, 36685391, -4, 0, 0, 0, 0, 0, 0, 0, 0, 0, 0, 0, 0
NKF3, 36685391, 0, 0, 0, -0.17, -0.95, 0.15, 0, 0, 0, 0, 0
NKF4, 36685391, 0, 0.01, 0.05, 0, 0, 4.779968E-05, 0, 0, 0, 19, 229, 0, 0
NKF5, 36685391, 0, 0, 0, 0, 0.06, 0.1, 0, 0.19, 0.5, 0.0003071136, 0.006496881, 0.01099635
NKQ1, 36685391, 0.9813243, -0.009252531, 0.01336663, 0.1916724
AHR2, 36685436, 0.43, 0.13, 8.91, -1.17, 0, 0, 0.9969699, 0.003713947, 0.001476831, 0.07768463
MOTB, 36685444, 1, 1, 0, 1
RCIN, 36685448, 0, 0, 0, 0, 0, 0, 0, 0, 0, 0, 0, 0, 0, 0
RCOU, 36685453, 1221, 1257, 1236, 1253, 0, 0, 0, 0, 0, 0, 0, 0, 0, 0
VIBE, 36685461, 0.3379307, 0.3065568, 0.3681674, 0, 0, 0
CTRL, 36685467, 0.002599671, 0.0019327, 0.009715294, 0.003135669, 0.002647182
PRX, 36685626, 2, 0.48, 0, 0.46, 0, 3.6, 0, 2.62, 0, 0, 90, 0.46
IMU, 36705172, -0.007082257, -0.004854716, -0.0006589391, 0.1919864, 0.09005117, -9.84795, 0, 0, 33.58392, 1, 1, 1000, 1000
RFND, 36735250, 0.2, 25, 0, 0
IMU, 36745313, -0.01156703, 0.0006184171, 0.01588592, 0.08893587, -0.06081917, -9.784698, 0, 0, 33.58509, 1, 1, 1000, 1000
MAG, 36785149, 342, 450, 346, 0, 0, 0, 0, 0, 0, 1, 36785141
RFND, 36785254, 0.2, 25, 0, 0
BARO, 36785288, -1.305056, 992.6947, 31.63, 0.1533717, 36785, 0, 30.95
CTUN, 36785301, 0, 0, 0, 0.4627517, -0.06277504, -0.06277504, -1.3, 0, 0.19, 0, 0, -11
DU32, 36785321, 7, 33611992
ATT, 36785416, 0, -0.24, 0, 0.93, 22.18, 22.18, 0, 1
RATE, 36785422, 1.060023, -0.293297, 0.001951751, -4.229111, 0.5192647, -0.007442635, -0.008882156, 1.428747, -0.003600552, 4459.88, -7.369709, 0
NKF1, 36785430, -0.24, 0.93, 22.18, -0.1313866, -0.5382127, 0.1101205, 0, 0, 0, 0.06277504, 0.11, -0.13, -0.64
NKF2, 36785430, -4, 0, 0, 0, 0, 0, 0, 0, 0, 0, 0, 0, 0
NKF3, 36785430, 0, 0, 0, -0.17, -0.95, 0.15, 0, 0, 0, 0, 0
NKF4, 36785430, 0, 0.01, 0.05, 0, 0, 5.199682E-05, 0, 0, 0, 19, 229, 0, 0
NKF5, 36785430, 0, 0, 0, 0, 0.05, 0.1, 0, 0.19, 0.5, 0.0002437664, 0.01000454, 0.02062101
NKQ1, 36785430, 0.9811684, -0.009421809, 0.01351357, 0.1924504
AHR2, 36785475, 0.42, 0.15, 8.93, -1.3, 0, 0, 0.9969545, 0.003634828, 0.001618905, 0.07788403
MOTB, 36785482, 1, 1, 0, 1
RCIN, 36785487, 0, 0, 0, 0, 0, 0, 0, 0, 0, 0, 0, 0, 0, 0
RCOU, 36785492, 1221, 1237, 1230, 1240, 0, 0, 0, 0, 0, 0, 0, 0, 0, 0
VIBE, 36785500, 0.3303115, 0.3357708, 0.3308533, 0, 0, 0
CTRL, 36785507, 0.002955185, 0.002473166, 0.01012343, 0.003210007, 0.002735342
PRX, 36785539, 2, 0.49, 0, 0.47, 0, 3.6, 0, 2.65, 0, 0, 90, 0.47
IMU, 36785573, -0.003187613, 0.006663165, 0.0136778, 0.2503659, 0.1030616, -9.774306, 0, 0, 33.58612, 1, 1, 1000, 1000
IMU, 36825284, -0.007000381, -0.006081343, -0.005403382, 0.03934638, -0.09703467, -9.754493, 0, 0, 33.58755, 1, 1, 1000, 1000
RFND, 36835329, 0.2, 25, 0, 0
IMU, 36865326, -0.004567401, 0.008430934, 0.03462984, 0.07730273, 0.007463948, -9.863702, 0, 0, 33.58823, 1, 1, 1000, 1000
MAG, 36885309, 346, 450, 349, 0, 0, 0, 0, 0, 0, 1, 36885301
RFND, 36885340, 0.2, 25, 0, 0
BARO, 36885373, -1.249285, 992.6883, 31.64, 0.200429, 36885, 0, 30.95
CTUN, 36885385, 0, 0, 0, 0.4627517, -0.06001816, -0.06001816, -1.24, 0, 0.19, 0, 0, -11
ATT, 36885443, 0, -0.22, 0, 0.93, 22.35, 22.35, 0, 1
RATE, 36885449, 0.9950043, 0.582076, -0.001111271, -4.210268, -0.7982792, -0.004565476, -0.008351536, 1.914659, -0.005835399, 4552.635, -18.45188, 0
NKF1, 36885457, -0.22, 0.93, 22.35, -0.1334448, -0.5547812, 0.1124107, 0, 0, 0, 0.06001816, 0.11, -0.13, -0.64
NKF2, 36885457, -4, 0, 0, 0, 0, 0, 0, 0, 0, 0, 0, 0, 0
NKF3, 36885457, 0, 0, 0, -0.19, -1.03, 0.14, 0, 0, 0, 0, 0
NKF4, 36885457, 0, 0.01, 0.05, 0, 0, 5.830852E-05, 0, 0, 0, 19, 229, 0, 0
NKF5, 36885457, 0, 0, 0, 0, 0.06, 0.1, 0, 0.19, 0.5, 0.0003088758, 0.006303268, 0.0111524
NKQ1, 36885457, 0.9808868, -0.009325531, 0.0134833, 0.1938879
AHR2, 36885502, 0.44, 0.14, 9.03, -1.24, 0, 0, 0.9968853, 0.003800126, 0.001533248, 0.07875895
MOTB, 36885509, 1, 1, 0, 1
RCIN, 36885514, 0, 0, 0, 0, 0, 0, 0, 0, 0, 0, 0, 0, 0, 0
RCOU, 36885519, 1221, 1227, 1229, 1239, 0, 0, 0, 0, 0, 0, 0, 0, 0, 0
VIBE, 36885528, 0.3496659, 0.3507689, 0.3270495, 0, 0, 0
CTRL, 36885535, 0.002868927, 0.002396044, 0.01014653, 0.003123978, 0.003286875
PRX, 36885568, 2, 0.48, 0, 0.46, 0, 3.6, 0, 2.63, 0, 0, 90, 0.46
IMU, 36905270, 0.005971707, -0.005371525, 0.01680177, 0.1792572, 0.1223609, -9.929258, 0, 0, 33.58797, 1, 1, 1000, 1000
RFND, 36935159, 0.2, 25, 0, 0
IMU, 36945259, 0.008396372, -0.01835614, 0.02499518, 0.12135, 0.122735, -9.762191, 0, 0, 33.58808, 1, 1, 1000, 1000
MAG, 36985167, 342, 451, 350, 0, 0, 0, 0, 0, 0, 1, 36985159
RFND, 36985268, 0.2, 25, 0, 0
BARO, 36985301, -1.338519, 992.6981, 31.63, 0.01568574, 36985, 0, 30.95
CTUN, 36985315, 0, 0, 0, 0.4627517, -0.06041688, -0.06041688, -1.33, 0, 0.19, 0, 0, -11
ATT, 36985373, 0, -0.21, 0, 0.92, 22.52, 22.52, 0, 1
RATE, 36985379, 0.9564837, -0.2066924, 0.005329723, -4.16148, -0.1748873, -0.008207367, -0.00792096, 1.460108, -0.004901766, 4563.375, -20.44134, 0
NKF1, 36985386, -0.21, 0.92, 22.52, -0.1403855, -0.5700422, 0.1126759, 0, 0, 0, 0.06041688, 0.11, -0.13, -0.64
NKF2, 36985386, -4, 0, 0, 0, 0, 0, 0, 0, 0, 0, 0, 0, 0
NKF3, 36985386, 0, 0, 0, -0.21, -1.11, 0.14, 0, 0, 0, 0, 0
NKF4, 36985386, 0, 0.01, 0.05, 0, 0, 6.335697E-05, 0, 0, 0, 19, 229, 0, 0
NKF5, 36985386, 0, 0, 0, 0, 0.07, 0.1, 0, 0.19, 0.5, 0.0003753716, 0.00172613, 0.003836666
NKQ1, 36985386, 0.9805998, -0.009239654, 0.01339735, 0.1953444
AHR2, 36985429, 0.46, 0.12, 9.13, -1.33, 0, 0, 0.9968144, 0.003954037, 0.001394332, 0.07964619
MOTB, 36985437, 1, 1, 0, 1
RCIN, 36985441, 0, 0, 0, 0, 0, 0, 0, 0, 0, 0, 0, 0, 0, 0
RCOU, 36985446, 1221, 1244, 1238, 1243, 0, 0, 0, 0, 0, 0, 0, 0, 0, 0
VIBE, 36985454, 0.4301262, 0.365384, 0.4018679, 0, 0, 0
CTRL, 36985461, 0.002599837, 0.002082998, 0.009950362, 0.002930537, 0.004109588
PRX, 36985493, 2, 0.48, 0, 0.46, 0, 3.6, 0, 2.62, 0, 0, 90, 0.46
IMU, 36985500, -0.001682309, -0.005443507, 0.01423872, -0.01208506, -0.02220692, -9.651947, 0, 0, 33.5871, 1, 1, 1000, 1000
IMU, 37025255, 0.006547809, -0.004813361, 0.02479211, 0.2458552, 0.05157043, -9.794807, 0, 0, 33.58539, 1, 1, 1000, 1000
RFND, 37035254, 0.2, 25, 0, 0
IMU, 37065344, 0.0005510217, -0.004670093, 0.009740806, 0.04016649, -0.002183933, -9.659847, 0, 0, 33.58261, 1, 1, 1000, 1000
MAG, 37085124, 340, 453, 348, 0, 0, 0, 0, 0, 0, 1, 37085116
RFND, 37085266, 0.2, 25, 0, 0
BARO, 37085299, -1.332942, 992.6976, 31.63, -0.1934578, 37085, 0, 30.95
CTUN, 37085312, 0, 0, 0, 0.4627517, -0.05887638, -0.05887638, -1.33, 0, 0.19, 0, 0, -10
ATT, 37085371, 0, -0.2, 0, 0.91, 22.64, 22.64, 0, 1
RATE, 37085377, 0.8932634, 0.4506486, -0.0007636305, -4.135446, -0.5060785, -0.004975978, -0.007321093, 1.062685, -0.004115934, 4451.44, 4.353142, 0
NKF1, 37085385, -0.2, 0.91, 22.64, -0.1450073, -0.5821798, 0.1099121, 0, 0, 0, 0.05887639, 0.11, -0.13, -0.64
NKF2, 37085385, -4, 0, 0, 0, 0, 0, 0, 0, 0, 0, 0, 0, 0
NKF3, 37085385, 0, 0, 0, -0.21, -1.11, 0.14, 0, 0, 0, 0, 0
NKF4, 37085385, 0, 0.01, 0.05, 0, 0, 7.015628E-05, 0, 0, 0, 19, 229, 0, 0
