FMT, 128, 89, FMT, BBnNZ, Type,Length,Name,Format,Columns
FMT, 129, 31, PARM, QNf, TimeUS,Name,Value
FMT, 130, 46, GPS, QBIHBcLLefffB, TimeUS,Status,GMS,GWk,NSats,HDop,Lat,Lng,Alt,Spd,GCrs,VZ,U
FMT, 131, 46, GPS2, QBIHBcLLefffB, TimeUS,Status,GMS,GWk,NSats,HDop,Lat,Lng,Alt,Spd,GCrs,VZ,U
FMT, 132, 46, GPSB, QBIHBcLLefffB, TimeUS,Status,GMS,GWk,NSats,HDop,Lat,Lng,Alt,Spd,GCrs,VZ,U
FMT, 193, 24, GPA, QCCCCBI, TimeUS,VDop,HAcc,VAcc,SAcc,VV,SMS
FMT, 194, 24, GPA2, QCCCCBI, TimeUS,VDop,HAcc,VAcc,SAcc,VV,SMS
FMT, 195, 24, GPAB, QCCCCBI, TimeUS,VDop,HAcc,VAcc,SAcc,VV,SMS
FMT, 133, 53, IMU, QffffffIIfBBHH, TimeUS,GyrX,GyrY,GyrZ,AccX,AccY,AccZ,EG,EA,T,GH,AH,GHz,AHz
FMT, 134, 75, MSG, QZ, TimeUS,Message
FMT, 135, 39, RCIN, QHHHHHHHHHHHHHH, TimeUS,C1,C2,C3,C4,C5,C6,C7,C8,C9,C10,C11,C12,C13,C14
FMT, 136, 39, RCOU, QHHHHHHHHHHHHHH, TimeUS,C1,C2,C3,C4,C5,C6,C7,C8,C9,C10,C11,C12,C13,C14
FMT, 137, 15, RSSI, Qf, TimeUS,RXRSSI
FMT, 139, 37, BARO, QffcfIff, TimeUS,Alt,Press,Temp,CRt,SMS,Offset,GndTemp
FMT, 140, 22, POWR, QffHB, TimeUS,Vcc,VServo,Flags,Safety
FMT, 143, 45, CMD, QHHHfffffff, TimeUS,CTot,CNum,CId,Prm1,Prm2,Prm3,Prm4,Lat,Lng,Alt
FMT, 144, 20, RAD, QBBBBBHH, TimeUS,RSSI,RemRSSI,TxBuf,Noise,RemNoise,RxErrors,Fixed
FMT, 146, 43, CAM, QIHLLeeeccC, TimeUS,GPSTime,GPSWeek,Lat,Lng,Alt,RelAlt,GPSAlt,Roll,Pitch,Yaw
FMT, 232, 43, TRIG, QIHLLeeeccC, TimeUS,GPSTime,GPSWeek,Lat,Lng,Alt,RelAlt,GPSAlt,Roll,Pitch,Yaw
FMT, 162, 30, ARSP, QffcffB, TimeUS,Airspeed,DiffPress,Temp,RawPress,Offset,U
FMT, 164, 45, CURR, QfffcHHHHHHHHHH, TimeUS,Volt,Curr,CurrTot,Temp,V1,V2,V3,V4,V5,V6,V7,V8,V9,V10
FMT, 165, 45, CUR2, QfffcHHHHHHHHHH, TimeUS,Volt,Curr,CurrTot,Temp,V1,V2,V3,V4,V5,V6,V7,V8,V9,V10
FMT, 163, 27, ATT, QccccCCCC, TimeUS,DesRoll,Roll,DesPitch,Pitch,DesYaw,Yaw,ErrRP,ErrYaw
FMT, 166, 34, MAG, QhhhhhhhhhBI, TimeUS,MagX,MagY,MagZ,OfsX,OfsY,OfsZ,MOfsX,MOfsY,MOfsZ,Health,S
FMT, 169, 14, MODE, QMBB, TimeUS,Mode,ModeNum,Rsn
FMT, 196, 17, RFND, QCBCB, TimeUS,Dist1,Orient1,Dist2,Orient2
FMT, 223, 33, DMS, IIIIIBBBBBBBBBB, TimeMS,N,Dp,RT,RS,Er,Fa,Fmn,Fmx,Pa,Pmn,Pmx,Sa,Smn,Smx
FMT, 240, 41, BCN, QBBfffffff, TimeUS,Health,Cnt,D0,D1,D2,D3,PosX,PosY,PosZ
FMT, 138, 53, IMU2, QffffffIIfBBHH, TimeUS,GyrX,GyrY,GyrZ,AccX,AccY,AccZ,EG,EA,T,GH,AH,GHz,AHz
FMT, 147, 53, IMU3, QffffffIIfBBHH, TimeUS,GyrX,GyrY,GyrZ,AccX,AccY,AccZ,EG,EA,T,GH,AH,GHz,AHz
FMT, 141, 45, AHR2, QccCfLLffff, TimeUS,Roll,Pitch,Yaw,Alt,Lat,Lng,Q1,Q2,Q3,Q4
FMT, 180, 31, POS, QLLfff, TimeUS,Lat,Lng,Alt,RelHomeAlt,RelOriginAlt
FMT, 142, 45, SIM, QccCfLLffff, TimeUS,Roll,Pitch,Yaw,Alt,Lat,Lng,Q1,Q2,Q3,Q4
FMT, 198, 51, NKF1, QccCfffffffccc, TimeUS,Roll,Pitch,Yaw,VN,VE,VD,dPD,PN,PE,PD,GX,GY,GZ
FMT, 199, 35, NKF2, QbccccchhhhhhB, TimeUS,AZbias,GSX,GSY,GSZ,VWN,VWE,MN,ME,MD,MX,MY,MZ,MI
FMT, 200, 33, NKF3, Qcccccchhhcc, TimeUS,IVN,IVE,IVD,IPN,IPE,IPD,IMX,IMY,IMZ,IYAW,IVT
FMT, 201, 35, NKF4, QcccccfbbHBHHb, TimeUS,SV,SP,SH,SM,SVT,errRP,OFN,OFE,FS,TS,SS,GPS,PI
FMT, 202, 40, NKF5, QBhhhcccCCfff, TimeUS,NI,FIX,FIY,AFI,HAGL,offset,RI,rng,Herr,eAng,eVel,ePos
FMT, 203, 51, NKF6, QccCfffffffccc, TimeUS,Roll,Pitch,Yaw,VN,VE,VD,dPD,PN,PE,PD,GX,GY,GZ
FMT, 204, 35, NKF7, QbccccchhhhhhB, TimeUS,AZbias,GSX,GSY,GSZ,VWN,VWE,MN,ME,MD,MX,MY,MZ,MI
FMT, 205, 33, NKF8, Qcccccchhhcc, TimeUS,IVN,IVE,IVD,IPN,IPE,IPD,IMX,IMY,IMZ,IYAW,IVT
FMT, 206, 35, NKF9, QcccccfbbHBHHb, TimeUS,SV,SP,SH,SM,SVT,errRP,OFN,OFE,FS,TS,SS,GPS,PI
FMT, 207, 36, NKF0, QBccCCcccccccc, TimeUS,ID,rng,innov,SIV,TR,BPN,BPE,BPD,OFH,OFL,OFN,OFE,OFD
FMT, 208, 27, NKQ1, Qffff, TimeUS,Q1,Q2,Q3,Q4
FMT, 209, 27, NKQ2, Qffff, TimeUS,Q1,Q2,Q3,Q4
FMT, 210, 51, XKF1, QccCfffffffccc, TimeUS,Roll,Pitch,Yaw,VN,VE,VD,dPD,PN,PE,PD,GX,GY,GZ
FMT, 211, 34, XKF2, QccccchhhhhhB, TimeUS,AX,AY,AZ,VWN,VWE,MN,ME,MD,MX,MY,MZ,MI
FMT, 212, 33, XKF3, Qcccccchhhcc, TimeUS,IVN,IVE,IVD,IPN,IPE,IPD,IMX,IMY,IMZ,IYAW,IVT
FMT, 213, 35, XKF4, QcccccfbbHBHHb, TimeUS,SV,SP,SH,SM,SVT,errRP,OFN,OFE,FS,TS,SS,GPS,PI
FMT, 214, 40, XKF5, QBhhhcccCCfff, TimeUS,NI,FIX,FIY,AFI,HAGL,offset,RI,rng,Herr,eAng,eVel,ePos
FMT, 215, 51, XKF6, QccCfffffffccc, TimeUS,Roll,Pitch,Yaw,VN,VE,VD,dPD,PN,PE,PD,GX,GY,GZ
FMT, 216, 34, XKF7, QccccchhhhhhB, TimeUS,AX,AY,AZ,VWN,VWE,MN,ME,MD,MX,MY,MZ,MI
FMT, 217, 33, XKF8, Qcccccchhhcc, TimeUS,IVN,IVE,IVD,IPN,IPE,IPD,IMX,IMY,IMZ,IYAW,IVT
FMT, 218, 35, XKF9, QcccccfbbHBHHb, TimeUS,SV,SP,SH,SM,SVT,errRP,OFN,OFE,FS,TS,SS,GPS,PI
FMT, 219, 36, XKF0, QBccCCcccccccc, TimeUS,ID,rng,innov,SIV,TR,BPN,BPE,BPD,OFH,OFL,OFN,OFE,OFD
FMT, 220, 27, XKQ1, Qffff, TimeUS,Q1,Q2,Q3,Q4
FMT, 221, 27, XKQ2, Qffff, TimeUS,Q1,Q2,Q3,Q4
FMT, 222, 35, XKFD, Qffffff, TimeUS,IX,IY,IZ,IVX,IVY,IVZ
FMT, 148, 34, TERR, QBLLHffHH, TimeUS,Status,Lat,Lng,Spacing,TerrH,CHeight,Pending,Loaded
FMT, 149, 18, UBX1, QBHBBH, TimeUS,Instance,noisePerMS,jamInd,aPower,agcCnt
FMT, 150, 16, UBX2, QBbBbB, TimeUS,Instance,ofsI,magI,ofsQ,magQ
FMT, 151, 18, UBY1, QBHBBH, TimeUS,Instance,noisePerMS,jamInd,aPower,agcCnt
FMT, 152, 16, UBY2, QBbBbB, TimeUS,Instance,ofsI,magI,ofsQ,magQ
FMT, 170, 42, GRAW, QIHBBddfBbB, TimeUS,WkMS,Week,numSV,sv,cpMes,prMes,doMes,mesQI,cno,lli
FMT, 171, 24, GRXH, QdHbBB, TimeUS,rcvTime,week,leapS,numMeas,recStat
FMT, 172, 41, GRXS, QddfBBBHBBBBB, TimeUS,prMes,cpMes,doMes,gnss,sv,freq,lock,cno,prD,cpD,doD,trk
FMT, 173, 63, SBFE, QIHBBdddfffff, TimeUS,TOW,WN,Mode,Err,Lat,Lng,Height,Undul,Vn,Ve,Vu,COG
FMT, 153, 19, ESC1, Qcccc, TimeUS,RPM,Volt,Curr,Temp
FMT, 154, 19, ESC2, Qcccc, TimeUS,RPM,Volt,Curr,Temp
FMT, 155, 19, ESC3, Qcccc, TimeUS,RPM,Volt,Curr,Temp
FMT, 156, 19, ESC4, Qcccc, TimeUS,RPM,Volt,Curr,Temp
FMT, 157, 19, ESC5, Qcccc, TimeUS,RPM,Volt,Curr,Temp
FMT, 158, 19, ESC6, Qcccc, TimeUS,RPM,Volt,Curr,Temp
FMT, 159, 19, ESC7, Qcccc, TimeUS,RPM,Volt,Curr,Temp
FMT, 160, 19, ESC8, Qcccc, TimeUS,RPM,Volt,Curr,Temp
FMT, 167, 34, MAG2, QhhhhhhhhhBI, TimeUS,MagX,MagY,MagZ,OfsX,OfsY,OfsZ,MOfsX,MOfsY,MOfsZ,Health,S
FMT, 168, 34, MAG3, QhhhhhhhhhBI, TimeUS,MagX,MagY,MagZ,OfsX,OfsY,OfsZ,MOfsX,MOfsY,MOfsZ,Health,S
FMT, 174, 31, ACC1, QQfff, TimeUS,SampleUS,AccX,AccY,AccZ
FMT, 175, 31, ACC2, QQfff, TimeUS,SampleUS,AccX,AccY,AccZ
FMT, 176, 31, ACC3, QQfff, TimeUS,SampleUS,AccX,AccY,AccZ
FMT, 177, 31, GYR1, QQfff, TimeUS,SampleUS,GyrX,GyrY,GyrZ
FMT, 178, 31, GYR2, QQfff, TimeUS,SampleUS,GyrX,GyrY,GyrZ
FMT, 179, 31, GYR3, QQfff, TimeUS,SampleUS,GyrX,GyrY,GyrZ
FMT, 181, 35, PIDR, Qffffff, TimeUS,Des,P,I,D,FF,AFF
FMT, 182, 35, PIDP, Qffffff, TimeUS,Des,P,I,D,FF,AFF
FMT, 183, 35, PIDY, Qffffff, TimeUS,Des,P,I,D,FF,AFF
FMT, 184, 35, PIDA, Qffffff, TimeUS,Des,P,I,D,FF,AFF
FMT, 185, 35, PIDS, Qffffff, TimeUS,Des,P,I,D,FF,AFF
FMT, 186, 35, PIDL, Qffffff, TimeUS,Des,P,I,D,FF,AFF
FMT, 161, 37, BAR2, QffcfIff, TimeUS,Alt,Press,Temp,CRt,SMS,Offset,GndTemp
FMT, 197, 37, BAR3, QffcfIff, TimeUS,Alt,Press,Temp,CRt,SMS,Offset,GndTemp
FMT, 187, 35, VIBE, QfffIII, TimeUS,VibeX,VibeY,VibeZ,Clip0,Clip1,Clip2
FMT, 188, 47, IMT, Qfffffffff, TimeUS,DelT,DelvT,DelaT,DelAX,DelAY,DelAZ,DelVX,DelVY,DelVZ
FMT, 189, 47, IMT2, Qfffffffff, TimeUS,DelT,DelvT,DelaT,DelAX,DelAY,DelAZ,DelVX,DelVY,DelVZ
FMT, 190, 47, IMT3, Qfffffffff, TimeUS,DelT,DelvT,DelaT,DelAX,DelAY,DelAZ,DelVX,DelVY,DelVZ
FMT, 191, 24, ORGN, QBLLe, TimeUS,Type,Lat,Lng,Alt
FMT, 192, 19, RPM, Qff, TimeUS,rpm1,rpm2
FMT, 233, 47, GMB1, Iffffffffff, TimeMS,dt,dax,day,daz,dvx,dvy,dvz,jx,jy,jz
FMT, 234, 44, GMB2, IBfffffffff, TimeMS,es,ex,ey,ez,rx,ry,rz,tx,ty,tz
FMT, 235, 13, GMB3, Ihhh, TimeMS,rl_torque_cmd,el_torque_cmd,az_torque_cmd
FMT, 236, 59, RATE, Qffffffffffff, TimeUS,RDes,R,ROut,PDes,P,POut,YDes,Y,YOut,ADes,A,AOut
FMT, 237, 23, RALY, QBBLLh, TimeUS,Tot,Seq,Lat,Lng,Alt
FMT, 238, 43, VISO, Qffffffff, TimeUS,dt,AngDX,AngDY,AngDZ,PosDX,PosDY,PosDZ,conf
FMT, 224, 23, SBPH, QIII, TimeUS,CrcError,LastInject,IARhyp
FMT, 229, 80, SBR1, QHHBZ, TimeUS,msg_type,sender_id,msg_len,d1
FMT, 230, 205, SBR2, QHZZZ, TimeUS,msg_type,d2,d3,d4
FMT, 25, 41, ATUN, QBBfffffff, TimeUS,Axis,TuneStep,Targ,Min,Max,RP,RD,SP,ddt
FMT, 26, 19, ATDE, Qff, TimeUS,Angle,Rate
FMT, 31, 22, PTUN, QBfHHH, TimeUS,Param,TunVal,CtrlIn,TunLo,TunHi
FMT, 12, 28, OF, QBffff, TimeUS,Qual,flowX,flowY,bodyX,bodyY
FMT, 5, 51, NTUN, Qffffffffff, TimeUS,DPosX,DPosY,PosX,PosY,DVelX,DVelY,VelX,VelY,DAccX,DAccY
FMT, 4, 51, CTUN, Qffffffeccfhh, TimeUS,ThI,ABst,ThO,ThH,DAlt,Alt,BAlt,DSAlt,SAlt,TAlt,DCRt,CRt
FMT, 6, 32, PM, QHHIhBHII, TimeUS,NLon,NLoop,MaxT,PMT,I2CErr,INSErr,LogDrop,Mem
FMT, 30, 27, MOTB, Qffff, TimeUS,LiftMax,BatVolt,BatRes,ThLimit
FMT, 13, 12, EV, QB, TimeUS,Id
FMT, 20, 14, D16, QBh, TimeUS,Id,Value
FMT, 21, 14, DU16, QBH, TimeUS,Id,Value
FMT, 22, 16, D32, QBi, TimeUS,Id,Value
FMT, 23, 16, DU32, QBI, TimeUS,Id,Value
FMT, 24, 16, DFLT, QBf, TimeUS,Id,Value
FMT, 19, 13, ERR, QBB, TimeUS,Subsys,ECode
FMT, 32, 19, HELI, Qff, TimeUS,DRRPM,ERRPM
FMT, 33, 29, PL, QBBffff, TimeUS,Heal,TAcq,pX,pY,vX,vY
FMT, 34, 36, GUID, QBffffff, TimeUS,Type,pX,pY,pZ,vX,vY,vZ
FMT, 35, 32, THRO, QBffffbbbb, TimeUS,Stage,Vel,VelZ,Acc,AccEfZ,Throw,AttOk,HgtOk,PosOk
FMT, 36, 56, PRX, QBfffffffffff, TimeUS,Health,D0,D45,D90,D135,D180,D225,D270,D315,DUp,CAn,CDis
MODE, 11353331, 100, 100, 2
FMT, 254, 47, NKT1, QIffffffff, TimeUS,Cnt,IMUMin,IMUMax,EKFMin,EKFMax,AngMin,AngMax,VelMin,VelM
FMT, 253, 31, CTRL, Qfffff, TimeUS,RMSRollP,RMSRollD,RMSPitchP,RMSPitchD,RMSYaw
MSG, 11536350, APM:Copter V3.5.7 (86ead1ba)
MSG, 11536357, New mission
MSG, 11536368, Frame: QUAD
MODE, 11536372, 100, 100, 2
RFND, 11555521, 0.2, 25, 0, 0
IMU, 11565708, -0.0002004861, -0.0009133728, -0.001083362, 0.258837, -0.05553554, -11.96525, 0, 0, 45.29816, 1, 1, 998, 998
MAG, 11605752, 69, 582, 995, 0, 0, 0, 0, 0, 0, 1, 11605743
RFND, 11605781, 0.2, 25, 0, 0
BARO, 11605819, -0.02825719, 978.5698, 44.17, -0.09591671, 11605, 0, 35
CTUN, 11605831, 0, 0, 0, 0.3167473, 1.047349, 1.047349, -0.02, 0, 0.19, 0, 0, 153
ATT, 11605947, 0, 0.21, 0, 0.84, 359.96, 359.98, 0, 1
RATE, 11605953, -0.9742669, 0.07997511, -0.002486171, -3.78902, -0.066857, -0.008535508, 0.006045891, -0.06336192, -1.178313E-05, -61988.66, 118.1661, 0
NKF1, 11605961, 0.21, 0.84, 359.97, -0.01211129, 0.001400784, -1.530584, 0, 0, 0, -1.047349, 0, 0.01, 0
NKF2, 11605961, -99, 0, 0, 0, 0, 0, 0, 0, 0, 0, 0, 0, 0
NKF3, 11605961, 0, 0, 0, 0, 0, -0.7, 0, 0, 0, 0, 0
NKF4, 11605961, 0, 0, 0.23, 0, 0, 8.623563E-05, 0, 0, 0, 19, 229, 0, 0
NKF5, 11605961, 0, 0, 0, 0, 0.79, 0.13, 0, 0.19, 0.5, 0.0002117689, 0.02535801, 0.0009512731
NKQ1, 11605961, 0.9999198, 0.002884306, 0.01233105, -0.0002970363
AHR2, 11606005, 0.18, 0.67, 359.95, -0.02, 0, 0, 0.999981, 0.001598904, 0.005928836, -0.0004414517
MOTB, 11606013, 1, 1, 0, 1
RCIN, 11606017, 0, 0, 0, 0, 0, 0, 0, 0, 0, 0, 0, 0, 0, 0
RCOU, 11606022, 1101, 1101, 1101, 1101, 0, 0, 0, 0, 0, 0, 0, 0, 0, 0
VIBE, 11606031, 0.02103168, 0.02675428, 0.04064683, 0, 0, 0
CTRL, 11606037, 0.002294953, 0.0001789905, 0.008891041, 0.0002169197, 9.033977E-05
PRX, 11606067, 2, 2.46, 0, 3.58, 0, 3.58, 0, 2.55, 0, 0, 0, 2.46
IMU, 11606075, 0.001396991, -0.0008196556, -0.001108174, 0.2625628, -0.06954937, -11.98314, 0, 0, 45.29819, 1, 1, 998, 998
IMU, 11645638, -0.0006500434, 0.0007593106, 0.00136862, 0.2791459, -0.05733335, -11.9642, 0, 0, 45.29829, 1, 1, 998, 998
RFND, 11655573, 0.2, 25, 0, 0
IMU, 11685514, -0.0002015136, 0.0007914213, 0.0005785413, 0.2516136, -0.06329492, -11.98093, 0, 0, 45.2982, 1, 1, 998, 998
MAG, 11705514, 70, 582, 995, 0, 0, 0, 0, 0, 0, 1, 11705505
RFND, 11705540, 0.2, 25, 0, 0
BARO, 11705576, 0.02543148, 978.5639, 44.16, 0.01692832, 11705, 0, 35
CTUN, 11705588, 0, 0, 0, 0.3167473, 1.073372, 1.073372, 0.02, 0, 0.19, 0, 0, 155
ATT, 11705683, 0, 0.21, 0, 0.84, 359.96, 359.98, 0, 1
RATE, 11705689, -0.9702789, 0.01721884, -0.002629277, -3.796314, -0.04508227, -0.008825026, 0.007277689, -0.1239081, 1.404568E-05, -62969.74, 116.7251, 0
NKF1, 11705696, 0.21, 0.84, 359.97, -0.01264767, 0.001433517, -1.554808, 0, 0, 0, -1.073372, 0, 0.01, 0
NKF2, 11705696, -100, 0, 0, 0, 0, 0, 0, 0, 0, 0, 0, 0, 0
NKF3, 11705696, 0, 0, 0, 0, 0, -0.71, 0, 0, 0, 0, 0
NKF4, 11705696, 0, 0, 0.24, 0, 0, 5.748242E-05, 0, 0, 0, 19, 229, 0, 0
NKF5, 11705696, 0, 0, 0, 0, 0.73, 0.13, 0, 0.19, 0.5, 0.0003506243, 0.05509496, 0.09471979
NKQ1, 11705696, 0.9999197, 0.002878228, 0.01234486, -0.0002890743
AHR2, 11705741, 0.18, 0.68, 359.95, 0.02, 0, 0, 0.999981, 0.001590575, 0.005938675, -0.0004336114
MOTB, 11705748, 1, 1, 0, 1
RCIN, 11705752, 0, 0, 0, 0, 0, 0, 0, 0, 0, 0, 0, 0, 0, 0
RCOU, 11705757, 1101, 1101, 1101, 1101, 0, 0, 0, 0, 0, 0, 0, 0, 0, 0
VIBE, 11705766, 0.07047074, 0.03952411, 0.1368777, 0, 0, 0
CTRL, 11705772, 0.002281009, 0.0002027776, 0.008900353, 0.0002275452, 7.897818E-05
PRX, 11705802, 2, 2.45, 0, 3.58, 0, 3.58, 0, 2.55, 0, 0, 0, 2.45
IMU, 11725638, -5.687078E-05, -0.0001384519, 0.001157748, 0.2544386, -0.058319, -11.97199, 0, 0, 45.29807, 1, 1, 998, 998
RFND, 11755523, 0.2, 25, 0, 0
IMU, 11765701, -6.128408E-06, 0.0005956093, -0.0005249106, 0.2795373, -0.04612049, -11.94724, 0, 0, 45.29805, 1, 1, 998, 998
MAG, 11805591, 66, 583, 990, 0, 0, 0, 0, 0, 0, 1, 11805582
RFND, 11805619, 0.2, 25, 0, 0
BARO, 11805659, -0.1243317, 978.5803, 44.17, -0.253105, 11805, 0, 35
CTUN, 11805671, 0, 0, 0, 0.3167473, 1.085997, 1.085997, -0.12, 0, 0.19, 0, 0, 156
ATT, 11805773, 0, 0.21, 0, 0.84, 359.96, 359.97, 0, 1
RATE, 11805779, -0.9591511, -0.0712583, -0.002081834, -3.810599, -0.04619117, -0.008457859, 0.005930379, -0.02232691, 5.045714E-05, -63483.64, 116.778, 0
NKF1, 11805787, 0.21, 0.84, 359.96, -0.01440717, 0.002159288, -1.567497, 0, 0, 0, -1.085997, 0, 0.01, 0
NKF2, 11805787, -100, 0, 0, 0, 0, 0, 0, 0, 0, 0, 0, 0, 0
NKF3, 11805787, 0, 0, 0, 0, 0, -0.71, 0, 0, 0, 0, 0
NKF4, 11805787, 0, 0, 0.24, 0, 0, 3.868526E-05, 0, 0, 0, 19, 229, 0, 0
NKF5, 11805787, 0, 0, 0, 0, 0.85, 0.13, 0, 0.19, 0.5, 0.0003269036, 0.05321514, 0.02861017
NKQ1, 11805787, 0.9999193, 0.002853875, 0.01237333, -0.0002979632
AHR2, 11805831, 0.17, 0.68, 359.95, -0.12, 0, 0, 0.999981, 0.001562242, 0.005949822, -0.0004425552
MOTB, 11805839, 1, 1, 0, 1
RCIN, 11805843, 0, 0, 0, 0, 0, 0, 0, 0, 0, 0, 0, 0, 0, 0
RCOU, 11805849, 1101, 1101, 1101, 1101, 0, 0, 0, 0, 0, 0, 0, 0, 0, 0
VIBE, 11805857, 0.05043321, 0.04395432, 0.100129, 0, 0, 0
CTRL, 11805863, 0.002267831, 0.0002021505, 0.008923795, 0.0002221373, 7.626478E-05
PRX, 11805893, 2, 2.45, 0, 3.58, 0, 3.58, 0, 2.9, 0, 0, 0, 2.45
IMU, 11805901, -0.001243468, -0.0004696116, -0.0003919658, 0.2361445, -0.07146766, -11.97172, 0, 0, 45.29529, 1, 1, 998, 998
IMU, 11846290, 0.000446521, -0.001928092, -0.002216703, 0.2791525, -0.07019934, -11.97977, 0, 0, 45.29244, 1, 1, 998, 998
RFND, 11855529, 0.2, 25, 0, 0
IMU, 11885643, 0.002002267, -8.232737E-05, -2.890923E-05, 0.2422594, -0.0650173, -11.96929, 0, 0, 45.2889, 1, 1, 998, 998
MAG, 11905646, 68, 578, 986, 0, 0, 0, 0, 0, 0, 1, 11905637
RFND, 11905674, 0.2, 25, 0, 0
BARO, 11905714, -0.1582403, 978.5837, 44.17, -0.4219826, 11905, 0, 35
CTUN, 11905727, 0, 0, 0, 0.3167473, 1.104173, 1.104173, -0.15, 0, 0.19, 0, 0, 158
ATT, 11905832, 0, 0.21, 0, 0.84, 359.96, 359.97, 0, 1
RATE, 11905838, -0.9657538, -0.002988131, -0.001903541, -3.807892, -0.09495466, -0.008606296, 0.007178243, -0.04975604, 6.28234E-05, -64171.88, 116.8063, 0
NKF1, 11905846, 0.21, 0.84, 359.96, -0.01558214, 0.001799316, -1.584491, 0, 0, 0, -1.104173, 0, 0.01, 0
NKF2, 11905846, -99, 0, 0, 0, 0, 0, 0, 0, 0, 0, 0, 0, 0
NKF3, 11905846, 0, 0, 0, 0, 0, -0.74, 0, 0, 0, 0, 0
NKF4, 11905846, 0, 0, 0.25, 0, 0, 2.648053E-05, 0, 0, 0, 19, 229, 0, 0
NKF5, 11905846, 0, 0, 0, 0, 0.79, 0.13, 0, 0.19, 0.5, 0.0004442353, 0.01569304, 0.05639335
NKQ1, 11905846, 0.9999194, 0.002867667, 0.01236762, -0.0003182937
AHR2, 11905892, 0.17, 0.67, 359.94, -0.15, 0, 0, 0.9999811, 0.0015716, 0.005921858, -0.0004630903
MOTB, 11905900, 1, 1, 0, 1
RCIN, 11905904, 0, 0, 0, 0, 0, 0, 0, 0, 0, 0, 0, 0, 0, 0
RCOU, 11905909, 1101, 1101, 1101, 1101, 0, 0, 0, 0, 0, 0, 0, 0, 0, 0
VIBE, 11905918, 0.03760742, 0.03229089, 0.06684044, 0, 0, 0
CTRL, 11905924, 0.002279184, 0.0002081503, 0.00889863, 0.0002328048, 7.826623E-05
PRX, 11905956, 2, 2.45, 0, 3.58, 0, 3.58, 0, 3.28, 0, 0, 0, 2.45
IMU, 11925765, -0.0009290267, 0.001689398, -0.0004602143, 0.2798591, -0.06193538, -11.96347, 0, 0, 45.28663, 1, 1, 998, 998
RFND, 11955517, 0.2, 25, 0, 0
IMU, 11965774, -0.001182762, 0.001031754, -0.001040041, 0.2646919, -0.05351947, -11.97401, 0, 0, 45.28357, 1, 1, 998, 998
MAG, 12006039, 67, 579, 994, 0, 0, 0, 0, 0, 0, 1, 12006031
RFND, 12006068, 0.2, 25, 0, 0
BARO, 12006178, -0.141286, 978.5821, 44.17, -0.501266, 12006, 0, 35
CTUN, 12006192, 0, 0, 0, 0.3167473, 1.133679, 1.133679, -0.14, 0, 0.19, 0, 0, 161
DU32, 12006233, 7, 50389208
ATT, 12006567, 0, 0.21, 0, 0.85, 359.96, 359.97, 0, 1
RATE, 12006574, -0.9543682, 0.0005518615, -0.002242229, -3.828404, -0.04005606, -0.008901637, 0.006814843, 0.007506757, 7.31734E-05, -65244.88, 113.3203, 0
NKF1, 12006581, 0.21, 0.85, 359.96, -0.01631443, 0.002098492, -1.610984, 0, 0, 0, -1.133679, 0, 0.01, 0
NKF2, 12006581, -99, 0, 0, 0, 0, 0, 0, 0, 0, 0, 0, 0, 0
NKF3, 12006581, 0, 0, 0, 0, 0, -0.74, 0, 0, 0, 0, 0
NKF4, 12006581, 0, 0, 0.25, 0, 0, 1.851074E-05, 0, 0, 0, 19, 229, 0, 0
NKF5, 12006581, 0, 0, 0, 0, 0.92, 0.13, 0, 0.19, 0.5, 0.0003874556, 0.07898596, 0.05717822
NKQ1, 12006581, 0.999919, 0.002843816, 0.01240727, -0.0003184001
AHR2, 12006629, 0.17, 0.68, 359.94, -0.14, 0, 0, 0.9999811, 0.001542964, 0.005934971, -0.000463233
MOTB, 12006635, 1, 1, 0, 1
RCIN, 12006640, 0, 0, 0, 0, 0, 0, 0, 0, 0, 0, 0, 0, 0, 0
RCOU, 12006646, 1101, 1101, 1101, 1101, 0, 0, 0, 0, 0, 0, 0, 0, 0, 0
VIBE, 12006654, 0.05236228, 0.04449368, 0.1074084, 0, 0, 0
CTRL, 12006659, 0.002240564, 0.0002005353, 0.008931515, 0.0002522765, 7.145374E-05
PRX, 12006688, 2, 2.45, 0, 3.58, 0, 3.58, 0, 3.38, 0, 0, 0, 2.45
IMU, 12006696, 9.02533E-06, -0.0003754245, 0.0001287599, 0.2751743, -0.05271989, -11.93405, 0, 0, 45.28101, 1, 1, 998, 998
IMU, 12045869, -0.0003259466, -0.0005402632, -0.001034837, 0.2503459, -0.07417743, -11.95493, 0, 0, 45.2786, 1, 1, 998, 998
RFND, 12056287, 0.2, 25, 0, 0
IMU, 12085726, 0.0007745142, -0.000286754, -0.0006348361, 0.279176, -0.06495898, -11.96524, 0, 0, 45.27627, 1, 1, 998, 998
MAG, 12105636, 68, 580, 992, 0, 0, 0, 0, 0, 0, 1, 12105627
RFND, 12105664, 0.2, 25, 0, 0
BARO, 12106245, -0.07912014, 978.5751, 44.17, -0.4684729, 12106, 0, 35
CTUN, 12106263, 0, 0, 0, 0.3167473, 1.151853, 1.151853, -0.07, 0, 0.19, 0, 0, 162
ATT, 12106370, 0, 0.21, 0, 0.85, 359.96, 359.97, 0, 1
RATE, 12106376, -0.9639558, 0.01856327, -0.002220331, -3.832216, -0.03197319, -0.009124252, 0.005703748, 0.08738986, 2.286054E-06, -65875.79, 116.9041, 0
NKF1, 12106385, 0.21, 0.85, 359.96, -0.01753961, 0.001936625, -1.626563, 0, 0, 0, -1.151853, 0, 0.01, 0
NKF2, 12106385, -99, 0, 0, 0, 0, 0, 0, 0, 0, 0, 0, 0, 0
NKF3, 12106385, 0, 0, 0, -0.01, 0, -0.78, 0, 0, 0, 0, 0
NKF4, 12106385, 0, 0, 0.26, 0, 0, 1.378687E-05, 0, 0, 0, 19, 229, 0, 0
NKF5, 12106385, 0, 0, 0, 0, 0.85, 0.13, 0, 0.19, 0.5, 0.0004875702, 0.01084266, 0.02981821
NKQ1, 12106385, 0.9999188, 0.002860136, 0.01241623, -0.0003012453
AHR2, 12106434, 0.17, 0.67, 359.94, -0.07, 0, 0, 0.9999812, 0.001554935, 0.00591713, -0.0004462783
MOTB, 12106441, 1, 1, 0, 1
RCIN, 12106446, 0, 0, 0, 0, 0, 0, 0, 0, 0, 0, 0, 0, 0, 0
RCOU, 12106451, 1101, 1101, 1101, 1101, 0, 0, 0, 0, 0, 0, 0, 0, 0, 0
VIBE, 12106460, 0.03882196, 0.03506935, 0.07590131, 0, 0, 0
CTRL, 12106467, 0.002261227, 0.0001827394, 0.008919521, 0.0002268439, 6.366298E-05
PRX, 12106497, 2, 2.45, 0, 3.58, 0, 3.58, 0, 2.53, 0, 0, 0, 2.45
IMU, 12126207, 0.0002677308, 0.0005472547, 0.0001632455, 0.2331469, -0.04492852, -11.96542, 0, 0, 45.27203, 1, 1, 998, 998
RFND, 12155570, 0.2, 25, 0, 0
IMU, 12165693, -8.640598E-05, 0.0005938213, 0.000648906, 0.2823895, -0.07354513, -11.94524, 0, 0, 45.26814, 1, 1, 998, 998
MAG, 12205732, 67, 579, 988, 0, 0, 0, 0, 0, 0, 1, 12205723
RFND, 12205761, 0.2, 25, 0, 0
BARO, 12205800, -0.06216583, 978.5735, 44.17, -0.1673194, 12205, 0, 35
CTUN, 12205813, 0, 0, 0, 0.3167473, 1.196672, 1.196672, -0.06, 0, 0.19, 0, 0, 166
ATT, 12205914, 0, 0.21, 0, 0.85, 359.96, 359.98, 0, 1
RATE, 12205920, -0.9657279, -0.01972403, -0.002040571, -3.843136, -0.104095, -0.008576493, 0.00744783, 0.07896553, -4.79183E-05, -67344.41, 117.1263, 0
NKF1, 12205927, 0.21, 0.85, 359.97, -0.01944803, 0.001890182, -1.662825, 0, 0, 0, -1.196672, 0, 0.01, 0
NKF2, 12205927, -99, 0, 0, 0, 0, 0, 0, 0, 0, 0, 0, 0, 0
NKF3, 12205927, 0, 0, 0, -0.01, 0, -0.78, 0, 0, 0, 0, 0
NKF4, 12205927, 0, 0, 0.26, 0, 0, 1.071336E-05, 0, 0, 0, 19, 229, 0, 0
NKF5, 12205927, 0, 0, 0, 0, 0.99, 0.13, 0, 0.19, 0.5, 0.0004022514, 0.09514485, 0.07749673
NKQ1, 12205927, 0.9999185, 0.002863612, 0.0124373, -0.0002866485
AHR2, 12205971, 0.17, 0.67, 359.95, -0.06, 0, 0, 0.9999812, 0.001555254, 0.005916197, -0.0004318168
MOTB, 12205978, 1, 1, 0, 1
RCIN, 12205982, 0, 0, 0, 0, 0, 0, 0, 0, 0, 0, 0, 0, 0, 0
RCOU, 12205988, 1101, 1101, 1101, 1101, 0, 0, 0, 0, 0, 0, 0, 0, 0, 0
VIBE, 12205996, 0.02967097, 0.02839324, 0.05294776, 0, 0, 0
CTRL, 12206002, 0.00226713, 0.0001905801, 0.008951997, 0.0002243785, 5.495423E-05
PRX, 12206033, 2, 2.45, 0, 3.58, 0, 3.58, 0, 2.53, 0, 0, 0, 2.45
IMU, 12206041, -0.0003457801, -0.001508062, 0.00137599, 0.2570696, -0.06912243, -11.97448, 0, 0, 45.2644, 1, 1, 998, 998
IMU, 12245704, -0.001927502, -0.0005059534, -0.001163529, 0.2501709, -0.06213489, -11.96831, 0, 0, 45.26123, 1, 1, 998, 998
RFND, 12255583, 0.2, 25, 0, 0
IMU, 12286027, -0.000204305, -0.0007343952, 0.0006897601, 0.2714366, -0.05716561, -11.96953, 0, 0, 45.25761, 1, 1, 998, 998
MAG, 12305638, 65, 575, 987, 0, 0, 0, 0, 0, 0, 1, 12305628
RFND, 12305666, 0.2, 25, 0, 0
BARO, 12305756, -0.06216583, 978.5735, 44.17, 0.1733433, 12305, 0, 35
CTUN, 12305770, 0, 0, 0, 0.3167473, 1.207478, 1.207478, -0.06, 0, 0.19, 0, 0, 167
ATT, 12305912, 0, 0.21, 0, 0.85, 359.96, 359.97, 0, 1
RATE, 12305918, -0.9490424, -0.003585709, -0.002131206, -3.857576, -0.04777347, -0.009036283, 0.007289539, -0.0275258, 4.472646E-05, -67733.38, 117.2678, 0
NKF1, 12305926, 0.21, 0.85, 359.96, -0.02113365, 0.002690729, -1.672429, 0, 0, 0, -1.207478, 0, 0.01, 0
NKF2, 12305926, -99, 0, 0, 0, 0, 0, 0, 0, 0, 0, 0, 0, 0
NKF3, 12305926, 0, 0, 0, -0.01, 0, -0.82, 0, 0, 0, 0, 0
NKF4, 12305926, 0, 0, 0.28, 0, 0, 9.766396E-06, 0, 0, 0, 19, 229, 0, 0
NKF5, 12305926, 0, 0, 0, 0, 0.92, 0.13, 0, 0.19, 0.5, 0.000492608, 0.0307873, 0.009774731
NKQ1, 12305926, 0.9999182, 0.002834512, 0.01246386, -0.0003129968
AHR2, 12305969, 0.17, 0.67, 359.94, -0.06, 0, 0, 0.9999813, 0.001520818, 0.005910108, -0.0004581924
MOTB, 12305976, 1, 1, 0, 1
RCIN, 12305980, 0, 0, 0, 0, 0, 0, 0, 0, 0, 0, 0, 0, 0, 0
RCOU, 12305986, 1101, 1101, 1101, 1101, 0, 0, 0, 0, 0, 0, 0, 0, 0, 0
VIBE, 12305994, 0.02442346, 0.02359716, 0.0431149, 0, 0, 0
CTRL, 12306001, 0.002233604, 0.0001921823, 0.008966545, 0.0002114476, 5.643324E-05
PRX, 12306031, 2, 2.45, 0, 3.58, 0, 3.58, 0, 1.99, 0, 0, 270, 1.99
IMU, 12325706, 0.0009360044, 0.000752323, 0.0006297136, 0.2705177, -0.05658627, -11.97721, 0, 0, 45.25439, 1, 1, 998, 998
RFND, 12355549, 0.2, 25, 0, 0
IMU, 12365699, -0.00170476, 0.0003524874, -0.0001433545, 0.251141, -0.05527969, -11.98285, 0, 0, 45.2513, 1, 1, 998, 998
MAG, 12405653, 66, 581, 991, 0, 0, 0, 0, 0, 0, 1, 12405645
RFND, 12405682, 0.2, 25, 0, 0
BARO, 12405721, -0.141286, 978.5821, 44.17, 0.2390413, 12405, 0, 35
CTUN, 12405733, 0, 0, 0, 0.3167473, 1.254093, 1.254093, -0.14, 0, 0.19, 0, 0, 170
ATT, 12405832, 0, 0.21, 0, 0.86, 359.96, 359.97, 0, 1
RATE, 12405838, -0.9691551, 0.06080225, -0.002405558, -3.873105, -0.0103726, -0.009450058, 0.006128327, 0.03784662, 1.521904E-05, -69251.24, 115.733, 0
NKF1, 12405845, 0.21, 0.86, 359.96, -0.02342932, 0.002966279, -1.709907, 0, 0, 0, -1.254093, 0, 0.01, 0
NKF2, 12405845, -104, 0, 0, 0, 0, 0, 0, 0, 0, 0, 0, 0, 0
NKF3, 12405845, 0, 0, 0, -0.01, 0, -0.86, 0, 0, 0, 0, 0
NKF4, 12405845, 0, 0, 0.29, 0, 0, 9.418791E-06, 0, 0, 0, 19, 229, 0, 0
NKF5, 12405845, 0, 0, 0, 0, 0.84, 0.13, 0, 0.19, 0.5, 0.0005710899, 0.05934021, 0.1279723
NKQ1, 12405845, 0.9999179, 0.002871409, 0.01249387, -0.0003070046
AHR2, 12405891, 0.17, 0.67, 359.94, -0.14, 0, 0, 0.9999812, 0.001553056, 0.005911285, -0.0004524348
MOTB, 12405898, 1, 1, 0, 1
RCIN, 12405902, 0, 0, 0, 0, 0, 0, 0, 0, 0, 0, 0, 0, 0, 0
RCOU, 12405907, 1101, 1101, 1101, 1101, 0, 0, 0, 0, 0, 0, 0, 0, 0, 0
VIBE, 12405916, 0.02509666, 0.03473507, 0.06315468, 0, 0, 0
CTRL, 12405922, 0.002265352, 0.0002316125, 0.008993461, 0.0002142477, 5.361802E-05
PRX, 12405953, 2, 2.45, 0, 3.58, 0, 3.58, 0, 1.99, 0, 0, 270, 1.99
IMU, 12405960, 0.001057437, 9.210236E-05, 0.0006584257, 0.2580738, -0.0707996, -12.00722, 0, 0, 45.24651, 1, 1, 998, 998
IMU, 12445759, 0.000548524, -0.0005626478, 0.0002443332, 0.2492956, -0.0433747, -11.94089, 0, 0, 45.2439, 1, 1, 998, 998
RFND, 12455663, 0.2, 25, 0, 0
IMU, 12485747, -0.0005336968, -0.0008796275, 0.0002107131, 0.2792087, -0.05893776, -11.97628, 0, 0, 45.24018, 1, 1, 998, 998
MAG, 12505608, 73, 579, 989, 0, 0, 0, 0, 0, 0, 1, 12505600
RFND, 12505637, 0.2, 25, 0, 0
BARO, 12505677, -0.09042303, 978.5764, 44.17, 0.04781713, 12505, 0, 35
CTUN, 12505690, 0, 0, 0, 0.3167473, 1.273405, 1.273405, -0.09, 0, 0.19, 0, 0, 172
ATT, 12505991, 0, 0.21, 0, 0.86, 359.96, 359.97, 0, 1
RATE, 12505996, -0.9722025, -0.05529879, -0.001753619, -3.874389, -0.1356764, -0.008469144, 0.00924201, -0.05389198, 3.80647E-05, -69841.84, 118.5538, 0
NKF1, 12506005, 0.21, 0.86, 359.96, -0.02552968, 0.003631036, -1.72449, 0, 0, 0, -1.273405, 0, 0.01, 0
NKF2, 12506005, -99, 0, 0, 0, 0, 0, 0, 0, 0, 0, 0, 0, 0
NKF3, 12506005, 0, 0, 0, -0.01, 0, -0.86, 0, 0, 0, 0, 0
NKF4, 12506005, 0, 0, 0.29, 0, 0, 1.086669E-05, 0, 0, 0, 19, 229, 0, 0
NKF5, 12506005, 0, 0, 0, 0, 0.98, 0.13, 0, 0.19, 0.5, 0.0004816421, 0.04747602, 0.008439437
NKQ1, 12506005, 0.9999178, 0.002880022, 0.01249546, -0.0003136015
AHR2, 12506049, 0.17, 0.67, 359.94, -0.09, 0, 0, 0.9999814, 0.001552652, 0.00587713, -0.000459222
MOTB, 12506056, 1, 1, 0, 1
RCIN, 12506060, 0, 0, 0, 0, 0, 0, 0, 0, 0, 0, 0, 0, 0, 0
RCOU, 12506065, 1101, 1101, 1101, 1101, 0, 0, 0, 0, 0, 0, 0, 0, 0, 0
VIBE, 12506073, 0.02765332, 0.06112007, 0.1070551, 0, 0, 0
CTRL, 12506078, 0.002286721, 0.0002204929, 0.009011869, 0.000221536, 4.519718E-05
PRX, 12506194, 2, 2.45, 0, 3.58, 0, 3.58, 0, 1.64, 0, 0, 270, 1.64
IMU, 12525678, -0.0003499481, -0.001080832, -0.0002569722, 0.2438285, -0.07293929, -11.98457, 0, 0, 45.23424, 1, 1, 998, 998
RFND, 12555497, 0.2, 25, 0, 0
IMU, 12565656, 0.0008213464, 0.001639402, 0.0002947929, 0.2683144, -0.05718625, -11.97428, 0, 0, 45.23063, 1, 1, 998, 998
MAG, 12605655, 66, 580, 991, 0, 0, 0, 0, 0, 0, 1, 12605647
RFND, 12605683, 0.2, 25, 0, 0
BARO, 12605720, -0.1243317, 978.5801, 44.17, -0.1324822, 12605, 0, 35
CTUN, 12605733, 0, 0, 0, 0.3167473, 1.313197, 1.313197, -0.12, 0, 0.19, 0, 0, 175
ATT, 12605834, 0, 0.22, 0, 0.86, 359.96, 359.97, 0, 1
RATE, 12605840, -0.9968567, 0.06698951, -0.002568412, -3.892646, -0.01521195, -0.009197938, 0.008865587, 0.06365182, 5.804738E-05, -71038.67, 113.4895, 0
NKF1, 12605848, 0.22, 0.86, 359.96, -0.02754768, 0.004064826, -1.754041, 0, 0, 0, -1.313197, 0, 0.01, 0
NKF2, 12605848, -100, 0, 0, 0, 0, 0, 0, 0, 0, 0, 0, 0, 0
NKF3, 12605848, 0, 0, 0, -0.02, 0, -0.91, 0, 0, 0, 0, 0
NKF4, 12605848, 0, 0, 0.31, 0, 0, 1.270458E-05, 0, 0, 0, 19, 229, 0, 0
NKF5, 12605848, 0, 0, 0, 0, 0.91, 0.13, 0, 0.19, 0.5, 0.000564579, 0.03692262, 0.1063619
NKQ1, 12605848, 0.9999172, 0.002924806, 0.01253262, -0.000325819
AHR2, 12605891, 0.18, 0.67, 359.94, -0.12, 0, 0, 0.9999813, 0.001587476, 0.005883337, -0.0004717278
MOTB, 12605899, 1, 1, 0, 1
RCIN, 12605903, 0, 0, 0, 0, 0, 0, 0, 0, 0, 0, 0, 0, 0, 0
RCOU, 12605908, 1101, 1101, 1101, 1101, 0, 0, 0, 0, 0, 0, 0, 0, 0, 0
VIBE, 12605917, 0.02891772, 0.04874861, 0.08191918, 0, 0, 0
CTRL, 12605923, 0.002327023, 0.0002058386, 0.009035219, 0.0002222438, 6.184507E-05
PRX, 12605953, 2, 2.45, 0, 3.58, 0, 3.58, 0, 2.29, 0, 0, 270, 2.29
IMU, 12605960, 0.001164076, -1.213222E-05, 0.00110886, 0.2703387, -0.0572056, -11.93806, 0, 0, 45.22955, 1, 1, 998, 998
IMU, 12645481, 0.000823968, -0.001880891, -4.622362E-05, 0.2641366, -0.06417428, -11.96151, 0, 0, 45.23021, 1, 1, 998, 998
RFND, 12655415, 0.2, 25, 0, 0
IMU, 12685510, 0.001914132, 0.000963041, -5.897945E-05, 0.2560703, -0.06270075, -11.97282, 0, 0, 45.23357, 1, 1, 998, 998
MAG, 12705467, 65, 582, 988, 0, 0, 0, 0, 0, 0, 1, 12705459
RFND, 12705498, 0.2, 25, 0, 0
BARO, 12705532, 0.01978004, 978.5647, 44.17, -0.09090125, 12705, 0, 35
CTUN, 12705544, 0, 0, 0, 0.3167473, 1.3423, 1.3423, 0.01, 0, 0.19, 0, 0, 177
ATT, 12705637, 0, 0.22, 0, 0.86, 359.96, 359.97, 0, 1
RATE, 12705643, -1.022434, 0.116582, -0.002886143, -3.896202, -0.03012451, -0.008938968, 0.01035016, -0.01694686, 3.634334E-05, -71942.8, 117.6983, 0
NKF1, 12705650, 0.22, 0.86, 359.96, -0.0299074, 0.004195515, -1.776366, 0, 0, 0, -1.3423, 0, 0.01, 0
NKF2, 12705650, -99, 0, 0, 0, 0, 0, 0, 0, 0, 0, 0, 0, 0
NKF3, 12705650, 0, 0, 0, -0.02, 0, -0.91, 0, 0, 0, 0, 0
NKF4, 12705650, 0, 0, 0.31, 0, 0, 1.578867E-05, 0, 0, 0, 19, 229, 0, 0
NKF5, 12705650, 0, 0, 0, 0, 1.05, 0.13, 0, 0.19, 0.5, 0.0004689848, 0.06183173, 0.02482239
NKQ1, 12705650, 0.999917, 0.002976795, 0.01253838, -0.0003374215
AHR2, 12705695, 0.18, 0.67, 359.94, 0.01, 0, 0, 0.9999814, 0.001631051, 0.005855985, -0.0004836588
MOTB, 12705701, 1, 1, 0, 1
RCIN, 12705705, 0, 0, 0, 0, 0, 0, 0, 0, 0, 0, 0, 0, 0, 0
RCOU, 12705711, 1101, 1101, 1101, 1101, 0, 0, 0, 0, 0, 0, 0, 0, 0, 0
VIBE, 12705719, 0.02650861, 0.0394897, 0.06922003, 0, 0, 0
CTRL, 12705725, 0.002379469, 0.0002028961, 0.00904869, 0.0002196404, 5.636114E-05
PRX, 12705757, 2, 2.45, 0, 3.58, 0, 3.58, 0, 2.72, 0, 0, 0, 2.45
IMU, 12725512, 0.000212019, -0.001368435, -0.0004726796, 0.2482117, -0.0513634, -11.97717, 0, 0, 45.23875, 1, 1, 998, 998
RFND, 12755529, 0.2, 25, 0, 0
IMU, 12765791, 0.0007079617, -1.295468E-05, 0.0001568701, 0.2593633, -0.06803331, -11.97363, 0, 0, 45.24212, 1, 1, 998, 998
MAG, 12805658, 65, 579, 991, 0, 0, 0, 0, 0, 0, 1, 12805649
RFND, 12805691, 0.2, 25, 0, 0
BARO, 12805728, 0.03390864, 978.563, 44.17, 0.1589467, 12805, 0, 35
CTUN, 12805741, 0, 0, 0, 0.3167473, 1.375018, 1.375018, 0.03, 0, 0.19, 0, 0, 180
ATT, 12805857, 0, 0.22, 0, 0.86, 359.96, 359.97, 0, 1
RATE, 12805863, -1.025574, 0.03233992, -0.002551201, -3.908587, 0.02209246, -0.00948905, 0.008290669, -0.02295735, 1.771145E-05, -72922.98, 117.961, 0
NKF1, 12805870, 0.22, 0.86, 359.96, -0.03290074, 0.004719723, -1.800567, 0, 0, 0, -1.375018, 0, 0.01, 0
NKF2, 12805870, -99, 0, 0, 0, 0, 0, 0, 0, 0, 0, 0, 0, 0
NKF3, 12805870, 0, 0, 0, -0.03, 0, -0.95, 0, 0, 0, 0, 0
NKF4, 12805870, 0, 0, 0.33, 0, 0, 1.992779E-05, 0, 0, 0, 19, 229, 0, 0
NKF5, 12805870, 0, 0, 0, 0, 0.98, 0.13, 0, 0.19, 0.5, 0.0005576887, 0.01586004, 0.08467685
NKQ1, 12805870, 0.9999166, 0.002982906, 0.01256198, -0.0003321445
AHR2, 12805916, 0.18, 0.67, 359.94, 0.03, 0, 0, 0.9999815, 0.001630443, 0.005848881, -0.0004785402
MOTB, 12805923, 1, 1, 0, 1
RCIN, 12805928, 0, 0, 0, 0, 0, 0, 0, 0, 0, 0, 0, 0, 0, 0
RCOU, 12805933, 1101, 1101, 1101, 1101, 0, 0, 0, 0, 0, 0, 0, 0, 0, 0
VIBE, 12805941, 0.02275936, 0.03613705, 0.04977715, 0, 0, 0
CTRL, 12805948, 0.002401514, 0.0002115817, 0.009059787, 0.0002063378, 5.064149E-05
PRX, 12805979, 2, 2.46, 0, 3.58, 0, 3.58, 0, 1.74, 0, 0, 270, 1.74
IMU, 12805985, 0.0005574747, 0.0006175115, -0.0004027151, 0.2549111, -0.06060696, -11.98104, 0, 0, 45.24182, 1, 1, 998, 998
IMU, 12845712, -0.001052372, -0.0004387476, -0.0003292485, 0.2889377, -0.04914065, -11.98989, 0, 0, 45.24198, 1, 1, 998, 998
RFND, 12855498, 0.2, 25, 0, 0
IMU, 12885601, 0.0002240754, -0.0003249398, 0.0002029428, 0.2406003, -0.06699322, -11.95028, 0, 0, 45.24173, 1, 1, 998, 998
MAG, 12905436, 70, 581, 986, 0, 0, 0, 0, 0, 0, 1, 12905428
RFND, 12905466, 0.2, 25, 0, 0
BARO, 12905501, 0.04803723, 978.5615, 44.17, 0.425624, 12905, 0, 35
CTUN, 12905513, 0, 0, 0, 0.3167473, 1.415813, 1.415813, 0.04, 0, 0.19, 0, 0, 183
ATT, 12905607, 0, 0.22, 0, 0.87, 359.96, 359.97, 0, 1
RATE, 12905613, -1.027951, 0.05620185, -0.002699488, -3.919106, -0.05918479, -0.009046716, 0.01045731, -0.06166343, 9.649238E-05, -74148.87, 115.6775, 0
NKF1, 12905621, 0.22, 0.87, 359.96, -0.03535977, 0.005046014, -1.830836, 0, 0, 0, -1.415813, 0, 0.01, 0
NKF2, 12905621, -99, 0, 0, 0, 0, 0, 0, 0, 0, 0, 0, 0, 0
NKF3, 12905621, 0, 0, 0, -0.03, 0, -0.95, 0, 0, 0, 0, 0
NKF4, 12905621, 0, 0, 0.33, 0, 0, 2.454963E-05, 0, 0, 0, 19, 229, 0, 0
NKF5, 12905621, 0, 0, 0, 0, 1.13, 0.13, 0, 0.19, 0.5, 0.0004565318, 0.07538775, 0.04123244
NKQ1, 12905621, 0.9999164, 0.002989394, 0.01258329, -0.0003631258
AHR2, 12905665, 0.18, 0.66, 359.94, 0.04, 0, 0, 0.9999815, 0.001629842, 0.005836864, -0.0005096787
MOTB, 12905671, 1, 1, 0, 1
RCIN, 12905676, 0, 0, 0, 0, 0, 0, 0, 0, 0, 0, 0, 0, 0, 0
RCOU, 12905681, 1101, 1101, 1101, 1101, 0, 0, 0, 0, 0, 0, 0, 0, 0, 0
VIBE, 12905689, 0.02580472, 0.02784861, 0.04154379, 0, 0, 0
CTRL, 12905696, 0.002400344, 0.0001879623, 0.009099199, 0.0001849694, 6.021832E-05
PRX, 12905727, 2, 2.45, 0, 3.58, 0, 3.58, 0, 1.74, 0, 0, 270, 1.74
IMU, 12925785, 0.001919352, -0.0006127445, -0.001741668, 0.2787043, -0.06175383, -11.95433, 0, 0, 45.24183, 1, 1, 998, 998
RFND, 12955434, 0.2, 25, 0, 0
IMU, 12965480, -0.001280917, 0.001324165, -0.0005124753, 0.255616, -0.09253794, -12.01436, 0, 0, 45.24271, 1, 1, 998, 998
MAG, 13005535, 62, 584, 983, 0, 0, 0, 0, 0, 0, 1, 13005526
RFND, 13005566, 0.2, 25, 0, 0
BARO, 13005600, 0.1921489, 978.546, 44.17, 0.5245242, 13005, 0, 35
CTUN, 13005612, 0, 0, 0, 0.3167473, 1.438802, 1.438802, 0.19, 0, 0.19, 0, 0, 184
DU32, 13005650, 7, 50389208
ATT, 13005977, 0, 0.22, 0, 0.87, 359.95, 359.96, 0, 1
RATE, 13005983, -1.03073, -0.002322787, -0.002668711, -3.927473, -0.05006522, -0.009455509, 0.009201123, -0.1297487, 0.0001596453, -74838.8, 118.4075, 0
NKF1, 13005991, 0.22, 0.87, 359.95, -0.03762221, 0.005508643, -1.847872, 0, 0, 0, -1.438802, 0, 0.01, 0
NKF2, 13005991, -99, 0, 0, 0, 0, 0, 0, 0, 0, 0, 0, 0, 0
NKF3, 13005991, 0, 0, 0, -0.03, 0, -1, 0, 0, 0, 0, 0
NKF4, 13005991, 0, 0, 0.34, 0, 0, 3.154039E-05, 0, 0, 0, 19, 229, 0, 0
NKF5, 13005991, 0, 0, 0, 0, 1.05, 0.13, 0, 0.19, 0.5, 0.0005519495, 0.005091568, 0.06438614
NKQ1, 13005991, 0.9999161, 0.002997318, 0.01259858, -0.0004092449
AHR2, 13006034, 0.18, 0.66, 359.93, 0.19, 0, 0, 0.9999816, 0.001629831, 0.005814197, -0.0005559725
MOTB, 13006041, 1, 1, 0, 1
RCIN, 13006045, 0, 0, 0, 0, 0, 0, 0, 0, 0, 0, 0, 0, 0, 0
RCOU, 13006050, 1101, 1101, 1101, 1101, 0, 0, 0, 0, 0, 0, 0, 0, 0, 0
VIBE, 13006058, 0.1150342, 0.107185, 0.251069, 0, 0, 0
CTRL, 13006063, 0.002418334, 0.0002019109, 0.00910986, 0.0002233866, 9.470059E-05
PRX, 13006092, 2, 2.45, 0, 3.58, 0, 3.58, 0, 1.47, 0, 0, 270, 1.47
IMU, 13006185, -5.006217E-05, -0.0006641193, -0.002266559, 0.2732946, -0.04957288, -11.98716, 0, 0, 45.24598, 1, 1, 998, 998
IMU, 13045592, -0.0003414544, -7.272021E-05, 0.001108167, 0.2671386, -0.02803324, -11.94962, 0, 0, 45.25014, 1, 1, 998, 998
RFND, 13055533, 0.2, 25, 0, 0
IMU, 13085670, 0.0006202301, -7.561804E-05, -0.001114767, 0.2524849, -0.07106328, -11.96883, 0, 0, 45.25504, 1, 1, 998, 998
MAG, 13105703, 64, 580, 989, 0, 0, 0, 0, 0, 0, 1, 13105695
RFND, 13105731, 0.2, 25, 0, 0
BARO, 13105769, 0.1441117, 978.5511, 44.17, 0.5130447, 13105, 0, 35
CTUN, 13105781, 0, 0, 0, 0.3167473, 1.490855, 1.490855, 0.14, 0, 0.19, 0, 0, 188
ATT, 13105881, 0, 0.22, 0, 0.87, 359.95, 359.96, 0, 1
RATE, 13105888, -1.028921, -0.02854994, -0.002125295, -3.947078, -0.05322276, -0.009242833, 0.007544005, -0.04769779, 0.0001561341, -76313.8, 118.7724, 0
NKF1, 13105895, 0.22, 0.87, 359.95, -0.04026902, 0.007003724, -1.884291, 0, 0, 0, -1.490855, 0, 0.01, 0
NKF2, 13105895, -99, 0, 0, 0, 0, 0, 0, 0, 0, 0, 0, 0, 0
NKF3, 13105895, 0, 0, 0, -0.03, 0, -1, 0, 0, 0, 0, 0
NKF4, 13105895, 0, 0, 0.34, 0, 0, 3.774625E-05, 0, 0, 0, 19, 229, 0, 0
NKF5, 13105895, 0, 0, 0, 0, 1.21, 0.13, 0, 0.19, 0.5, 0.0004448791, 0.08733045, 0.0570978
NKQ1, 13105895, 0.9999157, 0.002991304, 0.01263588, -0.0004280158
AHR2, 13105940, 0.18, 0.66, 359.93, 0.14, 0, 0, 0.9999816, 0.001617551, 0.005816787, -0.0005748479
MOTB, 13105947, 1, 1, 0, 1
RCIN, 13105951, 0, 0, 0, 0, 0, 0, 0, 0, 0, 0, 0, 0, 0, 0
RCOU, 13105956, 1101, 1101, 1101, 1101, 0, 0, 0, 0, 0, 0, 0, 0, 0, 0
VIBE, 13105964, 0.07244784, 0.0799287, 0.1642922, 0, 0, 0
CTRL, 13105970, 0.002420853, 0.0001796531, 0.009154314, 0.0002210145, 0.000113755
PRX, 13106002, 2, 2.45, 0, 3.58, 0, 3.58, 0, 1.47, 0, 0, 270, 1.47
IMU, 13125648, 0.0008193326, -0.000506905, -8.193275E-05, 0.2651625, -0.06514075, -11.96724, 0, 0, 45.26042, 1, 1, 998, 998
RFND, 13155565, 0.2, 25, 0, 0
IMU, 13165835, -0.001776527, 0.0004789186, -0.00137599, 0.2435024, -0.05920274, -11.98565, 0, 0, 45.26432, 1, 1, 998, 998
MAG, 13205750, 68, 584, 989, 0, 0, 0, 0, 0, 0, 1, 13205741
RFND, 13205777, 0.2, 25, 0, 0
BARO, 13205816, 0.0875973, 978.5574, 44.16, 0.4688928, 13205, 0, 35
CTUN, 13205829, 0, 0, 0, 0.3167473, 1.507854, 1.507854, 0.08, 0, 0.19, 0, 0, 189
ATT, 13205931, 0, 0.23, 0, 0.88, 359.94, 359.96, 0, 1
RATE, 13205937, -1.037989, 0.003665708, -0.002341042, -3.963754, 0.06807292, -0.01001504, 0.01269499, -0.01577802, 0.0001517114, -76810.14, 114.3168, 0
NKF1, 13205944, 0.23, 0.88, 359.95, -0.04351106, 0.008130177, -1.896547, 0, 0, 0, -1.507854, 0, 0.01, 0
NKF2, 13205944, -99, 0, 0, 0, 0, 0, 0, 0, 0, 0, 0, 0, 0
NKF3, 13205944, 0, 0, 0, -0.04, 0, -1.04, 0, 0, 0, 0, 0
NKF4, 13205944, 0, 0, 0.36, 0, 0, 4.831692E-05, 0, 0, 0, 19, 229, 0, 0
NKF5, 13205944, 0, 0, 0, 0, 1.12, 0.13, 0, 0.19, 0.5, 0.0005407481, 0.02190468, 0.04423936
NKQ1, 13205944, 0.9999151, 0.003008347, 0.01266808, -0.000464374
AHR2, 13205990, 0.18, 0.66, 359.93, 0.08, 0, 0, 0.9999816, 0.001627271, 0.005806824, -0.0006114166
MOTB, 13205997, 1, 1, 0, 1
RCIN, 13206001, 0, 0, 0, 0, 0, 0, 0, 0, 0, 0, 0, 0, 0, 0
RCOU, 13206007, 1101, 1101, 1101, 1101, 0, 0, 0, 0, 0, 0, 0, 0, 0, 0
VIBE, 13206015, 0.04776979, 0.07080605, 0.1275517, 0, 0, 0
CTRL, 13206021, 0.002428347, 0.0002086999, 0.009179067, 0.000234915, 0.000121011
PRX, 13206052, 2, 2.45, 0, 3.58, 0, 3.58, 0, 2.65, 0, 0, 0, 2.45
IMU, 13206059, 5.106832E-05, 0.001375278, -0.0002774106, 0.2888428, -0.05302439, -11.94368, 0, 0, 45.26795, 1, 1, 998, 998
IMU, 13245565, -0.0001481368, 9.054723E-05, 0.0008841024, 0.2369388, -0.0814871, -11.96115, 0, 0, 45.27104, 1, 1, 998, 998
RFND, 13255666, 0.2, 25, 0, 0
IMU, 13285493, 0.0008210005, -0.0006083829, -0.0005967239, 0.2702251, -0.06184027, -11.97011, 0, 0, 45.2745, 1, 1, 998, 998
MAG, 13305478, 69, 581, 985, 0, 0, 0, 0, 0, 0, 1, 13305470
RFND, 13305505, 0.2, 25, 0, 0
BARO, 13305542, 0.08194587, 978.5578, 44.17, 0.236654, 13305, 0, 35
CTUN, 13305554, 0, 0, 0, 0.3167473, 1.561062, 1.561062, 0.08, 0, 0.19, 0, 0, 193
ATT, 13305648, 0, 0.23, 0, 0.88, 359.94, 359.95, 0, 1
RATE, 13305655, -1.044254, -0.02664492, -0.002142748, -3.981076, 0.04708873, -0.009724951, 0.006671677, 0.03078327, 0.000124587, -78271.76, 112.122, 0
NKF1, 13305662, 0.23, 0.88, 359.94, -0.04653529, 0.00829949, -1.932636, 0, 0, 0, -1.561062, 0, 0, 0
NKF2, 13305662, -104, 0, 0, 0, 0, 0, 0, 0, 0, 0, 0, 0, 0
NKF3, 13305662, 0, 0, 0, -0.05, 0, -1.09, 0, 0, 0, 0, 0
NKF4, 13305662, 0, 0, 0.38, 0, 0, 5.700675E-05, 0, 0, 0, 19, 229, 0, 0
NKF5, 13305662, 0, 0, 0, 0, 1.04, 0.13, 0, 0.19, 0.5, 0.0006190721, 0.06900895, 0.1799801
NKQ1, 13305662, 0.9999146, 0.003019339, 0.01270195, -0.0004820049
AHR2, 13305706, 0.18, 0.66, 359.92, 0.08, 0, 0, 0.9999816, 0.001632039, 0.005804125, -0.0006292276
MOTB, 13305713, 1, 1, 0, 1
RCIN, 13305717, 0, 0, 0, 0, 0, 0, 0, 0, 0, 0, 0, 0, 0, 0
RCOU, 13305722, 1101, 1101, 1101, 1101, 0, 0, 0, 0, 0, 0, 0, 0, 0, 0
VIBE, 13305731, 0.03810909, 0.05392472, 0.09342091, 0, 0, 0
CTRL, 13305737, 0.002448864, 0.0002231091, 0.009224502, 0.0002211142, 0.0001338499
PRX, 13305768, 2, 2.45, 0, 3.58, 0, 3.58, 0, 2.96, 0, 0, 0, 2.45
IMU, 13325580, -0.001167596, 0.001282405, 0.001543483, 0.2539271, -0.04523434, -11.96078, 0, 0, 45.27797, 1, 1, 998, 998
EV, 13355261, 57
RFND, 13355464, 0.2, 25, 0, 0
IMU, 13365466, -0.0008551367, 0.0006885069, 0.001154851, 0.2848597, -0.06800193, -11.96336, 0, 0, 45.28139, 1, 1, 998, 998
MAG, 13405650, 70, 580, 985, 0, 0, 0, 0, 0, 0, 1, 13405641
RFND, 13405678, 0.2, 25, 0, 0
BARO, 13405717, 0.03108292, 978.5634, 44.17, -0.1218592, 13405, 0, 35
CTUN, 13405729, 0, 0, 0, 0.3167473, 1.578268, 1.578268, 0.03, 0, 0.19, 0, 0, 194
ATT, 13405829, 0, 0.23, 0, 0.89, 359.95, 359.96, 0, 1
RATE, 13405835, -1.038898, -0.03247398, -0.002017723, -4.018155, 0.01651307, -0.00953835, 0.008109652, 0.02075142, -9.626483E-05, -78799.49, 115.1535, 0
NKF1, 13405842, 0.23, 0.89, 359.95, -0.04949844, 0.008952857, -1.945666, 0, 0, 0, -1.578268, 0, 0, 0
NKF2, 13405842, -99, 0, 0, 0, 0, 0, 0, 0, 0, 0, 0, 0, 0
NKF3, 13405842, 0, 0, 0, -0.05, 0, -1.09, 0, 0, 0, 0, 0
NKF4, 13405842, 0, 0, 0.38, 0, 0, 7.091646E-05, 0, 0, 0, 19, 229, 0, 0
NKF5, 13405842, 0, 0, 0, 0, 1.2, 0.13, 0, 0.19, 0.5, 0.0005203484, 0.03799755, 0.02356546
NKQ1, 13405842, 0.9999138, 0.003008861, 0.01277493, -0.0004290587
AHR2, 13405886, 0.18, 0.66, 359.93, 0.03, 0, 0, 0.9999815, 0.0016134, 0.005831715, -0.0005764207
MOTB, 13405893, 1, 1, 0, 1
RCIN, 13405897, 0, 0, 0, 0, 0, 0, 0, 0, 0, 0, 0, 0, 0, 0
RCOU, 13405903, 1112, 1112, 1112, 1112, 0, 0, 0, 0, 0, 0, 0, 0, 0, 0
VIBE, 13405911, 0.02916299, 0.04068655, 0.06535564, 0, 0, 0
CTRL, 13405917, 0.00243945, 0.0002143336, 0.009313555, 0.0001989608, 0.0001212921
PRX, 13405948, 2, 2.45, 0, 3.58, 0, 3.58, 0, 3.31, 0, 0, 0, 2.45
IMU, 13405955, -0.0005839096, 0.0004536658, 0.0003600934, 0.2728625, -0.06461047, -11.95439, 0, 0, 45.28453, 1, 1, 998, 998
IMU, 13445684, 0.0006493285, -0.0006148975, 0.000873086, 0.2375755, -0.0667512, -11.97578, 0, 0, 45.28526, 1, 1, 998, 998
RFND, 13455463, 0.2, 25, 0, 0
IMU, 13485765, 0.0008294515, -0.0009732462, -0.001118345, 0.2674663, -0.04899119, -11.9701, 0, 0, 45.28514, 1, 1, 998, 998
MAG, 13505674, 70, 584, 995, 0, 0, 0, 0, 0, 0, 1, 13505665
RFND, 13505702, 0.2, 25, 0, 0
BARO, 13505741, 0.161066, 978.5492, 44.17, -0.2631451, 13505, 0, 35
CTUN, 13505753, 0, 0, 0, 0.3167473, 1.622306, 1.622306, 0.16, 0, 0.19, 0, 0, 197
ATT, 13506089, 0, 0.23, 0, 0.89, 359.94, 359.96, 0, 1
RATE, 13506095, -1.05737, 0.07077867, -0.002610069, -4.025174, 0.04737991, -0.009864614, 0.008281605, -0.09599271, 0.0001104754, -79974.48, 113.8405, 0
NKF1, 13506191, 0.23, 0.89, 359.95, -0.05291114, 0.01015074, -1.974679, 0, 0, 0, -1.622307, 0, 0, 0
NKF2, 13506191, -99, 0, 0, 0, 0, 0, 0, 0, 0, 0, 0, 0, 0
NKF3, 13506191, 0, 0, 0, -0.06, 0, -1.14, 0, 0, 0, 0, 0
NKF4, 13506191, 0, 0, 0.4, 0, 0, 8.377457E-05, 0, 0, 0, 19, 229, 0, 0
NKF5, 13506191, 0, 0, 0, 0, 1.12, 0.13, 0, 0.19, 0.5, 0.0005974477, 0.04636658, 0.1527169
NKQ1, 13506191, 0.9999135, 0.003048729, 0.01278776, -0.0004633056
AHR2, 13506236, 0.18, 0.66, 359.93, 0.16, 0, 0, 0.9999816, 0.001645548, 0.005807929, -0.0006109998
MOTB, 13506243, 1, 1, 0, 1
RCIN, 13506248, 0, 0, 0, 0, 0, 0, 0, 0, 0, 0, 0, 0, 0, 0
RCOU, 13506254, 1136, 1136, 1136, 1136, 0, 0, 0, 0, 0, 0, 0, 0, 0, 0
VIBE, 13506262, 0.05811786, 0.05827508, 0.1282625, 0, 0, 0
CTRL, 13506268, 0.002469375, 0.0002084487, 0.009329, 0.0002123146, 0.0001051471
PRX, 13506299, 2, 2.45, 0, 3.58, 0, 3.58, 0, 3.46, 0, 0, 0, 2.45
IMU, 13525841, 0.0004602197, 0.001313931, -0.0004938734, 0.2638705, -0.05730126, -11.97339, 0, 0, 45.28493, 1, 1, 998, 998
RFND, 13555561, 0.2, 25, 0, 0
IMU, 13565705, -0.0009506762, -0.0003814032, 0.000822461, 0.2728976, -0.064685, -11.99827, 0, 0, 45.28542, 1, 1, 998, 998
MAG, 13605618, 63, 582, 990, 0, 0, 0, 0, 0, 0, 1, 13605609
RFND, 13605647, 0.2, 25, 0, 0
BARO, 13605685, 0.231709, 978.5416, 44.16, -0.0547483, 13605, 0, 35
CTUN, 13605698, 0, 0, 0, 0.3167473, 1.65184, 1.65184, 0.23, 0, 0.19, 0, 0, 199
ATT, 13605801, 0, 0.23, 0, 0.89, 359.94, 359.96, 0, 1
RATE, 13605808, -1.061532, -0.01819746, -0.002396712, -4.041775, -0.07027048, -0.009385478, 0.008337285, -0.0101494, 8.223534E-05, -80851.01, 115.2431, 0
NKF1, 13605815, 0.23, 0.89, 359.95, -0.05596033, 0.01058755, -1.996321, 0, 0, 0, -1.65184, 0, 0, 0
NKF2, 13605815, -99, 0, 0, 0, 0, 0, 0, 0, 0, 0, 0, 0, 0
NKF3, 13605815, 0, 0, 0, -0.06, 0, -1.14, 0, 0, 0, 0, 0
NKF4, 13605815, 0, 0, 0.4, 0, 0, 9.991133E-05, 0, 0, 0, 19, 229, 0, 0
NKF5, 13605815, 0, 0, 0, 0, 1.29, 0.13, 0, 0.19, 0.5, 0.0004933476, 0.05286876, 0.004189522
NKQ1, 13605815, 0.9999131, 0.003054118, 0.01281996, -0.0004686858
AHR2, 13605862, 0.18, 0.66, 359.93, 0.23, 0, 0, 0.9999816, 0.0016417, 0.005802018, -0.0006166476
MOTB, 13605869, 1, 1, 0, 1
RCIN, 13605874, 0, 0, 0, 0, 0, 0, 0, 0, 0, 0, 0, 0, 0, 0
RCOU, 13605879, 1160, 1160, 1160, 1160, 0, 0, 0, 0, 0, 0, 0, 0, 0, 0
VIBE, 13605887, 0.03715727, 0.04754777, 0.08489405, 0, 0, 0
CTRL, 13605893, 0.002481363, 0.0001870256, 0.009375581, 0.0001885329, 0.0001018442
PRX, 13605924, 2, 2.45, 0, 2.99, 0, 3.58, 0, 3.5, 0, 0, 0, 2.45
IMU, 13605931, -0.0003402803, -0.001082047, -0.0001793416, 0.2644694, -0.06142453, -11.95367, 0, 0, 45.2854, 1, 1, 998, 998
IMU, 13645666, 0.0007032822, 0.0002540468, -0.0001884344, 0.255755, -0.06009141, -11.94409, 0, 0, 45.28394, 1, 1, 998, 998
RFND, 13655495, 0.2, 25, 0, 0
IMU, 13685653, 0.0001915597, -5.9924E-05, -0.001315314, 0.2570602, -0.06148516, -11.95901, 0, 0, 45.28164, 1, 1, 998, 998
MAG, 13705653, 68, 581, 987, 0, 0, 0, 0, 0, 0, 1, 13705645
RFND, 13705683, 0.2, 25, 0, 0
BARO, 13705721, 0.1469374, 978.551, 44.17, 0.3046479, 13705, 0, 35
CTUN, 13705734, 0, 0, 0, 0.3167473, 1.686885, 1.686885, 0.14, 0, 0.19, 0, 0, 201
ATT, 13705836, 0, 0.23, 0, 0.9, 359.94, 359.95, 0, 1
RATE, 13705842, -1.070102, 0.03918352, -0.002717962, -4.063002, -0.05143947, -0.009206582, 0.008444785, 0.01476128, 0.0001176142, -81711.12, 116.243, 0
NKF1, 13705850, 0.23, 0.9, 359.94, -0.06000344, 0.01118523, -2.017558, 0, 0, 0, -1.686885, 0, 0, 0
NKF2, 13705850, -99, 0, 0, 0, 0, 0, 0, 0, 0, 0, 0, 0, 0
NKF3, 13705850, 0, 0, 0, -0.07, 0.01, -1.19, 0, 0, 0, 0, 0
NKF4, 13705850, 0, 0, 0.42, 0, 0, 0.0001171029, 0, 0, 0, 19, 229, 0, 0
NKF5, 13705850, 0, 0, 0, 0, 1.19, 0.13, 0, 0.19, 0.5, 0.0005665731, 0.02467235, 0.1251116
NKQ1, 13705850, 0.9999124, 0.003070221, 0.01286084, -0.0004941842
AHR2, 13705895, 0.18, 0.66, 359.92, 0.14, 0, 0, 0.9999816, 0.00164695, 0.005805971, -0.0006424719
MOTB, 13705903, 1, 1, 0, 1
RCIN, 13705908, 0, 0, 0, 0, 0, 0, 0, 0, 0, 0, 0, 0, 0, 0
RCOU, 13705913, 1184, 1184, 1184, 1184, 0, 0, 0, 0, 0, 0, 0, 0, 0, 0
VIBE, 13705922, 0.0267024, 0.03862968, 0.06558857, 0, 0, 0
CTRL, 13705928, 0.002495922, 0.0001690161, 0.009426926, 0.0001719763, 0.0001018162
PRX, 13705960, 2, 2.45, 0, 2.99, 0, 3.58, 0, 2.61, 0, 0, 0, 2.45
IMU, 13725767, 0.001098487, -0.001008962, -0.0005218486, 0.2605347, -0.0710672, -11.97232, 0, 0, 45.28176, 1, 1, 998, 998
RFND, 13755564, 0.2, 25, 0, 0
IMU, 13765697, 0.0008083033, -0.000560122, -0.001104581, 0.2718381, -0.05798704, -11.96478, 0, 0, 45.28151, 1, 1, 998, 998
MAG, 13805535, 71, 581, 994, 0, 0, 0, 0, 0, 0, 1, 13805527
RFND, 13805564, 0.2, 25, 0, 0
BARO, 13805601, 0.05086295, 978.5613, 44.17, 0.3832382, 13805, 0, 35
CTUN, 13805615, 0, 0, 0, 0.3167473, 1.733001, 1.733001, 0.05, 0, 0.19, 0, 0, 204
ATT, 13805719, 0, 0.24, 0, 0.9, 359.94, 359.95, 0, 1
RATE, 13805725, -1.093824, 0.06779773, -0.002640425, -4.063522, -0.05692236, -0.009544699, 0.008636945, -0.01776795, 6.583774E-05, -82942.04, 113.895, 0
NKF1, 13805732, 0.24, 0.9, 359.94, -0.06383186, 0.012239, -2.047951, 0, 0, 0, -1.733001, 0, 0, 0
NKF2, 13805732, -99, 0, 0, 0, 0, 0, 0, 0, 0, 0, 0, 0, 0
NKF3, 13805732, 0, 0, 0, -0.07, 0.01, -1.19, 0, 0, 0, 0, 0
NKF4, 13805732, 0, 0, 0.42, 0, 0, 0.0001348728, 0, 0, 0, 19, 229, 0, 0
NKF5, 13805732, 0, 0, 0, 0, 1.37, 0.13, 0, 0.19, 0.5, 0.0004583521, 0.06672627, 0.0188723
NKQ1, 13805732, 0.9999123, 0.003117335, 0.01286186, -0.0004967889
AHR2, 13805776, 0.19, 0.66, 359.92, 0.05, 0, 0, 0.9999817, 0.001681585, 0.005769737, -0.000645547
MOTB, 13805783, 1, 1, 0, 1
RCIN, 13805787, 0, 0, 0, 0, 0, 0, 0, 0, 0, 0, 0, 0, 0, 0
RCOU, 13805793, 1208, 1208, 1208, 1208, 0, 0, 0, 0, 0, 0, 0, 0, 0, 0
VIBE, 13805801, 0.03094875, 0.05154517, 0.0898625, 0, 0, 0
CTRL, 13805807, 0.002548801, 0.0001691456, 0.009428638, 0.0001621148, 9.503334E-05
PRX, 13805838, 2, 2.45, 0, 2.59, 0, 3.58, 0, 2.61, 0, 0, 0, 2.45
IMU, 13805845, 0.001154223, -0.0008684079, -0.0003124759, 0.2465913, -0.0562146, -11.94023, 0, 0, 45.27802, 1, 1, 998, 998
IMU, 13845789, 0.0007933198, 0.0001559167, 0.001346489, 0.2610949, -0.06218615, -11.95768, 0, 0, 45.27197, 1, 1, 998, 998
RFND, 13855637, 0.2, 25, 0, 0
IMU, 13885722, 0.001416955, 0.0004044468, -6.443923E-05, 0.2418866, -0.08189128, -11.97423, 0, 0, 45.26411, 1, 1, 998, 998
MAG, 13905568, 65, 575, 989, 0, 0, 0, 0, 0, 0, 1, 13905560
RFND, 13905658, 0.2, 25, 0, 0
BARO, 13905698, 0.1158545, 978.5541, 44.17, 0.01324557, 13905, 0, 35
CTUN, 13905711, 0, 0, 0, 0.3167473, 1.756963, 1.756963, 0.11, 0, 0.19, 0, 0, 206
ATT, 13905813, 0, 0.24, 0, 0.9, 359.94, 359.95, 0, 1
RATE, 13905820, -1.111808, 0.01355045, -0.002503485, -4.08493, -0.1093907, -0.009028834, 0.008829527, -0.06568794, 5.886867E-05, -83586.02, 115.7576, 0
NKF1, 13905827, 0.24, 0.9, 359.94, -0.06703549, 0.01282153, -2.063852, 0, 0, 0, -1.756963, 0, 0, 0
NKF2, 13905827, -99, 0, 0, 0, 0, 0, 0, 0, 0, 0, 0, 0, 0
NKF3, 13905827, 0, 0, 0, -0.09, 0.01, -1.24, 0, 0, 0, 0, 0
NKF4, 13905827, 0, 0, 0.44, 0, 0, 0.0001563666, 0, 0, 0, 19, 229, 0, 0
NKF5, 13905827, 0, 0, 0, 0, 1.28, 0.13, 0, 0.19, 0.5, 0.0005251787, 0.00527578, 0.09795181
NKQ1, 13905827, 0.9999117, 0.003153728, 0.01290252, -0.0005069078
AHR2, 13905928, 0.19, 0.66, 359.92, 0.11, 0, 0, 0.9999817, 0.001704532, 0.005770564, -0.0006561324
MOTB, 13905935, 1, 1, 0, 1
RCIN, 13905940, 0, 0, 0, 0, 0, 0, 0, 0, 0, 0, 0, 0, 0, 0
RCOU, 13905945, 1225, 1236, 1221, 1240, 0, 0, 0, 0, 0, 0, 0, 0, 0, 0
VIBE, 13905954, 0.02827106, 0.04149544, 0.06365486, 0, 0, 0
CTRL, 13905960, 0.002594771, 0.0001610425, 0.009483438, 0.0001749744, 8.057899E-05
PRX, 13905992, 2, 2.45, 0, 2.92, 0, 3.58, 0, 3.16, 0, 0, 0, 2.45
IMU, 13925729, -0.0008450414, -0.001646036, -0.001655623, 0.2950769, -0.06151833, -11.96639, 0, 0, 45.25522, 1, 1, 998, 998
RFND, 13955527, 0.2, 25, 0, 0
IMU, 13965686, 0.0004119503, 0.0007116547, 0.001365207, 0.2341511, -0.06632802, -11.97111, 0, 0, 45.24391, 1, 1, 998, 998
MAG, 14005613, 66, 581, 989, 0, 0, 0, 0, 0, 0, 1, 14005604
RFND, 14005642, 0.2, 25, 0, 0
BARO, 14005681, 0.07346871, 978.5588, 44.16, -0.3258408, 14005, 0, 35
CTUN, 14005693, 0, 0, 0, 0.3167473, 1.813681, 1.813681, 0.07, 0, 0.19, 0, 0, 209
DU32, 14005731, 7, 33611992
ATT, 14006073, 0, 0.25, 0, 0.91, 359.94, 359.95, 0, 1
RATE, 14006079, -1.134194, 0.05618256, -0.002761749, -4.098171, -0.07276834, -0.009343052, 0.009025873, 0.02358761, 6.671689E-05, -85041.59, 115.1114, 0
NKF1, 14006087, 0.25, 0.91, 359.94, -0.0699613, 0.01397543, -2.099792, 0, 0, 0, -1.813681, 0, 0, 0
NKF2, 14006087, -99, 0, 0, 0, 0, 0, 0, 0, 0, 0, 0, 0, 0
NKF3, 14006087, 0, 0, 0, -0.09, 0.01, -1.24, 0, 0, 0, 0, 0
NKF4, 14006087, 0, 0, 0.44, 0, 0, 0.0001747528, 0, 0, 0, 19, 229, 0, 0
NKF5, 14006087, 0, 0, 0, 0, 1.46, 0.13, 0, 0.19, 0.5, 0.0004148044, 0.0794072, 0.04012521
NKQ1, 14006087, 0.9999112, 0.003194559, 0.0129291, -0.0005142624
AHR2, 14006224, 0.19, 0.66, 359.92, 0.07, 0, 0, 0.9999817, 0.001732924, 0.005760337, -0.000663967
MOTB, 14006232, 1, 1, 0, 1
RCIN, 14006237, 0, 0, 0, 0, 0, 0, 0, 0, 0, 0, 0, 0, 0, 0
RCOU, 14006242, 1226, 1237, 1221, 1241, 0, 0, 0, 0, 0, 0, 0, 0, 0, 0
VIBE, 14006250, 0.05732826, 0.05863672, 0.1164236, 0, 0, 0
CTRL, 14006255, 0.002629501, 0.000181902, 0.009515643, 0.000179368, 8.065529E-05
PRX, 14006285, 2, 2.45, 0, 3.14, 0, 3.58, 0, 3.3, 0, 0, 0, 2.45
IMU, 14006292, 0.000944447, -0.001161571, 0.0004090922, 0.273154, -0.05639812, -11.95182, 0, 0, 45.23087, 1, 1, 998, 998
IMU, 14045671, 0.0003022754, -0.001757921, -0.0005823206, 0.2807936, -0.05121886, -11.96653, 0, 0, 45.21851, 1, 1, 998, 998
RFND, 14055658, 0.2, 25, 0, 0
IMU, 14085742, -0.0008310121, -0.0001296158, -0.001326347, 0.2762586, -0.07720064, -11.97262, 0, 0, 45.2063, 1, 1, 998, 998
MAG, 14105662, 66, 579, 989, 0, 0, 0, 0, 0, 0, 1, 14105653
RFND, 14105689, 0.2, 25, 0, 0
BARO, 14105728, 0.09324875, 978.5567, 44.15, -0.2675603, 14105, 0, 35
CTUN, 14105740, 0, 0, 0, 0.3167473, 1.828608, 1.828608, 0.09, 0, 0.19, 0, 0, 211
ATT, 14105840, 0, 0.25, 0, 0.91, 359.93, 359.95, 0, 1
RATE, 14105846, -1.14068, -0.01282525, -0.002661057, -4.10604, -0.01622874, -0.009684405, 0.009108305, -0.07554499, 0.0001435225, -85466.21, 116.329, 0
NKF1, 14105854, 0.25, 0.91, 359.94, -0.07296341, 0.01555424, -2.110277, 0, 0, 0, -1.828608, 0, 0, 0
NKF2, 14105854, -99, 0, 0, 0, 0, 0, 0, 0, 0, 0, 0, 0, 0
NKF3, 14105854, 0, 0, 0, -0.1, 0.01, -1.3, 0, 0, 0, 0, 0
NKF4, 14105854, 0, 0, 0.46, 0, 0, 0.000200055, 0, 0, 0, 19, 229, 0, 0
NKF5, 14105854, 0, 0, 0, 0, 1.37, 0.13, 0, 0.19, 0.5, 0.0004721021, 0.01401956, 0.07156302
NKQ1, 14105854, 0.999911, 0.003210849, 0.01294423, -0.0005462017
AHR2, 14105899, 0.19, 0.65, 359.92, 0.09, 0, 0, 0.9999818, 0.001735398, 0.005737479, -0.0006964108
MOTB, 14105907, 1, 1, 0, 1
RCIN, 14105911, 0, 0, 0, 0, 0, 0, 0, 0, 0, 0, 0, 0, 0, 0
RCOU, 14105916, 1226, 1238, 1221, 1242, 0, 0, 0, 0, 0, 0, 0, 0, 0, 0
VIBE, 14105925, 0.04344476, 0.04337874, 0.08848619, 0, 0, 0
CTRL, 14105931, 0.002656347, 0.0001687629, 0.009528185, 0.0001765763, 8.127366E-05
PRX, 14105962, 2, 2.45, 0, 2.66, 0, 3.58, 0, 3.46, 0, 0, 0, 2.45
IMU, 14125681, 0.001230741, 0.0003363, 0.0001057923, 0.2391896, -0.06245975, -11.97418, 0, 0, 45.19315, 1, 1, 998, 998
RFND, 14155477, 0.2, 25, 0, 0
IMU, 14165852, 9.484842E-06, -0.0002675622, -0.001724776, 0.2560301, -0.07810949, -11.96534, 0, 0, 45.18018, 1, 1, 998, 998
MAG, 14205951, 69, 580, 997, 0, 0, 0, 0, 0, 0, 1, 14205942
RFND, 14205985, 0.2, 25, 0, 0
BARO, 14206021, 0.04521151, 978.562, 44.16, -0.08997283, 14206, 0, 35
CTUN, 14206035, 0, 0, 0, 0.3167473, 1.886124, 1.886124, 0.04, 0, 0.19, 0, 0, 214
ATT, 14206136, 0, 0.25, 0, 0.91, 359.93, 359.94, 0, 1
RATE, 14206228, -1.152951, -0.02844259, -0.002527285, -4.116119, -0.05450798, -0.009317022, 0.009228624, -0.08529359, 0.0002581807, -86908.47, 112.7782, 0
NKF1, 14206236, 0.25, 0.91, 359.93, -0.07617551, 0.0164674, -2.145888, 0, 0, 0, -1.886124, 0, 0, 0
NKF2, 14206236, -103, 0, 0, 0, 0, 0, 0, 0, 0, 0, 0, 0, 0
NKF3, 14206236, 0, 0, 0, -0.11, 0.02, -1.36, 0, 0, 0, 0, 0
NKF4, 14206236, 0, 0, 0.48, 0, 0, 0.0002196649, 0, 0, 0, 19, 229, 0, 0
NKF5, 14206236, 0, 0, 0, 0, 1.27, 0.13, 0, 0.19, 0.5, 0.0005054674, 0.07712395, 0.2226989
NKQ1, 14206236, 0.9999106, 0.003235516, 0.01296301, -0.0005991256
AHR2, 14206281, 0.19, 0.65, 359.91, 0.04, 0, 0, 0.9999818, 0.001748984, 0.005727371, -0.0007498272
MOTB, 14206289, 1, 1, 0, 1
RCIN, 14206294, 0, 0, 0, 0, 0, 0, 0, 0, 0, 0, 0, 0, 0, 0
RCOU, 14206300, 1226, 1237, 1221, 1241, 0, 0, 0, 0, 0, 0, 0, 0, 0, 0
VIBE, 14206308, 0.03310213, 0.03064113, 0.05930452, 0, 0, 0
CTRL, 14206314, 0.00269068, 0.0001659167, 0.009576044, 0.000175909, 0.0001242264
PRX, 14206346, 2, 2.45, 0, 2.66, 0, 3.58, 0, 3.5, 0, 0, 0, 2.45
IMU, 14206354, -0.0005464081, -0.0008690958, -0.001491776, 0.2900034, -0.05484157, -11.96544, 0, 0, 45.16803, 1, 1, 998, 998
IMU, 14245681, -0.001115689, -0.0007146713, 0.0003561965, 0.2416024, -0.07300615, -11.92875, 0, 0, 45.155, 1, 1, 998, 998
RFND, 14255431, 0.2, 25, 0, 0
IMU, 14285529, -0.0009599323, 0.001184512, -0.002009637, 0.2750376, -0.05900335, -11.96735, 0, 0, 45.14231, 1, 1, 998, 998
MAG, 14305557, 66, 579, 990, 0, 0, 0, 0, 0, 0, 1, 14305548
RFND, 14305588, 0.2, 25, 0, 0
BARO, 14305624, 0.2853977, 978.5358, 44.14, 0.0009006544, 14305, 0, 35
CTUN, 14305637, 0, 0, 0, 0.3167473, 1.907639, 1.907639, 0.28, 0, 0.19, 0, 0, 215
ATT, 14305731, 0, 0.25, 0, 0.91, 359.93, 359.94, 0, 1
RATE, 14305737, -1.14711, -0.009257668, -0.002686147, -4.132167, -0.03203776, -0.009386348, 0.009204414, 0.03500557, 0.0001628773, -87474.45, 116.5146, 0
NKF1, 14305745, 0.25, 0.91, 359.93, -0.0797835, 0.01736054, -2.159863, 0, 0, 0, -1.907639, 0, 0, 0
NKF2, 14305745, -99, 0, 0, 0, 0, 0, 0, 0, 0, 0, 0, 0, 0
NKF3, 14305745, 0, 0, 0, -0.11, 0.02, -1.36, 0, 0, 0, 0, 0
NKF4, 14305745, 0, 0, 0.48, 0, 0, 0.0002456915, 0, 0, 0, 19, 229, 0, 0
NKF5, 14305745, 0, 0, 0, 0, 1.45, 0.13, 0, 0.19, 0.5, 0.000412639, 0.03081902, 0.0448711
NKQ1, 14305745, 0.9999102, 0.003220962, 0.01299539, -0.0006298493
AHR2, 14305789, 0.19, 0.65, 359.91, 0.28, 0, 0, 0.9999818, 0.001721053, 0.005726408, -0.0007810298
MOTB, 14305796, 1, 1, 0, 1
RCIN, 14305800, 0, 0, 0, 0, 0, 0, 0, 0, 0, 0, 0, 0, 0, 0
RCOU, 14305805, 1226, 1237, 1221, 1241, 0, 0, 0, 0, 0, 0, 0, 0, 0, 0
VIBE, 14305814, 0.03196782, 0.05027187, 0.08941307, 0, 0, 0
CTRL, 14305821, 0.002673361, 0.0001563894, 0.009611784, 0.0001985731, 0.0001531708
PRX, 14305851, 2, 2.45, 0, 3.18, 0, 3.58, 0, 3.55, 0, 0, 0, 2.45
IMU, 14325485, 0.001205128, -0.001153135, -6.025774E-05, 0.2899365, -0.07849478, -11.97048, 0, 0, 45.13164, 1, 1, 998, 998
RFND, 14355513, 0.2, 25, 0, 0
IMU, 14365528, 0.0001228754, 0.0001044228, 0.0003615049, 0.2459479, -0.06916624, -11.95418, 0, 0, 45.1211, 1, 1, 998, 998
MAG, 14405535, 68, 580, 986, 0, 0, 0, 0, 0, 0, 1, 14405526
RFND, 14405566, 0.2, 25, 0, 0
BARO, 14405601, 0.1215059, 978.5535, 44.14, 0.1900727, 14405, 0, 35
CTUN, 14405613, 0, 0, 0, 0.3167473, 1.954588, 1.954588, 0.12, 0, 0.19, 0, 0, 218
ATT, 14405707, 0, 0.26, 0, 0.91, 359.93, 359.94, 0, 1
RATE, 14405713, -1.171434, 0.09887349, -0.003137748, -4.137817, 0.001355997, -0.01025729, 0.009417559, -0.02566977, 2.432903E-05, -88602.78, 112.6742, 0
NKF1, 14405720, 0.26, 0.91, 359.93, -0.08234341, 0.01914713, -2.187723, 0, 0, 0, -1.954588, 0, 0, 0
NKF2, 14405720, -100, 0, 0, 0, 0, 0, 0, 0, 0, 0, 0, 0, 0
NKF3, 14405720, 0, 0, 0, -0.13, 0.02, -1.41, 0, 0, 0, 0, 0
NKF4, 14405720, 0, 0, 0.5, 0, 0, 0.0002676268, 0, 0, 0, 19, 229, 0, 0
NKF5, 14405720, 0, 0, 0, 0, 1.36, 0.13, 0, 0.19, 0.5, 0.0004407221, 0.05388106, 0.1887276
NKQ1, 14405720, 0.9999099, 0.003269742, 0.01300516, -0.0006217146
AHR2, 14405764, 0.2, 0.65, 359.91, 0.12, 0, 0, 0.9999819, 0.00175832, 0.005707694, -0.0007735268
MOTB, 14405772, 1, 1, 0, 1
RCIN, 14405776, 0, 0, 0, 0, 0, 0, 0, 0, 0, 0, 0, 0, 0, 0
RCOU, 14405781, 1226, 1238, 1221, 1243, 0, 0, 0, 0, 0, 0, 0, 0, 0, 0
VIBE, 14405790, 0.06653231, 0.05826268, 0.137797, 0, 0, 0
CTRL, 14405796, 0.002711561, 0.000181829, 0.009614042, 0.0002038011, 0.0001340832
PRX, 14405827, 2, 2.45, 0, 3.32, 0, 3.58, 0, 3.56, 0, 0, 0, 2.45
IMU, 14405834, 0.001669306, 9.667892E-05, -0.0004514459, 0.2918246, -0.03679236, -11.92949, 0, 0, 45.11137, 1, 1, 998, 998
IMU, 14445733, -0.0003629455, 0.000869016, -0.00051342, 0.2255287, -0.07282713, -11.94804, 0, 0, 45.10328, 1, 1, 998, 998
RFND, 14455566, 0.2, 25, 0, 0
IMU, 14485829, -0.001851585, -0.0008109922, -8.491578E-05, 0.2959475, -0.06040332, -11.97813, 0, 0, 45.09698, 1, 1, 998, 998
MAG, 14505638, 66, 571, 986, 0, 0, 0, 0, 0, 0, 1, 14505630
RFND, 14505670, 0.2, 25, 0, 0
BARO, 14505705, 0.03956007, 978.5625, 44.15, 0.3364372, 14505, 0, 35
CTUN, 14505718, 0, 0, 0, 0.3167473, 1.985519, 1.985519, 0.03, 0, 0.19, 0, 0, 220
ATT, 14506520, 0, 0.25, 0, 0.92, 359.92, 359.94, 0, 1
RATE, 14506526, -1.155548, -0.04067164, -0.00298695, -4.162328, 0.05196359, -0.01020838, 0.009344452, 0.004312003, 7.487954E-05, -89389.02, 115.8295, 0
NKF1, 14506535, 0.25, 0.92, 359.93, -0.0860149, 0.02031697, -2.207136, 0, 0, 0, -1.985519, 0, 0, 0
NKF2, 14506535, -99, 0, 0, 0, 0, 0, 0, 0, 0, 0, 0, 0, 0
NKF3, 14506535, 0, 0, 0, -0.13, 0.02, -1.41, 0, 0, 0, 0, 0
NKF4, 14506535, 0, 0, 0.5, 0, 0, 0.0002914079, 0, 0, 0, 19, 229, 0, 0
NKF5, 14506535, 0, 0, 0, 0, 1.55, 0.13, 0, 0.19, 0.5, 0.0003519475, 0.04574269, 0.01914014
NKQ1, 14506535, 0.9999093, 0.003238457, 0.01305404, -0.000631183
AHR2, 14506581, 0.19, 0.65, 359.91, 0.03, 0, 0, 0.9999818, 0.00171269, 0.005729219, -0.0007834733
MOTB, 14506588, 1, 1, 0, 1
RCIN, 14506593, 0, 0, 0, 0, 0, 0, 0, 0, 0, 0, 0, 0, 0, 0
RCOU, 14506598, 1226, 1238, 1221, 1243, 0, 0, 0, 0, 0, 0, 0, 0, 0, 0
VIBE, 14506606, 0.05633295, 0.06045702, 0.1158482, 0, 0, 0
CTRL, 14506611, 0.002692056, 0.0001943957, 0.009683149, 0.0002203483, 0.0001162638
PRX, 14506641, 2, 2.45, 0, 3.47, 0, 3.58, 0, 3.58, 0, 0, 0, 2.45
IMU, 14525765, 0.001750684, 0.001419543, 4.657121E-05, 0.2244181, -0.07501698, -11.96431, 0, 0, 45.09099, 1, 1, 998, 998
RFND, 14555568, 0.2, 25, 0, 0
