FMT, 128, 89, FMT, BBnNZ, Type,Length,Name,Format,Columns
FMT, 129, 31, PARM, QNf, TimeUS,Name,Value
FMT, 130, 46, GPS, QBIHBcLLefffB, TimeUS,Status,GMS,GWk,NSats,HDop,Lat,Lng,Alt,Spd,GCrs,VZ,U
FMT, 131, 46, GPS2, QBIHBcLLefffB, TimeUS,Status,GMS,GWk,NSats,HDop,Lat,Lng,Alt,Spd,GCrs,VZ,U
FMT, 132, 46, GPSB, QBIHBcLLefffB, TimeUS,Status,GMS,GWk,NSats,HDop,Lat,Lng,Alt,Spd,GCrs,VZ,U
FMT, 193, 24, GPA, QCCCCBI, TimeUS,VDop,HAcc,VAcc,SAcc,VV,SMS
FMT, 194, 24, GPA2, QCCCCBI, TimeUS,VDop,HAcc,VAcc,SAcc,VV,SMS
FMT, 195, 24, GPAB, QCCCCBI, TimeUS,VDop,HAcc,VAcc,SAcc,VV,SMS
FMT, 133, 53, IMU, QffffffIIfBBHH, TimeUS,GyrX,GyrY,GyrZ,AccX,AccY,AccZ,EG,EA,T,GH,AH,GHz,AHz
FMT, 134, 75, MSG, QZ, TimeUS,Message
FMT, 135, 39, RCIN, QHHHHHHHHHHHHHH, TimeUS,C1,C2,C3,C4,C5,C6,C7,C8,C9,C10,C11,C12,C13,C14
FMT, 136, 39, RCOU, QHHHHHHHHHHHHHH, TimeUS,C1,C2,C3,C4,C5,C6,C7,C8,C9,C10,C11,C12,C13,C14
FMT, 137, 15, RSSI, Qf, TimeUS,RXRSSI
FMT, 139, 37, BARO, QffcfIff, TimeUS,Alt,Press,Temp,CRt,SMS,Offset,GndTemp
FMT, 140, 22, POWR, QffHB, TimeUS,Vcc,VServo,Flags,Safety
FMT, 143, 45, CMD, QHHHfffffff, TimeUS,CTot,CNum,CId,Prm1,Prm2,Prm3,Prm4,Lat,Lng,Alt
FMT, 144, 20, RAD, QBBBBBHH, TimeUS,RSSI,RemRSSI,TxBuf,Noise,RemNoise,RxErrors,Fixed
FMT, 146, 43, CAM, QIHLLeeeccC, TimeUS,GPSTime,GPSWeek,Lat,Lng,Alt,RelAlt,GPSAlt,Roll,Pitch,Yaw
FMT, 232, 43, TRIG, QIHLLeeeccC, TimeUS,GPSTime,GPSWeek,Lat,Lng,Alt,RelAlt,GPSAlt,Roll,Pitch,Yaw
FMT, 162, 30, ARSP, QffcffB, TimeUS,Airspeed,DiffPress,Temp,RawPress,Offset,U
FMT, 164, 45, CURR, QfffcHHHHHHHHHH, TimeUS,Volt,Curr,CurrTot,Temp,V1,V2,V3,V4,V5,V6,V7,V8,V9,V10
FMT, 165, 45, CUR2, QfffcHHHHHHHHHH, TimeUS,Volt,Curr,CurrTot,Temp,V1,V2,V3,V4,V5,V6,V7,V8,V9,V10
FMT, 163, 27, ATT, QccccCCCC, TimeUS,DesRoll,Roll,DesPitch,Pitch,DesYaw,Yaw,ErrRP,ErrYaw
FMT, 166, 34, MAG, QhhhhhhhhhBI, TimeUS,MagX,MagY,MagZ,OfsX,OfsY,OfsZ,MOfsX,MOfsY,MOfsZ,Health,S
FMT, 169, 14, MODE, QMBB, TimeUS,Mode,ModeNum,Rsn
FMT, 196, 17, RFND, QCBCB, TimeUS,Dist1,Orient1,Dist2,Orient2
FMT, 223, 33, DMS, IIIIIBBBBBBBBBB, TimeMS,N,Dp,RT,RS,Er,Fa,Fmn,Fmx,Pa,Pmn,Pmx,Sa,Smn,Smx
FMT, 240, 41, BCN, QBBfffffff, TimeUS,Health,Cnt,D0,D1,D2,D3,PosX,PosY,PosZ
FMT, 138, 53, IMU2, QffffffIIfBBHH, TimeUS,GyrX,GyrY,GyrZ,AccX,AccY,AccZ,EG,EA,T,GH,AH,GHz,AHz
FMT, 147, 53, IMU3, QffffffIIfBBHH, TimeUS,GyrX,GyrY,GyrZ,AccX,AccY,AccZ,EG,EA,T,GH,AH,GHz,AHz
FMT, 141, 45, AHR2, QccCfLLffff, TimeUS,Roll,Pitch,Yaw,Alt,Lat,Lng,Q1,Q2,Q3,Q4
FMT, 180, 31, POS, QLLfff, TimeUS,Lat,Lng,Alt,RelHomeAlt,RelOriginAlt
FMT, 142, 45, SIM, QccCfLLffff, TimeUS,Roll,Pitch,Yaw,Alt,Lat,Lng,Q1,Q2,Q3,Q4
FMT, 198, 51, NKF1, QccCfffffffccc, TimeUS,Roll,Pitch,Yaw,VN,VE,VD,dPD,PN,PE,PD,GX,GY,GZ
FMT, 199, 35, NKF2, QbccccchhhhhhB, TimeUS,AZbias,GSX,GSY,GSZ,VWN,VWE,MN,ME,MD,MX,MY,MZ,MI
FMT, 200, 33, NKF3, Qcccccchhhcc, TimeUS,IVN,IVE,IVD,IPN,IPE,IPD,IMX,IMY,IMZ,IYAW,IVT
FMT, 201, 35, NKF4, QcccccfbbHBHHb, TimeUS,SV,SP,SH,SM,SVT,errRP,OFN,OFE,FS,TS,SS,GPS,PI
FMT, 202, 40, NKF5, QBhhhcccCCfff, TimeUS,NI,FIX,FIY,AFI,HAGL,offset,RI,rng,Herr,eAng,eVel,ePos
FMT, 203, 51, NKF6, QccCfffffffccc, TimeUS,Roll,Pitch,Yaw,VN,VE,VD,dPD,PN,PE,PD,GX,GY,GZ
FMT, 204, 35, NKF7, QbccccchhhhhhB, TimeUS,AZbias,GSX,GSY,GSZ,VWN,VWE,MN,ME,MD,MX,MY,MZ,MI
FMT, 205, 33, NKF8, Qcccccchhhcc, TimeUS,IVN,IVE,IVD,IPN,IPE,IPD,IMX,IMY,IMZ,IYAW,IVT
FMT, 206, 35, NKF9, QcccccfbbHBHHb, TimeUS,SV,SP,SH,SM,SVT,errRP,OFN,OFE,FS,TS,SS,GPS,PI
FMT, 207, 36, NKF0, QBccCCcccccccc, TimeUS,ID,rng,innov,SIV,TR,BPN,BPE,BPD,OFH,OFL,OFN,OFE,OFD
FMT, 208, 27, NKQ1, Qffff, TimeUS,Q1,Q2,Q3,Q4
FMT, 209, 27, NKQ2, Qffff, TimeUS,Q1,Q2,Q3,Q4
FMT, 210, 51, XKF1, QccCfffffffccc, TimeUS,Roll,Pitch,Yaw,VN,VE,VD,dPD,PN,PE,PD,GX,GY,GZ
FMT, 211, 34, XKF2, QccccchhhhhhB, TimeUS,AX,AY,AZ,VWN,VWE,MN,ME,MD,MX,MY,MZ,MI
FMT, 212, 33, XKF3, Qcccccchhhcc, TimeUS,IVN,IVE,IVD,IPN,IPE,IPD,IMX,IMY,IMZ,IYAW,IVT
FMT, 213, 35, XKF4, QcccccfbbHBHHb, TimeUS,SV,SP,SH,SM,SVT,errRP,OFN,OFE,FS,TS,SS,GPS,PI
FMT, 214, 40, XKF5, QBhhhcccCCfff, TimeUS,NI,FIX,FIY,AFI,HAGL,offset,RI,rng,Herr,eAng,eVel,ePos
FMT, 215, 51, XKF6, QccCfffffffccc, TimeUS,Roll,Pitch,Yaw,VN,VE,VD,dPD,PN,PE,PD,GX,GY,GZ
FMT, 216, 34, XKF7, QccccchhhhhhB, TimeUS,AX,AY,AZ,VWN,VWE,MN,ME,MD,MX,MY,MZ,MI
FMT, 217, 33, XKF8, Qcccccchhhcc, TimeUS,IVN,IVE,IVD,IPN,IPE,IPD,IMX,IMY,IMZ,IYAW,IVT
FMT, 218, 35, XKF9, QcccccfbbHBHHb, TimeUS,SV,SP,SH,SM,SVT,errRP,OFN,OFE,FS,TS,SS,GPS,PI
FMT, 219, 36, XKF0, QBccCCcccccccc, TimeUS,ID,rng,innov,SIV,TR,BPN,BPE,BPD,OFH,OFL,OFN,OFE,OFD
FMT, 220, 27, XKQ1, Qffff, TimeUS,Q1,Q2,Q3,Q4
FMT, 221, 27, XKQ2, Qffff, TimeUS,Q1,Q2,Q3,Q4
FMT, 222, 35, XKFD, Qffffff, TimeUS,IX,IY,IZ,IVX,IVY,IVZ
FMT, 148, 34, TERR, QBLLHffHH, TimeUS,Status,Lat,Lng,Spacing,TerrH,CHeight,Pending,Loaded
FMT, 149, 18, UBX1, QBHBBH, TimeUS,Instance,noisePerMS,jamInd,aPower,agcCnt
FMT, 150, 16, UBX2, QBbBbB, TimeUS,Instance,ofsI,magI,ofsQ,magQ
FMT, 151, 18, UBY1, QBHBBH, TimeUS,Instance,noisePerMS,jamInd,aPower,agcCnt
FMT, 152, 16, UBY2, QBbBbB, TimeUS,Instance,ofsI,magI,ofsQ,magQ
FMT, 170, 42, GRAW, QIHBBddfBbB, TimeUS,WkMS,Week,numSV,sv,cpMes,prMes,doMes,mesQI,cno,lli
FMT, 171, 24, GRXH, QdHbBB, TimeUS,rcvTime,week,leapS,numMeas,recStat
FMT, 172, 41, GRXS, QddfBBBHBBBBB, TimeUS,prMes,cpMes,doMes,gnss,sv,freq,lock,cno,prD,cpD,doD,trk
FMT, 173, 63, SBFE, QIHBBdddfffff, TimeUS,TOW,WN,Mode,Err,Lat,Lng,Height,Undul,Vn,Ve,Vu,COG
FMT, 153, 19, ESC1, Qcccc, TimeUS,RPM,Volt,Curr,Temp
FMT, 154, 19, ESC2, Qcccc, TimeUS,RPM,Volt,Curr,Temp
FMT, 155, 19, ESC3, Qcccc, TimeUS,RPM,Volt,Curr,Temp
FMT, 156, 19, ESC4, Qcccc, TimeUS,RPM,Volt,Curr,Temp
FMT, 157, 19, ESC5, Qcccc, TimeUS,RPM,Volt,Curr,Temp
FMT, 158, 19, ESC6, Qcccc, TimeUS,RPM,Volt,Curr,Temp
FMT, 159, 19, ESC7, Qcccc, TimeUS,RPM,Volt,Curr,Temp
FMT, 160, 19, ESC8, Qcccc, TimeUS,RPM,Volt,Curr,Temp
FMT, 167, 34, MAG2, QhhhhhhhhhBI, TimeUS,MagX,MagY,MagZ,OfsX,OfsY,OfsZ,MOfsX,MOfsY,MOfsZ,Health,S
FMT, 168, 34, MAG3, QhhhhhhhhhBI, TimeUS,MagX,MagY,MagZ,OfsX,OfsY,OfsZ,MOfsX,MOfsY,MOfsZ,Health,S
FMT, 174, 31, ACC1, QQfff, TimeUS,SampleUS,AccX,AccY,AccZ
FMT, 175, 31, ACC2, QQfff, TimeUS,SampleUS,AccX,AccY,AccZ
FMT, 176, 31, ACC3, QQfff, TimeUS,SampleUS,AccX,AccY,AccZ
FMT, 177, 31, GYR1, QQfff, TimeUS,SampleUS,GyrX,GyrY,GyrZ
FMT, 178, 31, GYR2, QQfff, TimeUS,SampleUS,GyrX,GyrY,GyrZ
FMT, 179, 31, GYR3, QQfff, TimeUS,SampleUS,GyrX,GyrY,GyrZ
FMT, 181, 35, PIDR, Qffffff, TimeUS,Des,P,I,D,FF,AFF
FMT, 182, 35, PIDP, Qffffff, TimeUS,Des,P,I,D,FF,AFF
FMT, 183, 35, PIDY, Qffffff, TimeUS,Des,P,I,D,FF,AFF
FMT, 184, 35, PIDA, Qffffff, TimeUS,Des,P,I,D,FF,AFF
FMT, 185, 35, PIDS, Qffffff, TimeUS,Des,P,I,D,FF,AFF
FMT, 186, 35, PIDL, Qffffff, TimeUS,Des,P,I,D,FF,AFF
FMT, 161, 37, BAR2, QffcfIff, TimeUS,Alt,Press,Temp,CRt,SMS,Offset,GndTemp
FMT, 197, 37, BAR3, QffcfIff, TimeUS,Alt,Press,Temp,CRt,SMS,Offset,GndTemp
FMT, 187, 35, VIBE, QfffIII, TimeUS,VibeX,VibeY,VibeZ,Clip0,Clip1,Clip2
FMT, 188, 47, IMT, Qfffffffff, TimeUS,DelT,DelvT,DelaT,DelAX,DelAY,DelAZ,DelVX,DelVY,DelVZ
FMT, 189, 47, IMT2, Qfffffffff, TimeUS,DelT,DelvT,DelaT,DelAX,DelAY,DelAZ,DelVX,DelVY,DelVZ
FMT, 190, 47, IMT3, Qfffffffff, TimeUS,DelT,DelvT,DelaT,DelAX,DelAY,DelAZ,DelVX,DelVY,DelVZ
FMT, 191, 24, ORGN, QBLLe, TimeUS,Type,Lat,Lng,Alt
FMT, 192, 19, RPM, Qff, TimeUS,rpm1,rpm2
FMT, 233, 47, GMB1, Iffffffffff, TimeMS,dt,dax,day,daz,dvx,dvy,dvz,jx,jy,jz
FMT, 234, 44, GMB2, IBfffffffff, TimeMS,es,ex,ey,ez,rx,ry,rz,tx,ty,tz
FMT, 235, 13, GMB3, Ihhh, TimeMS,rl_torque_cmd,el_torque_cmd,az_torque_cmd
FMT, 236, 59, RATE, Qffffffffffff, TimeUS,RDes,R,ROut,PDes,P,POut,YDes,Y,YOut,ADes,A,AOut
FMT, 237, 23, RALY, QBBLLh, TimeUS,Tot,Seq,Lat,Lng,Alt
FMT, 238, 43, VISO, Qffffffff, TimeUS,dt,AngDX,AngDY,AngDZ,PosDX,PosDY,PosDZ,conf
FMT, 224, 23, SBPH, QIII, TimeUS,CrcError,LastInject,IARhyp
FMT, 229, 80, SBR1, QHHBZ, TimeUS,msg_type,sender_id,msg_len,d1
FMT, 230, 205, SBR2, QHZZZ, TimeUS,msg_type,d2,d3,d4
FMT, 25, 41, ATUN, QBBfffffff, TimeUS,Axis,TuneStep,Targ,Min,Max,RP,RD,SP,ddt
FMT, 26, 19, ATDE, Qff, TimeUS,Angle,Rate
FMT, 31, 22, PTUN, QBfHHH, TimeUS,Param,TunVal,CtrlIn,TunLo,TunHi
FMT, 12, 28, OF, QBffff, TimeUS,Qual,flowX,flowY,bodyX,bodyY
FMT, 5, 51, NTUN, Qffffffffff, TimeUS,DPosX,DPosY,PosX,PosY,DVelX,DVelY,VelX,VelY,DAccX,DAccY
FMT, 4, 51, CTUN, Qffffffeccfhh, TimeUS,ThI,ABst,ThO,ThH,DAlt,Alt,BAlt,DSAlt,SAlt,TAlt,DCRt,CRt
FMT, 6, 32, PM, QHHIhBHII, TimeUS,NLon,NLoop,MaxT,PMT,I2CErr,INSErr,LogDrop,Mem
FMT, 30, 27, MOTB, Qffff, TimeUS,LiftMax,BatVolt,BatRes,ThLimit
FMT, 13, 12, EV, QB, TimeUS,Id
FMT, 20, 14, D16, QBh, TimeUS,Id,Value
FMT, 21, 14, DU16, QBH, TimeUS,Id,Value
FMT, 22, 16, D32, QBi, TimeUS,Id,Value
FMT, 23, 16, DU32, QBI, TimeUS,Id,Value
FMT, 24, 16, DFLT, QBf, TimeUS,Id,Value
FMT, 19, 13, ERR, QBB, TimeUS,Subsys,ECode
FMT, 32, 19, HELI, Qff, TimeUS,DRRPM,ERRPM
FMT, 33, 29, PL, QBBffff, TimeUS,Heal,TAcq,pX,pY,vX,vY
FMT, 34, 36, GUID, QBffffff, TimeUS,Type,pX,pY,pZ,vX,vY,vZ
FMT, 35, 32, THRO, QBffffbbbb, TimeUS,Stage,Vel,VelZ,Acc,AccEfZ,Throw,AttOk,HgtOk,PosOk
FMT, 36, 56, PRX, QBfffffffffff, TimeUS,Health,D0,D45,D90,D135,D180,D225,D270,D315,DUp,CAn,CDis
MODE, 104268282, 100, 100, 1
FMT, 254, 47, NKT1, QIffffffff, TimeUS,Cnt,IMUMin,IMUMax,EKFMin,EKFMax,AngMin,AngMax,VelMin,VelM
FMT, 253, 31, CTRL, Qfffff, TimeUS,RMSRollP,RMSRollD,RMSPitchP,RMSPitchD,RMSYaw
MSG, 104435075, APM:Copter V3.5.7 (791a96c7)
MSG, 104435081, New mission
MSG, 104435092, Frame: QUAD
MODE, 104435096, 100, 100, 1
IMU, 104447125, -0.000633782, 0.0008924487, 0.0006280314, 0.2884077, 0.1249977, -9.580017, 0, 0, 44.57699, 1, 1, 1000, 1000
MAG, 104467173, -23, 313, 193, 0, 0, 0, 0, 0, 0, 1, 104467165
RFND, 104467204, 0.2, 25, 0, 0
BARO, 104467242, -0.1469374, 983.2562, 43.67, 0.2117277, 104467, 0, 35
CTUN, 104467255, 0, 0, 0, 0.3167473, 0.03970918, 0.03970918, -0.14, 0, 0.19, 0, 0, -1
ATT, 104469544, 0, -0.78, 0, 1.16, 159.19, 159.18, 0, 1
RATE, 104469554, 3.555922, -0.01484637, 0.008504285, -5.262627, -0.01815045, -0.0121919, -0.03356425, -0.1550326, 0.0002849648, 604.0187, -1.632214, 0
NKF1, 104469562, -0.78, 1.16, 159.18, 0.0213063, -0.006876085, 0.01491404, 0, 0, 0, -0.03966449, -0.02, 0, 0.16
NKF2, 104469562, 22, 0, 0, 0, 0, 0, 0, 0, 0, 0, 0, 0, 0
NKF3, 104469562, 0, 0, 0, 0.01, 0, 0.02, 0, 0, 0, 0, 0
NKF4, 104469562, 0, 0, 0, 0, 0, 3.543576E-05, 0, 0, 0, 19, 229, 0, 0
NKF5, 104469562, 0, 0, 0, 0, 0.17, 0.13, 0, 0.19, 0.5, 8.7156E-05, 0.002721226, 0.003274124
NKQ1, 104469562, -0.1805086, 0.01600756, 0.003059896, -0.9834384
AHR2, 104469607, -0.86, 1.36, 171.16, -0.14, 0, 0, 0.07689047, -0.01242744, -0.006588964, 0.9969403
MOTB, 104469614, 1, 1, 0, 1
RCIN, 104469619, 0, 0, 0, 0, 0, 0, 0, 0, 0, 0, 0, 0, 0, 0
RCOU, 104469625, 1101, 1101, 1101, 1101, 0, 0, 0, 0, 0, 0, 0, 0, 0, 0
VIBE, 104469634, 0.02110577, 0.01998602, 0.03469893, 0, 0, 0
CTRL, 104469640, 0.008381393, 0.0001755521, 0.01243748, 0.0001336246, 0.0003053925
PRX, 104469673, 2, 0.78, 0, 1.29, 0, 3.6, 0, 1.14, 0, 0, 0, 0.78
IMU, 104487523, 0.0001059589, -2.434399E-05, -0.000346269, 0.2833435, 0.1180016, -9.55411, 0, 0, 44.57699, 1, 1, 1000, 1000
RFND, 104517476, 0.2, 25, 0, 0
IMU, 104527179, -0.0003210423, 0.001682128, 0.0005691237, 0.2881267, 0.1282398, -9.593715, 0, 0, 44.57699, 1, 1, 1000, 1000
MAG, 104567138, -23, 311, 185, 0, 0, 0, 0, 0, 0, 1, 104567129
RFND, 104567168, 0.2, 25, 0, 0
BARO, 104567233, -0.2430119, 983.2668, 43.67, 0.4611964, 104567, 0, 35
CTUN, 104567248, 0, 0, 0, 0.3167473, 0.03998535, 0.03998535, -0.24, 0, 0.19, 0, 0, -1
IMU, 104567320, 0.000167197, 0.0008259278, -0.0003359962, 0.2779484, 0.1209786, -9.584045, 0, 0, 44.57699, 1, 1, 1000, 1000
ATT, 104569622, 0, -0.78, 0, 1.17, 159.18, 159.17, 0, 1
RATE, 104569630, 3.546489, 0.01604569, 0.008405099, -5.275005, 0.05215697, -0.01259573, -0.03487067, -0.1785746, 0.0003744643, 586.9631, 0.7118225, 0
NKF1, 104569637, -0.78, 1.17, 159.17, 0.02234717, -0.007994736, 0.01449292, 0, 0, 0, -0.03995637, -0.02, 0, 0.16
NKF2, 104569637, 22, 0, 0, 0, 0, 0, 0, 0, 0, 0, 0, 0, 0
NKF3, 104569637, 0, 0, 0, 0.02, 0, 0.02, 0, 0, 0, 0, 0
NKF4, 104569637, 0, 0, 0, 0, 0, 2.301111E-05, 0, 0, 0, 19, 229, 0, 0
NKF5, 104569637, 0, 0, 0, 0, 0.18, 0.13, 0, 0.19, 0.5, 6.061576E-05, 0.002389525, 0.003711124
NKQ1, 104569637, -0.1806454, 0.01602837, 0.003034139, -0.983413
AHR2, 104569681, -0.85, 1.36, 171.16, -0.24, 0, 0, 0.07688739, -0.01247643, -0.006562789, 0.9969401
MOTB, 104569688, 1, 1, 0, 1
RCIN, 104569693, 0, 0, 0, 0, 0, 0, 0, 0, 0, 0, 0, 0, 0, 0
RCOU, 104569699, 1101, 1101, 1101, 1101, 0, 0, 0, 0, 0, 0, 0, 0, 0, 0
VIBE, 104569707, 0.02207083, 0.02020766, 0.0315835, 0, 0, 0
CTRL, 104569714, 0.008356692, 0.0001722112, 0.01244914, 0.0001389104, 0.0003168271
PRX, 104569746, 2, 0.78, 0, 1.31, 0, 3.6, 0, 1.15, 0, 0, 0, 0.78
IMU, 104607169, -0.001764997, 0.0004374773, -0.000218672, 0.2993422, 0.1306853, -9.588854, 0, 0, 44.57699, 1, 1, 1000, 1000
RFND, 104617198, 0.2, 25, 0, 0
IMU, 104647122, -0.001005057, -0.0003630651, 0.0003452968, 0.2765073, 0.1187961, -9.569832, 0, 0, 44.57699, 1, 1, 1000, 1000
MAG, 104667136, -23, 316, 184, 0, 0, 0, 0, 0, 0, 1, 104667128
RFND, 104667167, 0.2, 25, 0, 0
BARO, 104667205, -0.2882234, 983.2719, 43.67, 0.3463019, 104667, 0, 35
CTUN, 104667218, 0, 0, 0, 0.3167473, 0.04028977, 0.04028977, -0.28, 0, 0.19, 0, 0, -1
ATT, 104669570, 0, -0.79, 0, 1.17, 159.16, 159.15, 0, 1
RATE, 104669579, 3.556429, -0.02330135, 0.008545786, -5.267557, -0.05386509, -0.01225371, -0.03576186, -0.1152077, 0.0003501411, 590.2953, -0.2887726, 0
NKF1, 104669587, -0.79, 1.17, 159.15, 0.02282277, -0.008645845, 0.01457519, 0, 0, 0, -0.04024626, -0.02, 0, 0.16
NKF2, 104669587, 22, 0, 0, 0, 0, 0, 0, 0, 0, 0, 0, 0, 0
NKF3, 104669587, 0, 0, 0, 0.02, 0, 0.02, 0, 0, 0, 0, 0
NKF4, 104669587, 0, 0, 0, 0, 0, 1.546408E-05, 0, 0, 0, 19, 229, 0, 0
NKF5, 104669587, 0, 0, 0, 0, 0.17, 0.13, 0, 0.19, 0.5, 4.39959E-05, 0.00219521, 0.003626829
NKQ1, 104669587, -0.1807715, 0.01601669, 0.003056374, -0.98339
AHR2, 104669632, -0.86, 1.36, 171.17, -0.28, 0, 0, 0.0768719, -0.01248193, -0.006582662, 0.9969411
MOTB, 104669639, 1, 1, 0, 1
RCIN, 104669643, 0, 0, 0, 0, 0, 0, 0, 0, 0, 0, 0, 0, 0, 0
RCOU, 104669650, 1101, 1101, 1101, 1101, 0, 0, 0, 0, 0, 0, 0, 0, 0, 0
VIBE, 104669658, 0.02237457, 0.01968523, 0.03759881, 0, 0, 0
CTRL, 104669665, 0.008380031, 0.0001710352, 0.01243787, 0.000132123, 0.0003418018
PRX, 104669698, 2, 0.78, 0, 1.3, 0, 3.6, 0, 1.14, 0, 0, 0, 0.78
IMU, 104687176, -4.932845E-07, 0.0003203451, 0.00108278, 0.3015917, 0.1121322, -9.574538, 0, 0, 44.57699, 1, 1, 1000, 1000
RFND, 104717560, 0.2, 25, 0, 0
IMU, 104727139, -0.0008292607, -0.0001252553, -9.424725E-05, 0.2921027, 0.1254021, -9.56853, 0, 0, 44.57699, 1, 1, 1000, 1000
MAG, 104767147, -27, 319, 188, 0, 0, 0, 0, 0, 0, 1, 104767138
RFND, 104767176, 0.2, 25, 0, 0
BARO, 104767214, -0.2599662, 983.2684, 43.67, -0.03352787, 104767, 0, 35
CTUN, 104767227, 0, 0, 0, 0.3167473, 0.04077458, 0.04077458, -0.25, 0, 0.19, 0, 0, -1
DU32, 104767267, 7, 50389208
IMU, 104767509, 0.0001767404, -0.0002898987, 0.0007076093, 0.2812248, 0.1276393, -9.57472, 0, 0, 44.577, 1, 1, 1000, 1000
ATT, 104769670, 0, -0.78, 0, 1.17, 159.15, 159.14, 0, 1
RATE, 104769679, 3.54801, 0.04450905, 0.008066652, -5.267213, 0.00282962, -0.0125367, -0.03313403, -0.1390517, 0.0003322458, 567.6206, -0.3656387, 0
NKF1, 104769687, -0.78, 1.17, 159.14, 0.02305709, -0.009715986, 0.01401532, 0, 0, 0, -0.04071863, -0.02, 0, 0.16
NKF2, 104769687, 22, 0, 0, 0, 0, 0, 0, 0, 0, 0, 0, 0, 0
NKF3, 104769687, 0, 0, 0, 0.02, 0, 0.02, 0, 0, 0, 0, 0
NKF4, 104769687, 0, 0, 0, 0, 0, 1.041166E-05, 0, 0, 0, 19, 229, 0, 0
NKF5, 104769687, 0, 0, 0, 0, 0.18, 0.13, 0, 0.19, 0.5, 3.708973E-05, 0.002112342, 0.004029939
NKQ1, 104769687, -0.1808973, 0.01601459, 0.003037635, -0.9833669
AHR2, 104769730, -0.86, 1.36, 171.17, -0.25, 0, 0, 0.07685912, -0.01249507, -0.006564292, 0.9969421
MOTB, 104769737, 1, 1, 0, 1
RCIN, 104769741, 0, 0, 0, 0, 0, 0, 0, 0, 0, 0, 0, 0, 0, 0
RCOU, 104769747, 1101, 1101, 1101, 1101, 0, 0, 0, 0, 0, 0, 0, 0, 0, 0
VIBE, 104769837, 0.02103271, 0.02034722, 0.03361404, 0, 0, 0
CTRL, 104769845, 0.008369181, 0.0001605222, 0.01242318, 0.0001205001, 0.000342192
PRX, 104769876, 2, 0.78, 0, 1.3, 0, 3.6, 0, 1.14, 0, 0, 0, 0.78
IMU, 104807104, 0.0006904753, 0.0001356954, -0.0007130603, 0.2826424, 0.1255896, -9.574703, 0, 0, 44.577, 1, 1, 1000, 1000
RFND, 104817149, 0.2, 25, 0, 0
IMU, 104847047, -0.000440678, -0.000335868, 0.0007110965, 0.2897192, 0.1221972, -9.570678, 0, 0, 44.57699, 1, 1, 1000, 1000
MAG, 104867005, -23, 319, 187, 0, 0, 0, 0, 0, 0, 1, 104866997
RFND, 104867033, 0.2, 25, 0, 0
BARO, 104867071, -0.2430119, 983.2668, 43.67, -0.2719996, 104867, 0, 35
CTUN, 104867084, 0, 0, 0, 0.3167473, 0.04091539, 0.04091539, -0.24, 0, 0.19, 0, 0, -1
ATT, 104869453, 0, -0.78, 0, 1.17, 159.13, 159.12, 0, 1
RATE, 104869461, 3.546265, 0.003101469, 0.008200493, -5.277411, 0.01358976, -0.01247021, -0.03387176, -0.178567, 0.0003837855, 547.2519, 1.381588, 0
NKF1, 104869468, -0.78, 1.17, 159.12, 0.02427447, -0.01042615, 0.01351239, 0, 0, 0, -0.04087499, -0.02, 0, 0.16
NKF2, 104869468, 22, 0, 0, 0, 0, 0, 0, 0, 0, 0, 0, 0, 0
NKF3, 104869468, 0, 0, 0, 0.02, 0, 0.02, 0, 0, 0, 0, 0
NKF4, 104869468, 0, 0, 0, 0, 0, 7.059469E-06, 0, 0, 0, 19, 229, 0, 0
NKF5, 104869468, 0, 0, 0, 0, 0.17, 0.13, 0, 0.19, 0.5, 3.620788E-05, 0.002014563, 0.004174885
NKQ1, 104869468, -0.1810346, 0.01603486, 0.00302686, -0.9833413
AHR2, 104869512, -0.85, 1.37, 171.17, -0.24, 0, 0, 0.07685502, -0.01252951, -0.006556319, 0.996942
MOTB, 104869520, 1, 1, 0, 1
RCIN, 104869524, 0, 0, 0, 0, 0, 0, 0, 0, 0, 0, 0, 0, 0, 0
RCOU, 104869529, 1101, 1101, 1101, 1101, 0, 0, 0, 0, 0, 0, 0, 0, 0, 0
VIBE, 104869537, 0.02310407, 0.02046178, 0.03184324, 0, 0, 0
CTRL, 104869544, 0.008360603, 0.0001561134, 0.01244875, 0.0001387915, 0.0003471218
PRX, 104869577, 2, 0.78, 0, 1.3, 0, 3.6, 0, 1.14, 0, 0, 0, 0.78
IMU, 104887960, -0.0005323364, 0.0005058886, 0.0007494783, 0.2772618, 0.1319407, -9.560175, 0, 0, 44.57699, 1, 1, 1000, 1000
RFND, 104917002, 0.2, 25, 0, 0
IMU, 104927046, -0.0005670124, 0.001528477, -8.376902E-05, 0.2926823, 0.1272914, -9.560223, 0, 0, 44.57699, 1, 1, 1000, 1000
MAG, 104967023, -20, 314, 185, 0, 0, 0, 0, 0, 0, 1, 104967014
RFND, 104967051, 0.2, 25, 0, 0
BARO, 104967087, -0.3051777, 983.2739, 43.67, -0.1765575, 104967, 0, 35
CTUN, 104967099, 0, 0, 0, 0.3167473, 0.04144189, 0.04144189, -0.3, 0, 0.19, 0, 0, -1
IMU, 104967163, 0.000245741, 0.000202382, 1.159489E-05, 0.2819228, 0.109699, -9.562796, 0, 0, 44.57699, 1, 1, 1000, 1000
ATT, 104969596, 0, -0.78, 0, 1.17, 159.11, 159.11, 0, 1
RATE, 104969604, 3.535754, 0.04281443, 0.008247124, -5.292706, 0.02860763, -0.01280295, -0.03229669, -0.156658, 0.0004008335, 573.4838, -1.16291, 0
NKF1, 104969612, -0.78, 1.17, 159.11, 0.02516103, -0.01166318, 0.01416009, 0, 0, 0, -0.04139941, -0.02, 0, 0.16
NKF2, 104969612, 22, 0, 0, 0, 0, 0, 0, 0, 0, 0, 0, 0, 0
NKF3, 104969612, 0, 0, 0, 0.02, 0, 0.02, 0, 0, 0, 0, 0
NKF4, 104969612, 0, 0, 0, 0, 0, 4.84555E-06, 0, 0, 0, 19, 229, 0, 0
NKF5, 104969612, 0, 0, 0, 0, 0.18, 0.13, 0, 0.19, 0.5, 3.736282E-05, 0.001967141, 0.00430118
NKQ1, 104969612, -0.1811743, 0.01605935, 0.002999678, -0.9833154
AHR2, 104969655, -0.85, 1.37, 171.17, -0.3, 0, 0, 0.07685469, -0.01257034, -0.006532038, 0.9969417
MOTB, 104969662, 1, 1, 0, 1
RCIN, 104969667, 0, 0, 0, 0, 0, 0, 0, 0, 0, 0, 0, 0, 0, 0
RCOU, 104969672, 1101, 1101, 1101, 1101, 0, 0, 0, 0, 0, 0, 0, 0, 0, 0
VIBE, 104969681, 0.02227131, 0.02364642, 0.03380517, 0, 0, 0
CTRL, 104969687, 0.008338927, 0.0001506677, 0.01247066, 0.0001662811, 0.0003618349
PRX, 104969719, 2, 0.78, 0, 1.3, 0, 3.6, 0, 1.14, 0, 0, 0, 0.78
IMU, 105007255, -0.0009816294, -9.854411E-05, 0.0004787369, 0.2751802, 0.1166152, -9.579611, 0, 0, 44.57699, 1, 1, 1000, 1000
RFND, 105017165, 0.2, 25, 0, 0
IMU, 105047178, -0.001625305, 0.0001633805, 1.626159E-06, 0.2935708, 0.1131154, -9.569022, 0, 0, 44.57699, 1, 1, 1000, 1000
MAG, 105067092, -23, 314, 186, 0, 0, 0, 0, 0, 0, 1, 105067083
RFND, 105067122, 0.2, 25, 0, 0
BARO, 105067159, -0.2204061, 983.2643, 43.66, -0.03002329, 105067, 0, 35
CTUN, 105067172, 0, 0, 0, 0.3167473, 0.04156162, 0.04156162, -0.22, 0, 0.19, 0, 0, -1
ATT, 105069673, 0, -0.78, 0, 1.17, 159.1, 159.09, 0, 1
RATE, 105069683, 3.536362, 0.04500809, 0.008067095, -5.296792, 0.01341862, -0.01248426, -0.03613101, -0.1370782, 0.0003469298, 557.9055, -0.1387596, 0
NKF1, 105069691, -0.78, 1.17, 159.09, 0.02607879, -0.01257578, 0.01377544, 0, 0, 0, -0.0415202, -0.02, 0, 0.16
NKF2, 105069691, 22, 0, 0, 0, 0, 0, 0, 0, 0, 0, 0, 0, 0
NKF3, 105069691, 0, 0, 0, 0.03, -0.01, 0.02, 0, 0, 0, 0, 0
NKF4, 105069691, 0, 0, 0, 0, 0, 3.370659E-06, 0, 0, 0, 19, 229, 0, 0
NKF5, 105069691, 0, 0, 0, 0, 0.18, 0.13, 0, 0.19, 0.5, 3.824553E-05, 0.002047016, 0.004673139
NKQ1, 105069691, -0.1812886, 0.01606737, 0.002998411, -0.9832942
AHR2, 105069735, -0.85, 1.38, 171.17, -0.22, 0, 0, 0.07682806, -0.01259046, -0.00653171, 0.9969435
MOTB, 105069742, 1, 1, 0, 1
RCIN, 105069747, 0, 0, 0, 0, 0, 0, 0, 0, 0, 0, 0, 0, 0, 0
RCOU, 105069753, 1101, 1101, 1101, 1101, 0, 0, 0, 0, 0, 0, 0, 0, 0, 0
VIBE, 105069841, 0.02216101, 0.02303126, 0.03585321, 0, 0, 0
CTRL, 105069848, 0.008336802, 0.0001682407, 0.01248407, 0.0001458697, 0.0003610282
PRX, 105069882, 2, 0.78, 0, 1.3, 0, 3.6, 0, 1.14, 0, 0, 0, 0.78
IMU, 105087188, -0.0008039081, -0.0008791086, 0.001085109, 0.2830367, 0.1115755, -9.561405, 0, 0, 44.57699, 1, 1, 1000, 1000
RFND, 105117173, 0.2, 25, 0, 0
IMU, 105127176, 0.0001817379, -0.0009316818, -0.001571737, 0.2884606, 0.1339518, -9.561292, 0, 0, 44.57699, 1, 1, 1000, 1000
MAG, 105167125, -28, 316, 185, 0, 0, 0, 0, 0, 0, 1, 105167116
RFND, 105167155, 0.2, 25, 0, 0
BARO, 105167193, -0.2486633, 983.2676, 43.66, 0.01236249, 105167, 0, 35
CTUN, 105167234, 0, 0, 0, 0.3167473, 0.04200517, 0.04200517, -0.24, 0, 0.19, 0, 0, -1
IMU, 105167306, 0.000236357, 0.0002735978, 0.0005858432, 0.2661539, 0.1362662, -9.578377, 0, 0, 44.57699, 1, 1, 1000, 1000
ATT, 105169891, 0, -0.78, 0, 1.17, 159.08, 159.08, 0, 1
RATE, 105169900, 3.524556, 0.04324121, 0.008090482, -5.28969, 0.01516722, -0.0125742, -0.0353627, -0.1306814, 0.000368486, 571.2434, 0.2192497, 0
NKF1, 105169908, -0.78, 1.17, 159.08, 0.0271784, -0.01440876, 0.01410478, 0, 0, 0, -0.04199106, -0.02, 0, 0.16
NKF2, 105169908, 22, 0, 0, 0, 0, 0, 0, 0, 0, 0, 0, 0, 0
NKF3, 105169908, 0, 0, 0, 0.03, -0.01, 0.02, 0, 0, 0, 0, 0
NKF4, 105169908, 0, 0, 0, 0, 0, 2.419192E-06, 0, 0, 0, 19, 229, 0, 0
NKF5, 105169908, 0, 0, 0, 0, 0.18, 0.13, 0, 0.19, 0.5, 3.878444E-05, 0.001838309, 0.004328056
NKQ1, 105169908, -0.1814206, 0.01605087, 0.002976923, -0.9832701
AHR2, 105169953, -0.85, 1.38, 171.17, -0.24, 0, 0, 0.07682217, -0.01258668, -0.006508678, 0.9969441
MOTB, 105169961, 1, 1, 0, 1
RCIN, 105169965, 0, 0, 0, 0, 0, 0, 0, 0, 0, 0, 0, 0, 0, 0
RCOU, 105169972, 1101, 1101, 1101, 1101, 0, 0, 0, 0, 0, 0, 0, 0, 0, 0
VIBE, 105169980, 0.02295781, 0.02433153, 0.03690198, 0, 0, 0
CTRL, 105169987, 0.00831723, 0.0001514695, 0.01246386, 0.000148434, 0.0003617294
PRX, 105170019, 2, 0.78, 0, 1.29, 0, 3.6, 0, 1.14, 0, 0, 0, 0.78
IMU, 105207178, 9.673796E-05, 0.000309566, -0.0003058438, 0.2969818, 0.1022461, -9.574028, 0, 0, 44.577, 1, 1, 1000, 1000
RFND, 105217452, 0.2, 25, 0, 0
IMU, 105247097, 0.0001059397, 0.0006783826, 0.0009648526, 0.2759231, 0.1228179, -9.549965, 0, 0, 44.57699, 1, 1, 1000, 1000
MAG, 105267554, -23, 314, 188, 0, 0, 0, 0, 0, 0, 1, 105267546
RFND, 105267583, 0.2, 25, 0, 0
BARO, 105267619, -0.1978004, 983.2622, 43.66, 0.07770726, 105267, 0, 35
CTUN, 105267632, 0, 0, 0, 0.3167473, 0.04213326, 0.04213326, -0.19, 0, 0.19, 0, 0, -1
ATT, 105269605, 0, -0.78, 0, 1.17, 159.07, 159.06, 0, 1
RATE, 105269614, 3.516987, 0.01098573, 0.008257663, -5.299967, -0.004840879, -0.01227476, -0.03586996, -0.2025121, 0.000381326, 607.114, -0.9585381, 0
NKF1, 105269621, -0.78, 1.17, 159.06, 0.02858645, -0.01518563, 0.01499047, 0, 0, 0, -0.04211828, -0.02, 0, 0.16
NKF2, 105269621, 22, 0, 0, 0, 0, 0, 0, 0, 0, 0, 0, 0, 0
NKF3, 105269621, 0, 0, 0, 0.03, -0.01, 0.02, 0, 0, 0, 0, 0
NKF4, 105269621, 0, 0, 0, 0, 0, 1.806047E-06, 0, 0, 0, 19, 229, 0, 0
NKF5, 105269621, 0, 0, 0, 0, 0.18, 0.13, 0, 0.19, 0.5, 3.828786E-05, 0.00186011, 0.004432095
NKQ1, 105269621, -0.1815678, 0.01606897, 0.00295303, -0.9832428
AHR2, 105269665, -0.85, 1.38, 171.17, -0.19, 0, 0, 0.07682741, -0.01261862, -0.00648829, 0.9969435
MOTB, 105269672, 1, 1, 0, 1
RCIN, 105269676, 0, 0, 0, 0, 0, 0, 0, 0, 0, 0, 0, 0, 0, 0
RCOU, 105269683, 1101, 1101, 1101, 1101, 0, 0, 0, 0, 0, 0, 0, 0, 0, 0
VIBE, 105269691, 0.02546921, 0.02425878, 0.03810361, 0, 0, 0
CTRL, 105269697, 0.008287429, 0.0001365458, 0.01249555, 0.0001412278, 0.0003736087
PRX, 105269729, 2, 0.78, 0, 1.3, 0, 3.6, 0, 1.14, 0, 0, 0, 0.78
IMU, 105287051, -0.0007092322, 0.0006657329, 0.0004500547, 0.2938201, 0.111687, -9.563557, 0, 0, 44.57699, 1, 1, 1000, 1000
RFND, 105316973, 0.2, 25, 0, 0
IMU, 105327439, 0.0005658956, 0.0007571102, 8.369025E-05, 0.2949692, 0.1237354, -9.568128, 0, 0, 44.57699, 1, 1, 1000, 1000
MAG, 105367128, -18, 317, 183, 0, 0, 0, 0, 0, 0, 1, 105367120
RFND, 105367160, 0.2, 25, 0, 0
BARO, 105367198, -0.2656176, 983.2693, 43.66, 0.1430521, 105367, 0, 35
CTUN, 105367239, 0, 0, 0, 0.3167473, 0.04236118, 0.04236118, -0.26, 0, 0.19, 0, 0, -1
IMU, 105367310, -0.000502593, 0.0002582388, 0.001447478, 0.2839034, 0.1168602, -9.575884, 0, 0, 44.57699, 1, 1, 1000, 1000
ATT, 105369862, 0, -0.77, 0, 1.18, 159.06, 159.05, 0, 1
RATE, 105369872, 3.509231, -0.008971499, 0.00839263, -5.315557, 0.003851941, -0.01230478, -0.03402592, -0.09522844, 0.0002766724, 589.962, 0.06637573, 0
NKF1, 105369880, -0.77, 1.18, 159.05, 0.02945061, -0.01592682, 0.01456696, 0, 0, 0, -0.04233208, -0.02, 0, 0.16
NKF2, 105369880, 22, 0, 0, 0, 0, 0, 0, 0, 0, 0, 0, 0, 0
NKF3, 105369880, 0, 0, 0, 0.03, -0.01, 0.02, 0, 0, 0, 0, 0
NKF4, 105369880, 0, 0, 0, 0, 0, 1.426458E-06, 0, 0, 0, 19, 229, 0, 0
NKF5, 105369880, 0, 0, 0, 0, 0.18, 0.13, 0, 0.19, 0.5, 3.791643E-05, 0.001700699, 0.00418601
NKQ1, 105369880, -0.181668, 0.01609486, 0.002936081, -0.9832239
AHR2, 105369925, -0.85, 1.38, 171.18, -0.26, 0, 0, 0.07678627, -0.01265876, -0.006476138, 0.9969462
MOTB, 105369933, 1, 1, 0, 1
RCIN, 105369937, 0, 0, 0, 0, 0, 0, 0, 0, 0, 0, 0, 0, 0, 0
RCOU, 105369943, 1101, 1101, 1101, 1101, 0, 0, 0, 0, 0, 0, 0, 0, 0, 0
VIBE, 105369952, 0.02254332, 0.0224773, 0.03680965, 0, 0, 0
CTRL, 105369959, 0.008273105, 0.0001282086, 0.01252299, 0.0001352708, 0.0003629389
PRX, 105370038, 2, 0.78, 0, 1.31, 0, 3.6, 0, 1.14, 0, 0, 0, 0.78
IMU, 105407180, -0.0003553454, 0.0007322851, 0.0007382528, 0.2888456, 0.1131451, -9.573584, 0, 0, 44.57699, 1, 1, 1000, 1000
RFND, 105417276, 0.2, 25, 0, 0
IMU, 105447161, -0.0006548757, -7.056217E-05, 0.0001811972, 0.2849546, 0.1158155, -9.567066, 0, 0, 44.57699, 1, 1, 1000, 1000
MAG, 105467104, -20, 316, 191, 0, 0, 0, 0, 0, 0, 1, 105467095
RFND, 105467133, 0.2, 25, 0, 0
BARO, 105467171, -0.3108292, 983.2744, 43.66, 0.0635787, 105467, 0, 35
CTUN, 105467183, 0, 0, 0, 0.3167473, 0.04254346, 0.04254346, -0.31, 0, 0.19, 0, 0, -1
ATT, 105469645, 0, -0.77, 0, 1.18, 159.04, 159.03, 0, 1
RATE, 105469655, 3.508226, 0.01682453, 0.008267251, -5.332603, 0.09203357, -0.01303075, -0.03229712, -0.1679781, 0.000339258, 583.9218, -0.178051, 0
NKF1, 105469662, -0.77, 1.18, 159.03, 0.0309576, -0.01657214, 0.01441782, 0, 0, 0, -0.04250021, -0.02, 0, 0.16
NKF2, 105469662, 22, 0, 0, 0, 0, 0, 0, 0, 0, 0, 0, 0, 0
NKF3, 105469662, 0, 0, 0, 0.04, -0.01, 0.01, 0, 0, 0, 0, 0
NKF4, 105469662, 0, 0, 0, 0, 0, 1.205661E-06, 0, 0, 0, 19, 229, 0, 0
NKF5, 105469662, 0, 0, 0, 0, 0.18, 0.13, 0, 0.19, 0.5, 3.715619E-05, 0.001665007, 0.004103499
NKQ1, 105469662, -0.1818, 0.01612794, 0.002922423, -0.983199
AHR2, 105469706, -0.85, 1.39, 171.18, -0.31, 0, 0, 0.07677589, -0.0127051, -0.006466675, 0.9969465
MOTB, 105469713, 1, 1, 0, 1
RCIN, 105469718, 0, 0, 0, 0, 0, 0, 0, 0, 0, 0, 0, 0, 0, 0
RCOU, 105469724, 1101, 1101, 1101, 1101, 0, 0, 0, 0, 0, 0, 0, 0, 0, 0
VIBE, 105469732, 0.02058828, 0.02086881, 0.03560336, 0, 0, 0
CTRL, 105469738, 0.008265241, 0.0001345104, 0.01255495, 0.0001523535, 0.0003487571
PRX, 105469850, 2, 0.78, 0, 1.3, 0, 3.6, 0, 1.14, 0, 0, 0, 0.78
IMU, 105487264, -0.0004485685, 0.000611567, -0.0004672202, 0.2899474, 0.11422, -9.58882, 0, 0, 44.57699, 1, 1, 1000, 1000
RFND, 105517733, 0.2, 25, 0, 0
IMU, 105527226, 0.001036832, 0.0004886574, 7.035436E-05, 0.2695964, 0.1155155, -9.572008, 0, 0, 44.57699, 1, 1, 1000, 1000
MAG, 105567012, -24, 314, 184, 0, 0, 0, 0, 0, 0, 1, 105567003
RFND, 105567041, 0.2, 25, 0, 0
BARO, 105567077, -0.2825719, 983.2711, 43.66, -0.1324556, 105567, 0, 35
CTUN, 105567090, 0, 0, 0, 0.3167473, 0.04268859, 0.04268859, -0.28, 0, 0.19, 0, 0, -1
IMU, 105567155, -0.0003037961, 8.996498E-05, 0.0002460975, 0.2837717, 0.1152297, -9.583981, 0, 0, 44.57699, 1, 1, 1000, 1000
ATT, 105569641, 0, -0.77, 0, 1.18, 159.03, 159.02, 0, 1
RATE, 105569651, 3.498129, 0.002224065, 0.008276855, -5.34591, 0.01444165, -0.0126136, -0.03515569, -0.1485784, 0.0003535777, 532.9318, 1.211929, 0
NKF1, 105569659, -0.77, 1.18, 159.02, 0.03292336, -0.0178523, 0.01315881, 0, 0, 0, -0.04266225, -0.02, 0, 0.16
NKF2, 105569659, 22, 0, 0, 0, 0, 0, 0, 0, 0, 0, 0, 0, 0
NKF3, 105569659, 0, 0, 0, 0.04, -0.01, 0.01, 0, 0, 0, 0, 0
NKF4, 105569659, 0, 0, 0, 0, 0, 1.089744E-06, 0, 0, 0, 19, 229, 0, 0
NKF5, 105569659, 0, 0, 0, 0, 0.18, 0.13, 0, 0.19, 0.5, 3.686881E-05, 0.00157203, 0.003969586
NKQ1, 105569659, -0.1819345, 0.01615049, 0.002897413, -0.9831737
AHR2, 105569704, -0.84, 1.39, 171.18, -0.28, 0, 0, 0.07676937, -0.01274114, -0.006442365, 0.9969466
MOTB, 105569711, 1, 1, 0, 1
RCIN, 105569715, 0, 0, 0, 0, 0, 0, 0, 0, 0, 0, 0, 0, 0, 0
RCOU, 105569722, 1101, 1101, 1101, 1101, 0, 0, 0, 0, 0, 0, 0, 0, 0, 0
VIBE, 105569730, 0.02042753, 0.02236681, 0.03401061, 0, 0, 0
CTRL, 105569737, 0.008243276, 0.0001279034, 0.01258602, 0.000141957, 0.000361919
PRX, 105569845, 2, 0.79, 0, 1.3, 0, 3.6, 0, 1.14, 0, 0, 0, 0.79
IMU, 105607175, 8.269604E-05, -0.0004630518, 0.0002015098, 0.281196, 0.1373309, -9.564396, 0, 0, 44.57699, 1, 1, 1000, 1000
RFND, 105617180, 0.2, 25, 0, 0
IMU, 105647335, -0.0006445998, 0.0008716881, -0.0001402841, 0.2879278, 0.1224991, -9.561462, 0, 0, 44.57699, 1, 1, 1000, 1000
MAG, 105667147, -22, 312, 186, 0, 0, 0, 0, 0, 0, 1, 105667138
RFND, 105667177, 0.2, 25, 0, 0
BARO, 105667244, -0.3277835, 983.2761, 43.66, -0.2525487, 105667, 0, 35
CTUN, 105667257, 0, 0, 0, 0.3167473, 0.04306101, 0.04306101, -0.32, 0, 0.19, 0, 0, -1
ATT, 105669598, 0, -0.77, 0, 1.18, 159.01, 159, 0, 1
RATE, 105669607, 3.500446, -0.01520198, 0.008139724, -5.352547, 0.05097439, -0.01276046, -0.03653112, -0.1652078, 0.0003436796, 545.4515, 0.13237, 0
NKF1, 105669615, -0.77, 1.18, 159, 0.0341134, -0.01967448, 0.01346794, 0, 0, 0, -0.04303416, -0.02, 0, 0.16
NKF2, 105669615, 22, 0, 0, 0, 0, 0, 0, 0, 0, 0, 0, 0, 0
NKF3, 105669615, 0, 0, 0, 0.04, -0.01, 0.01, 0, 0, 0, 0, 0
NKF4, 105669615, 0, 0, 0, 0, 0, 1.067695E-06, 0, 0, 0, 19, 229, 0, 0
NKF5, 105669615, 0, 0, 0, 0, 0.18, 0.13, 0, 0.19, 0.5, 3.613911E-05, 0.001496961, 0.003742354
NKQ1, 105669615, -0.18205, 0.01616464, 0.002896851, -0.9831522
AHR2, 105669661, -0.84, 1.4, 171.18, -0.32, 0, 0, 0.07674482, -0.01276332, -0.006442829, 0.9969482
MOTB, 105669667, 1, 1, 0, 1
RCIN, 105669672, 0, 0, 0, 0, 0, 0, 0, 0, 0, 0, 0, 0, 0, 0
RCOU, 105669678, 1101, 1101, 1101, 1101, 0, 0, 0, 0, 0, 0, 0, 0, 0, 0
VIBE, 105669686, 0.0228825, 0.02267715, 0.0418826, 0, 0, 0
CTRL, 105669692, 0.00825259, 0.0001269741, 0.01260439, 0.0001329844, 0.0003509043
PRX, 105669725, 2, 0.78, 0, 1.29, 0, 3.6, 0, 1.14, 0, 0, 0, 0.78
IMU, 105687179, -0.0004602339, 0.0003115585, 0.0008486233, 0.2769541, 0.1326682, -9.566252, 0, 0, 44.57699, 1, 1, 1000, 1000
RFND, 105717181, 0.2, 25, 0, 0
IMU, 105727186, -0.0006397256, -0.001159731, 0.0005419326, 0.2944396, 0.1032035, -9.589967, 0, 0, 44.577, 1, 1, 1000, 1000
MAG, 105767093, -21, 314, 186, 0, 0, 0, 0, 0, 0, 1, 105767084
RFND, 105767122, 0.2, 25, 0, 0
BARO, 105767159, -0.3786464, 983.2816, 43.67, -0.2295897, 105767, 0, 35
CTUN, 105767172, 0, 0, 0, 0.3167473, 0.0431125, 0.0431125, -0.37, 0, 0.19, 0, 0, -1
DU32, 105767242, 7, 50389208
IMU, 105767336, -0.0008360114, 0.0002527903, -0.0005890592, 0.2805175, 0.128712, -9.561689, 0, 0, 44.57699, 1, 1, 1000, 1000
PM, 105767349, 47, 4000, 4227, 10, 0, 0, 39, 262144
ATT, 105769663, 0, -0.77, 0, 1.19, 159, 158.99, 0, 1
RATE, 105769673, 3.503619, -0.03323081, 0.008553067, -5.355654, 0.008227442, -0.012535, -0.03597788, -0.1971664, 0.0003462649, 542.4045, -1.260662, 0
NKF1, 105769680, -0.77, 1.19, 158.99, 0.03533975, -0.0211533, 0.0133927, 0, 0, 0, -0.04309913, -0.02, 0, 0.16
NKF2, 105769680, 22, 0, 0, 0, 0, 0, 0, 0, 0, 0, 0, 0, 0
NKF3, 105769680, 0, 0, 0, 0.04, -0.01, 0.01, 0, 0, 0, 0, 0
NKF4, 105769680, 0, 0, 0, 0, 0, 1.076149E-06, 0, 0, 0, 19, 229, 0, 0
NKF5, 105769680, 0, 0, 0, 0, 0.18, 0.13, 0, 0.19, 0.5, 3.601425E-05, 0.001460966, 0.003725278
NKQ1, 105769680, -0.1821692, 0.01617199, 0.002898155, -0.9831299
AHR2, 105769724, -0.84, 1.4, 171.18, -0.37, 0, 0, 0.07672425, -0.0127741, -0.006446928, 0.9969497
MOTB, 105769730, 1, 1, 0, 1
RCIN, 105769735, 0, 0, 0, 0, 0, 0, 0, 0, 0, 0, 0, 0, 0, 0
RCOU, 105769741, 1101, 1101, 1101, 1101, 0, 0, 0, 0, 0, 0, 0, 0, 0, 0
VIBE, 105769750, 0.02239445, 0.02440371, 0.03807358, 0, 0, 0
CTRL, 105769841, 0.008245536, 0.0001434856, 0.01261885, 0.0001535311, 0.0003385209
PRX, 105769874, 2, 0.79, 0, 1.3, 0, 3.6, 0, 1.14, 0, 0, 0, 0.79
IMU, 105807180, -0.001053037, 0.0004462193, 0.0003699391, 0.2695577, 0.1171358, -9.561186, 0, 0, 44.57699, 1, 1, 1000, 1000
RFND, 105818375, 0.2, 25, 0, 0
IMU, 105847151, 6.188711E-05, -0.0006887929, -0.0007763644, 0.2782687, 0.1165721, -9.572218, 0, 0, 44.57699, 1, 1, 1000, 1000
MAG, 105867149, -18, 314, 187, 0, 0, 0, 0, 0, 0, 1, 105867141
RFND, 105867179, 0.2, 25, 0, 0
BARO, 105867246, -0.3842978, 983.282, 43.67, -0.2260575, 105867, 0, 35
CTUN, 105867259, 0, 0, 0, 0.3167473, 0.04348515, 0.04348515, -0.38, 0, 0.19, 0, 0, -1
ATT, 105869642, 0, -0.77, 0, 1.19, 158.98, 158.97, 0, 1
RATE, 105869651, 3.497404, 0.0259396, 0.008106858, -5.356017, 0.004403013, -0.01269618, -0.03504049, -0.1939843, 0.0004054791, 557.1141, -0.1921654, 0
NKF1, 105869659, -0.77, 1.19, 158.97, 0.03731242, -0.02256713, 0.0137559, 0, 0, 0, -0.04345765, -0.02, 0, 0.16
NKF2, 105869659, 22, 0, 0, 0, 0, 0, 0, 0, 0, 0, 0, 0, 0
NKF3, 105869659, 0, 0, 0, 0.05, -0.02, 0.01, 0, 0, 0, 0, 0
NKF4, 105869659, 0, 0, 0, 0, 0, 1.165337E-06, 0, 0, 0, 19, 229, 0, 0
NKF5, 105869659, 0, 0, 0, 0, 0.18, 0.13, 0, 0.19, 0.5, 3.555759E-05, 0.001348767, 0.003389607
NKQ1, 105869659, -0.1823054, 0.01617087, 0.002884102, -0.9831048
AHR2, 105869703, -0.84, 1.4, 171.18, -0.38, 0, 0, 0.07671791, -0.01277966, -0.006435752, 0.9969502
MOTB, 105869710, 1, 1, 0, 1
RCIN, 105869715, 0, 0, 0, 0, 0, 0, 0, 0, 0, 0, 0, 0, 0, 0
RCOU, 105869720, 1101, 1101, 1101, 1101, 0, 0, 0, 0, 0, 0, 0, 0, 0, 0
VIBE, 105869729, 0.02201194, 0.02303773, 0.0336086, 0, 0, 0
CTRL, 105869735, 0.008242134, 0.0001390293, 0.01262079, 0.0001361103, 0.0003416391
PRX, 105869849, 2, 0.78, 0, 1.3, 0, 3.6, 0, 1.14, 0, 0, 0, 0.78
IMU, 105887343, -0.001498426, -0.0002320641, -0.0001996115, 0.2857172, 0.1069585, -9.575618, 0, 0, 44.57699, 1, 1, 1000, 1000
RFND, 105918028, 0.2, 25, 0, 0
IMU, 105927154, 0.0006808582, 0.0001379737, -4.881682E-05, 0.285297, 0.1066044, -9.580997, 0, 0, 44.57699, 1, 1, 1000, 1000
MAG, 105967111, -23, 317, 189, 0, 0, 0, 0, 0, 0, 1, 105967102
RFND, 105967141, 0.2, 25, 0, 0
BARO, 105967179, -0.3956007, 983.2837, 43.67, -0.2825719, 105967, 0, 35
CTUN, 105967192, 0, 0, 0, 0.3167473, 0.0435203, 0.0435203, -0.39, 0, 0.19, 0, 0, -1
IMU, 105967263, 0.0001745568, 0.0006583005, 2.912326E-05, 0.2844433, 0.1204514, -9.583616, 0, 0, 44.57699, 1, 1, 1000, 1000
ATT, 105969701, 0, -0.77, 0, 1.19, 158.97, 158.96, 0, 1
RATE, 105969711, 3.495865, 0.01923691, 0.008322212, -5.359979, 0.01941532, -0.01257837, -0.03488683, -0.1532656, 0.0003884677, 529.2482, 0.663662, 0
NKF1, 105969719, -0.77, 1.19, 158.96, 0.03863465, -0.02348502, 0.01306786, 0, 0, 0, -0.0434942, -0.02, 0, 0.16
NKF2, 105969719, 22, 0, 0, 0, 0, 0, 0, 0, 0, 0, 0, 0, 0
NKF3, 105969719, 0, 0, 0, 0.05, -0.02, 0.01, 0, 0, 0, 0, 0
NKF4, 105969719, 0, 0, 0, 0, 0, 1.242374E-06, 0, 0, 0, 19, 229, 0, 0
NKF5, 105969719, 0, 0, 0, 0, 0.18, 0.13, 0, 0.19, 0.5, 3.49322E-05, 0.001353206, 0.003359862
NKQ1, 105969719, -0.1824399, 0.01617752, 0.002879352, -0.9830797
AHR2, 105969847, -0.84, 1.4, 171.18, -0.39, 0, 0, 0.0767113, -0.01279409, -0.0064352, 0.9969505
MOTB, 105969856, 1, 1, 0, 1
RCIN, 105969861, 0, 0, 0, 0, 0, 0, 0, 0, 0, 0, 0, 0, 0, 0
RCOU, 105969867, 1101, 1101, 1101, 1101, 0, 0, 0, 0, 0, 0, 0, 0, 0, 0
VIBE, 105969876, 0.0211913, 0.02034256, 0.03420634, 0, 0, 0
CTRL, 105969882, 0.008235455, 0.0001470353, 0.01263232, 0.0001459879, 0.0003673651
PRX, 105969915, 2, 0.78, 0, 1.3, 0, 3.6, 0, 1.14, 0, 0, 0, 0.78
IMU, 106007174, 0.001214289, -3.905208E-05, 0.0001441407, 0.284742, 0.1004923, -9.577414, 0, 0, 44.57699, 1, 1, 1000, 1000
RFND, 106017220, 0.2, 25, 0, 0
IMU, 106047114, -0.0001017817, -0.0001989379, 7.034636E-05, 0.2887971, 0.1240977, -9.560527, 0, 0, 44.57699, 1, 1, 1000, 1000
MAG, 106067198, -24, 316, 183, 0, 0, 0, 0, 0, 0, 1, 106067189
RFND, 106067256, 0.2, 25, 0, 0
BARO, 106067296, -0.3673435, 983.2803, 43.67, -0.2472505, 106067, 0, 35
CTUN, 106067308, 0, 0, 0, 0.3167473, 0.04392419, 0.04392419, -0.36, 0, 0.19, 0, 0, -1
ATT, 106069593, 0, -0.77, 0, 1.18, 158.95, 158.94, 0, 1
RATE, 106069603, 3.486844, -0.03480825, 0.008551043, -5.352536, 0.002348736, -0.01272069, -0.03434901, -0.1409947, 0.0003454949, 493.9278, 1.581097, 0
NKF1, 106069610, -0.77, 1.18, 158.94, 0.03987385, -0.02401088, 0.01219575, 0, 0, 0, -0.04389976, -0.02, 0, 0.16
NKF2, 106069610, 22, 0, 0, 0, 0, 0, 0, 0, 0, 0, 0, 0, 0
NKF3, 106069610, 0, 0, 0, 0.05, -0.02, 0.01, 0, 0, 0, 0, 0
NKF4, 106069610, 0, 0, 0, 0, 0, 1.402512E-06, 0, 0, 0, 19, 229, 0, 0
NKF5, 106069610, 0, 0, 0, 0, 0.18, 0.13, 0, 0.19, 0.5, 3.502123E-05, 0.00122642, 0.003069059
NKQ1, 106069610, -0.1825636, 0.01616094, 0.002863586, -0.9830571
AHR2, 106069654, -0.84, 1.4, 171.19, -0.36, 0, 0, 0.07669374, -0.01278716, -0.006418352, 0.9969521
MOTB, 106069662, 1, 1, 0, 1
RCIN, 106069667, 0, 0, 0, 0, 0, 0, 0, 0, 0, 0, 0, 0, 0, 0
RCOU, 106069672, 1101, 1101, 1101, 1101, 0, 0, 0, 0, 0, 0, 0, 0, 0, 0
VIBE, 106069681, 0.02099371, 0.0212152, 0.03519259, 0, 0, 0
CTRL, 106069687, 0.008210704, 0.0001549094, 0.01261309, 0.0001409816, 0.0003658225
PRX, 106069721, 2, 0.78, 0, 1.29, 0, 3.6, 0, 1.14, 0, 0, 0, 0.78
IMU, 106087199, -0.00101849, -0.000305038, -0.0004584093, 0.2881401, 0.1255179, -9.593961, 0, 0, 44.57699, 1, 1, 1000, 1000
RFND, 106117202, 0.2, 25, 0, 0
IMU, 106127277, 0.0001540982, 0.0007124369, -0.0008596092, 0.2875865, 0.1107489, -9.593722, 0, 0, 44.57699, 1, 1, 1000, 1000
MAG, 106167492, -15, 317, 187, 0, 0, 0, 0, 0, 0, 1, 106167483
RFND, 106167523, 0.2, 25, 0, 0
BARO, 106167561, -0.4012522, 983.2841, 43.67, -0.1130288, 106167, 0, 35
CTUN, 106167574, 0, 0, 0, 0.3167473, 0.04418223, 0.04418223, -0.4, 0, 0.19, 0, 0, -1
IMU, 106167643, -0.00101381, 0.001062135, -0.0004168393, 0.2800281, 0.1102971, -9.575528, 0, 0, 44.57699, 1, 1, 1000, 1000
ATT, 106169827, 0, -0.77, 0, 1.19, 158.93, 158.92, 0, 1
RATE, 106169837, 3.498052, -0.03691793, 0.008460918, -5.362992, 0.05371404, -0.01286095, -0.03229734, -0.1981131, 0.0004387927, 453.6974, 0.3269196, 0
NKF1, 106169845, -0.77, 1.19, 158.92, 0.0414849, -0.02516233, 0.0112024, 0, 0, 0, -0.04414855, -0.02, 0, 0.16
NKF2, 106169845, 22, 0, 0, 0, 0, 0, 0, 0, 0, 0, 0, 0, 0
NKF3, 106169845, 0, 0, 0, 0.06, -0.03, 0.01, 0, 0, 0, 0, 0
NKF4, 106169845, 0, 0, 0, 0, 0, 1.548994E-06, 0, 0, 0, 19, 229, 0, 0
NKF5, 106169845, 0, 0, 0, 0, 0.18, 0.13, 0, 0.19, 0.5, 3.45856E-05, 0.001178541, 0.002874939
NKQ1, 106169845, -0.1827315, 0.01618597, 0.002875766, -0.9830254
AHR2, 106169891, -0.84, 1.4, 171.18, -0.4, 0, 0, 0.07671931, -0.01281949, -0.006429313, 0.9969496
MOTB, 106169897, 1, 1, 0, 1
RCIN, 106169902, 0, 0, 0, 0, 0, 0, 0, 0, 0, 0, 0, 0, 0, 0
RCOU, 106169908, 1101, 1101, 1101, 1101, 0, 0, 0, 0, 0, 0, 0, 0, 0, 0
VIBE, 106169917, 0.02062129, 0.02073227, 0.03577274, 0, 0, 0
CTRL, 106169924, 0.008236161, 0.0001534735, 0.01263379, 0.0001300006, 0.0003853192
PRX, 106170091, 2, 0.78, 0, 1.3, 0, 3.6, 0, 1.14, 0, 0, 0, 0.78
IMU, 106207179, 4.389751E-06, -3.549523E-05, 0.0002438824, 0.2873342, 0.1239856, -9.595488, 0, 0, 44.57699, 1, 1, 1000, 1000
RFND, 106217199, 0.2, 25, 0, 0
IMU, 106247181, -0.0005715768, -0.0002232587, -0.0002973247, 0.2799175, 0.1295441, -9.573765, 0, 0, 44.57699, 1, 1, 1000, 1000
MAG, 106267344, -24, 318, 187, 0, 0, 0, 0, 0, 0, 1, 106267336
RFND, 106267375, 0.2, 25, 0, 0
BARO, 106267414, -0.372995, 983.2808, 43.67, -0.01589473, 106267, 0, 35
CTUN, 106267426, 0, 0, 0, 0.3167473, 0.04465626, 0.04465626, -0.37, 0, 0.19, 0, 0, -1
EV, 106269356, 57
ATT, 106269666, 0, -0.77, 0, 1.19, 158.91, 158.91, 0, 1
RATE, 106269673, 3.486068, 0.05632227, 0.008013739, -5.367098, 0.05127371, -0.01280856, -0.03858295, -0.1934942, 0.0004589848, 412.0285, 0.7518768, 0
NKF1, 106269681, -0.77, 1.19, 158.91, 0.0425954, -0.02685062, 0.01017354, 0, 0, 0, -0.04462579, -0.02, 0, 0.16
NKF2, 106269681, 22, 0, 0, 0, 0, 0, 0, 0, 0, 0, 0, 0, 0
NKF3, 106269681, 0, 0, 0, 0.06, -0.03, 0.01, 0, 0, 0, 0, 0
NKF4, 106269681, 0, 0, 0, 0, 0, 1.744181E-06, 0, 0, 0, 19, 229, 0, 0
NKF5, 106269681, 0, 0, 0, 0, 0.18, 0.13, 0, 0.19, 0.5, 3.470166E-05, 0.00112576, 0.002793346
NKQ1, 106269681, -0.1828869, 0.0161895, 0.002848934, -0.9829965
AHR2, 106269726, -0.84, 1.41, 171.18, -0.37, 0, 0, 0.07673408, -0.01283453, -0.006401686, 0.9969484
MOTB, 106269734, 1, 1, 0, 1
RCIN, 106269738, 0, 0, 0, 0, 0, 0, 0, 0, 0, 0, 0, 0, 0, 0
RCOU, 106269744, 1101, 1101, 1101, 1101, 0, 0, 0, 0, 0, 0, 0, 0, 0, 0
VIBE, 106269752, 0.02203644, 0.02175022, 0.03502187, 0, 0, 0
CTRL, 106269844, 0.008216041, 0.0001442183, 0.01264538, 0.0001355953, 0.0004141852
PRX, 106269878, 2, 0.78, 0, 1.29, 0, 3.6, 0, 1.14, 0, 0, 0, 0.78
IMU, 106287154, 0.0008710664, 0.001334665, 0.0003330863, 0.2789659, 0.1177199, -9.571356, 0, 0, 44.57699, 1, 1, 1000, 1000
RFND, 106317151, 0.2, 25, 0, 0
IMU, 106327218, -0.001410521, 0.0001486647, 0.0004288274, 0.2811331, 0.1305195, -9.582565, 0, 0, 44.577, 1, 1, 1000, 1000
MAG, 106368238, -19, 312, 185, 0, 0, 0, 0, 0, 0, 1, 106368227
RFND, 106368270, 0.2, 25, 0, 0
BARO, 106368311, -0.372995, 983.2808, 43.67, 0.00706132, 106368, 0, 35
CTUN, 106368327, 0, 0, 0, 0.3167473, 0.04516334, 0.04516334, -0.37, 0, 0.19, 0, 0, 0
IMU, 106368399, -0.0001141531, 0.000843303, 3.267758E-05, 0.2798866, 0.1192298, -9.574751, 0, 0, 44.57699, 1, 1, 1000, 1000
ATT, 106370364, 0, -0.77, 0, 1.19, 158.9, 158.89, 0, 1
RATE, 106370374, 3.485927, 0.04199102, 0.007734505, -5.384151, 0.05220511, -0.0129147, -0.0363854, -0.1658977, 0.0003756881, 376.4818, -0.9863853, 0
NKF1, 106370381, -0.77, 1.19, 158.89, 0.04421687, -0.02831164, 0.009295847, 0, 0, 0, -0.04513553, -0.02, 0, 0.16
NKF2, 106370381, 22, 0, 0, 0, 0, 0, 0, 0, 0, 0, 0, 0, 0
NKF3, 106370381, 0, 0, 0, 0.07, -0.03, 0.01, 0, 0, 0, 0, 0
NKF4, 106370381, 0, 0, 0, 0, 0, 1.956661E-06, 0, 0, 0, 19, 229, 0, 0
NKF5, 106370381, 0, 0, 0, 0, 0.18, 0.13, 0, 0.19, 0.5, 3.411848E-05, 0.001026647, 0.002438768
NKQ1, 106370381, -0.183016, 0.01622195, 0.002841749, -0.982972
AHR2, 106370426, -0.84, 1.41, 171.18, -0.37, 0, 0, 0.07672195, -0.01287611, -0.006401263, 0.9969488
MOTB, 106370433, 1, 1, 0, 1
RCIN, 106370437, 0, 0, 0, 0, 0, 0, 0, 0, 0, 0, 0, 0, 0, 0
RCOU, 106370443, 1124, 1124, 1124, 1124, 0, 0, 0, 0, 0, 0, 0, 0, 0, 0
VIBE, 106370452, 0.02271692, 0.02033558, 0.04101307, 0, 0, 0
CTRL, 106370458, 0.008221829, 0.000160814, 0.01267929, 0.0001212105, 0.0004134568
PRX, 106370493, 2, 0.78, 0, 1.29, 0, 3.6, 0, 1.14, 0, 0, 0, 0.78
IMU, 106407304, 0.0002857832, 8.000889E-06, 0.000609455, 0.2864372, 0.1152423, -9.561256, 0, 0, 44.57699, 1, 1, 1000, 1000
RFND, 106417196, 0.2, 25, 0, 0
IMU, 106447181, 8.101681E-05, 0.00110777, 0.0003151254, 0.2823459, 0.1059847, -9.566698, 0, 0, 44.57699, 1, 1, 1000, 1000
MAG, 106467130, -21, 311, 189, 0, 0, 0, 0, 0, 0, 1, 106467121
RFND, 106467160, 0.2, 25, 0, 0
BARO, 106467198, -0.3334349, 983.277, 43.67, 0.035251, 106467, 0, 35
CTUN, 106467238, 0, 0, 0, 0.3167473, 0.04564507, 0.04564507, -0.33, 0, 0.19, 0, 0, 0
ATT, 106469608, 0, -0.77, 0, 1.2, 158.88, 158.87, 0, 1
RATE, 106469618, 3.494123, -0.04982973, 0.00851392, -5.401636, 0.02041205, -0.01275591, -0.03660052, -0.125554, 0.0004014788, 375.3092, -0.3873825, 0
NKF1, 106469625, -0.77, 1.2, 158.87, 0.04617057, -0.02930579, 0.009266892, 0, 0, 0, -0.04562664, -0.02, 0, 0.16
NKF2, 106469625, 22, 0, 0, 0, 0, 0, 0, 0, 0, 0, 0, 0, 0
NKF3, 106469625, 0, 0, 0, 0.07, -0.03, 0.01, 0, 0, 0, 0, 0
NKF4, 106469625, 0, 0, 0, 0, 0, 2.179944E-06, 0, 0, 0, 19, 229, 0, 0
NKF5, 106469625, 0, 0, 0, 0, 0.18, 0.13, 0, 0.19, 0.5, 3.434616E-05, 0.001052973, 0.002573302
NKQ1, 106469625, -0.1831615, 0.01625756, 0.002850414, -0.9829443
AHR2, 106469669, -0.84, 1.41, 171.18, -0.33, 0, 0, 0.07672798, -0.01291785, -0.006417303, 0.9969477
MOTB, 106469676, 1, 1, 0, 1
RCIN, 106469680, 0, 0, 0, 0, 0, 0, 0, 0, 0, 0, 0, 0, 0, 0
RCOU, 106469685, 1148, 1148, 1148, 1148, 0, 0, 0, 0, 0, 0, 0, 0, 0, 0
VIBE, 106469694, 0.02220717, 0.01966463, 0.0353999, 0, 0, 0
CTRL, 106469701, 0.008227983, 0.0001717029, 0.0127199, 0.0001202913, 0.0004168127
PRX, 106470361, 2, 0.78, 0, 1.29, 0, 3.6, 0, 1.14, 0, 0, 0, 0.78
IMU, 106487118, -0.0003741508, 0.000867995, 0.001424634, 0.2797417, 0.1275594, -9.57509, 0, 0, 44.57699, 1, 1, 1000, 1000
RFND, 106517186, 0.2, 25, 0, 0
IMU, 106527190, -0.000713152, 7.066377E-05, -0.0002848437, 0.2743713, 0.1253655, -9.586246, 0, 0, 44.57699, 1, 1, 1000, 1000
MAG, 106567206, -26, 313, 188, 0, 0, 0, 0, 0, 0, 1, 106567197
RFND, 106567236, 0.2, 25, 0, 0
BARO, 106567274, -0.2938748, 983.2723, 43.67, 0.1181073, 106567, 0, 35
CTUN, 106567286, 0, 0, 0, 0.3167473, 0.04629428, 0.04629428, -0.29, 0, 0.19, 0, 0, 0
IMU, 106567358, 0.001053305, -0.0003655288, 0.0002463634, 0.2860958, 0.1071386, -9.574142, 0, 0, 44.57699, 1, 1, 1000, 1000
ATT, 106569668, 0, -0.77, 0, 1.19, 158.87, 158.86, 0, 1
RATE, 106569678, 3.48471, 0.09020749, 0.007791286, -5.398175, -0.006711653, -0.01281409, -0.03643156, -0.167145, 0.0003940774, 344.4521, -0.2098083, 0
NKF1, 106569685, -0.77, 1.19, 158.86, 0.04796116, -0.03121298, 0.00850499, 0, 0, 0, -0.04626903, -0.02, 0, 0.16
NKF2, 106569685, 22, 0, 0, 0, 0, 0, 0, 0, 0, 0, 0, 0, 0
NKF3, 106569685, 0, 0, 0, 0.07, -0.03, 0.01, 0, 0, 0, 0, 0
NKF4, 106569685, 0, 0, 0, 0, 0, 2.462411E-06, 0, 0, 0, 19, 229, 0, 0
NKF5, 106569685, 0, 0, 0, 0, 0.18, 0.13, 0, 0.19, 0.5, 3.372398E-05, 0.0009048928, 0.002067938
NKQ1, 106569685, -0.1833017, 0.01624928, 0.00282973, -0.9829184
AHR2, 106569730, -0.84, 1.41, 171.18, -0.29, 0, 0, 0.07672604, -0.01291694, -0.006399888, 0.996948
MOTB, 106569737, 1, 1, 0, 1
RCIN, 106569742, 0, 0, 0, 0, 0, 0, 0, 0, 0, 0, 0, 0, 0, 0
RCOU, 106569748, 1172, 1172, 1172, 1172, 0, 0, 0, 0, 0, 0, 0, 0, 0, 0
VIBE, 106569828, 0.02303595, 0.02825075, 0.0369079, 0, 0, 0
CTRL, 106569835, 0.008219469, 0.0001621927, 0.01271754, 0.0001180171, 0.0004021514
PRX, 106569867, 2, 0.78, 0, 1.29, 0, 3.6, 0, 1.14, 0, 0, 0, 0.78
IMU, 106607177, -0.0001139105, -0.0007460408, -0.001900406, 0.2898012, 0.1138256, -9.563787, 0, 0, 44.57699, 1, 1, 1000, 1000
RFND, 106616980, 0.2, 25, 0, 0
IMU, 106647056, -0.004534387, 0.004455386, 0.03170956, 0.2001157, 0.1380024, -9.597292, 0, 0, 44.57699, 1, 1, 1000, 1000
MAG, 106667097, -22, 313, 187, 0, 0, 0, 0, 0, 0, 1, 106667088
RFND, 106667125, 0.2, 25, 0, 0
BARO, 106667161, -0.231709, 983.2654, 43.67, 0.2384201, 106667, 0, 35
CTUN, 106667174, 0, 0, 0, 0.3167473, 0.04669335, 0.04669335, -0.23, 0, 0.19, 0, 0, 0
ATT, 106669710, 0, -0.77, 0, 1.21, 158.83, 158.82, 0, 1
RATE, 106669719, 3.525206, 0.3306444, 0.006434855, -5.419963, 0.4411803, -0.01562565, -0.03670081, -2.607944, 0.0007440933, 378.4022, 4.33836, 0
NKF1, 106669727, -0.77, 1.21, 158.82, 0.05008713, -0.0327923, 0.009343265, 0, 0, 0, -0.04666701, -0.02, 0, 0.16
NKF2, 106669727, 22, 0, 0, 0, 0, 0, 0, 0, 0, 0, 0, 0, 0
NKF3, 106669727, 0, 0, 0, 0.07, -0.03, 0.01, 0, 0, 0, 0, 0
NKF4, 106669727, 0, 0, 0, 0, 0, 2.707728E-06, 0, 0, 0, 19, 229, 0, 0
NKF5, 106669727, 0, 0, 0, 0, 0.18, 0.13, 0, 0.19, 0.5, 3.392457E-05, 0.001012585, 0.002427713
NKQ1, 106669727, -0.1836348, 0.01635045, 0.002783532, -0.9828546
AHR2, 106669856, -0.84, 1.43, 171.16, -0.23, 0, 0, 0.07692154, -0.01302882, -0.006371716, 0.9969317
MOTB, 106669864, 1, 1, 0, 1
RCIN, 106669868, 0, 0, 0, 0, 0, 0, 0, 0, 0, 0, 0, 0, 0, 0
RCOU, 106669874, 1196, 1196, 1196, 1196, 0, 0, 0, 0, 0, 0, 0, 0, 0, 0
VIBE, 106669883, 0.2114868, 0.2518048, 0.2243607, 0, 0, 0
CTRL, 106669889, 0.008219465, 0.0003317771, 0.01276721, 0.0003462412, 0.0004268079
PRX, 106669921, 2, 0.78, 0, 1.3, 0, 3.6, 0, 1.15, 0, 0, 0, 0.78
IMU, 106687269, -0.001799277, 0.0001951944, 0.01260774, 0.3762343, 0.1912698, -9.556041, 0, 0, 44.57699, 1, 1, 1000, 1000
RFND, 106717195, 0.2, 25, 0, 0
IMU, 106727173, 0.003036322, -0.001111299, 0.005943527, 0.3027548, 0.1829617, -9.558784, 0, 0, 44.57699, 1, 1, 1000, 1000
MAG, 106767107, -20, 312, 183, 0, 0, 0, 0, 0, 0, 1, 106767098
RFND, 106767136, 0.2, 25, 0, 0
BARO, 106767173, -0.3108292, 983.274, 43.67, 0.3291112, 106767, 0, 35
CTUN, 106767186, 0, 0, 0, 0.3167473, 0.04728462, 0.04728462, -0.31, 0, 0.19, 0, 0, 0
DU32, 106767254, 7, 33611992
IMU, 106767344, 0.002259773, -0.0006316281, -0.001786259, 0.3420279, 0.1398518, -9.584551, 0, 0, 44.57699, 1, 1, 1000, 1000
ATT, 106769664, 0, -0.76, 0, 1.21, 158.85, 158.84, 0, 1
RATE, 106769675, 3.453628, 0.2693654, 0.006209248, -5.468376, -0.1268592, -0.01088454, -0.03660119, -0.2457974, -0.0001087729, 357.0706, 0.9949684, 0
NKF1, 106769683, -0.76, 1.21, 158.84, 0.04951433, -0.03506382, 0.008816558, 0, 0, 0, -0.04725715, -0.02, 0, 0.16
NKF2, 106769683, 22, 0, 0, 0, 0, 0, 0, 0, 0, 0, 0, 0, 0
NKF3, 106769683, 0, 0, 0, 0.08, -0.04, 0.01, 0, 0, 0, 0, 0
NKF4, 106769683, 0, 0, 0, 0, 0, 3.06698E-06, 0, 0, 0, 19, 229, 0, 0
NKF5, 106769683, 0, 0, 0, 0, 0.18, 0.13, 0, 0.19, 0.5, 3.327123E-05, 0.000819405, 0.001788647
NKQ1, 106769683, -0.1834661, 0.01637355, 0.002739023, -0.9828859
AHR2, 106769726, -0.83, 1.43, 171.2, -0.31, 0, 0, 0.07660797, -0.01306492, -0.00633669, 0.9969555
MOTB, 106769734, 1, 1, 0, 1
RCIN, 106769738, 0, 0, 0, 0, 0, 0, 0, 0, 0, 0, 0, 0, 0, 0
RCOU, 106769743, 1220, 1220, 1220, 1220, 0, 0, 0, 0, 0, 0, 0, 0, 0, 0
VIBE, 106769752, 0.5753269, 0.6013575, 0.336172, 0, 0, 0
CTRL, 106769835, 0.008184802, 0.0005414056, 0.01290483, 0.0006375142, 0.0005174563
PRX, 106769869, 2, 0.78, 0, 1.3, 0, 3.6, 0, 1.14, 0, 0, 0, 0.78
IMU, 106807223, -0.0003972765, 0.005297836, 0.01288332, 0.2980653, 0.1242705, -9.569628, 0, 0, 44.577, 1, 1, 1000, 1000
RFND, 106817222, 0.2, 25, 0, 0
IMU, 106847202, -0.0006930849, 0.0007727403, -0.003637926, 0.3300837, 0.1362107, -9.556612, 0, 0, 44.57699, 1, 1, 1000, 1000
MAG, 106867196, -29, 315, 180, 0, 0, 0, 0, 0, 0, 1, 106867187
RFND, 106867246, 0.2, 25, 0, 0
BARO, 106867286, -0.2147547, 983.2639, 43.67, 0.2862989, 106867, 0, 35
CTUN, 106867298, 0, 0, 0, 0.3167473, 0.04755922, 0.04755922, -0.21, 0, 0.19, 0, 0, -1
ATT, 106869709, 0, -0.75, 0, 1.21, 158.84, 158.83, 0, 1
RATE, 106869718, 3.392964, 0.112541, 0.006222358, -5.494704, 0.3152302, -0.01334154, -0.03620981, 0.4584419, -0.0005822353, 363.4873, -1.905918, 0
NKF1, 106869725, -0.75, 1.21, 158.83, 0.05240417, -0.03567093, 0.008974996, 0, 0, 0, -0.04752119, -0.02, 0, 0.16
NKF2, 106869725, 22, 0, 0, 0, 0, 0, 0, 0, 0, 0, 0, 0, 0
NKF3, 106869725, 0, 0, 0, 0.09, -0.04, 0.01, 0, 0, 0, 0, 0
NKF4, 106869725, 0, 0, 0, 0, 0, 3.347849E-06, 0, 0, 0, 19, 229, 0, 0
NKF5, 106869725, 0, 0, 0, 0, 0.18, 0.13, 0, 0.19, 0.5, 3.272057E-05, 0.0007574349, 0.001373338
NKQ1, 106869725, -0.1835039, 0.01638967, 0.002645182, -0.9828788
AHR2, 106869853, -0.82, 1.44, 171.21, -0.21, 0, 0, 0.07650538, -0.01309265, -0.006233735, 0.9969637
MOTB, 106869860, 1, 1, 0, 1
RCIN, 106869864, 0, 0, 0, 0, 0, 0, 0, 0, 0, 0, 0, 0, 0, 0
RCOU, 106869870, 1221, 1253, 1233, 1244, 0, 0, 0, 0, 0, 0, 0, 0, 0, 0
VIBE, 106869879, 0.5009922, 0.5729671, 0.554383, 0, 0, 0
CTRL, 106869886, 0.008086001, 0.000688607, 0.01293795, 0.0009840006, 0.0004733172
PRX, 106869917, 2, 0.79, 0, 1.29, 0, 3.6, 0, 1.14, 0, 0, 0, 0.79
IMU, 106887135, 0.005134946, -0.004519737, -0.01006419, 0.3499712, 0.1602084, -9.543183, 0, 0, 44.57699, 1, 1, 1000, 1000
RFND, 106916961, 0.2, 25, 0, 0
IMU, 106927028, 0.0004723687, 0.003197283, -0.0227687, 0.2972936, 0.1349723, -9.53302, 0, 0, 44.57699, 1, 1, 1000, 1000
MAG, 106966987, -27, 311, 186, 0, 0, 0, 0, 0, 0, 1, 106966978
RFND, 106967015, 0.2, 25, 0, 0
BARO, 106967052, -0.141286, 983.2555, 43.67, 0.1943891, 106967, 0, 35
CTUN, 106967065, 0, 0, 0, 0.3167473, 0.04805853, 0.04805853, -0.14, 0, 0.19, 0, 0, 0
IMU, 106967129, 0.0008397117, 0.004603701, -0.033154, 0.3940073, 0.1331567, -9.586477, 0, 0, 44.57699, 1, 1, 1000, 1000
ATT, 106969470, 0, -0.75, 0, 1.22, 158.82, 158.81, 0, 1
RATE, 106969479, 3.450769, -0.006581769, 0.009126863, -5.495, 0.1456345, -0.01228324, -0.03650956, -2.034128, 0.0004814205, 392.9919, -0.274086, 0
NKF1, 106969486, -0.75, 1.22, 158.81, 0.05348143, -0.03711064, 0.009703503, 0, 0, 0, -0.04803893, -0.02, 0, 0.16
NKF2, 106969486, 22, 0, 0, 0, 0, 0, 0, 0, 0, 0, 0, 0, 0
NKF3, 106969486, 0, 0, 0, 0.09, -0.04, 0.01, 0, 0, 0, 0, 0
NKF4, 106969486, 0, 0, 0, 0, 0, 3.777051E-06, 0, 0, 0, 19, 229, 0, 0
NKF5, 106969486, 0, 0, 0, 0, 0.18, 0.13, 0, 0.19, 0.5, 3.295589E-05, 0.0007578355, 0.001611876
NKQ1, 106969486, -0.1837147, 0.01645545, 0.002638536, -0.9828383
AHR2, 106969529, -0.82, 1.44, 171.2, -0.14, 0, 0, 0.07657419, -0.01314691, -0.006183967, 0.996958
MOTB, 106969536, 1, 1, 0, 1
RCIN, 106969541, 0, 0, 0, 0, 0, 0, 0, 0, 0, 0, 0, 0, 0, 0
RCOU, 106969547, 1221, 1256, 1236, 1241, 0, 0, 0, 0, 0, 0, 0, 0, 0, 0
VIBE, 106969555, 0.397453, 0.4757836, 0.4760153, 0, 0, 0
CTRL, 106969561, 0.008018554, 0.000814827, 0.01303091, 0.001524269, 0.0004678384
PRX, 106969592, 2, 0.78, 0, 1.29, 0, 3.6, 0, 1.14, 0, 0, 0, 0.78
IMU, 107007140, -0.0005573658, 0.004596481, -0.006477566, 0.2664714, 0.1373322, -9.544735, 0, 0, 44.57699, 1, 1, 1000, 1000
RFND, 107017314, 0.2, 25, 0, 0
IMU, 107047256, -0.00362062, -0.004345887, 0.02758899, 0.1485205, 0.1347531, -9.583326, 0, 0, 44.57692, 1, 1, 1000, 1000
MAG, 107067373, -20, 314, 185, 0, 0, 0, 0, 0, 0, 1, 107067364
RFND, 107067402, 0.2, 25, 0, 0
BARO, 107067440, -0.141286, 983.2558, 43.66, 0.2772737, 107067, 0, 35
CTUN, 107067453, 0, 0, 0, 0.3167473, 0.0481675, 0.0481675, -0.14, 0, 0.19, 0, 0, -1
ATT, 107069738, 0, -0.74, 0, 1.23, 158.78, 158.78, 0, 1
RATE, 107069747, 3.412984, 0.327982, 0.007354829, -5.521562, 0.5509435, -0.01589457, -0.03618743, -2.553561, 0.0006630876, 498.4196, -1.520538, 0
NKF1, 107069755, -0.74, 1.23, 158.78, 0.05585793, -0.03679036, 0.01230666, 0, 0, 0, -0.04815528, -0.02, 0, 0.16
NKF2, 107069755, 22, 0, 0, 0, 0, 0, 0, 0, 0, 0, 0, 0, 0
NKF3, 107069755, 0, 0, 0, 0.1, -0.05, 0.01, 0, 0, 0, 0, 0
NKF4, 107069755, 0, 0, 0, 0, 0, 4.145282E-06, 0, 0, 0, 19, 229, 0, 0
NKF5, 107069755, 0, 0, 0, 0, 0.18, 0.13, 0, 0.19, 0.5, 3.242139E-05, 0.0006303251, 0.0008678514
NKQ1, 107069755, -0.1840061, 0.01650199, 0.002528267, -0.9827834
AHR2, 107069904, -0.8, 1.45, 171.18, -0.14, 0, 0, 0.07672856, -0.01319351, -0.006048083, 0.9969464
MOTB, 107069912, 1, 1, 0, 1
RCIN, 107069917, 0, 0, 0, 0, 0, 0, 0, 0, 0, 0, 0, 0, 0, 0
RCOU, 107069923, 1221, 1259, 1232, 1246, 0, 0, 0, 0, 0, 0, 0, 0, 0, 0
VIBE, 107069931, 0.3540283, 0.4324694, 0.3946971, 0, 0, 0
CTRL, 107069938, 0.007938241, 0.0009303043, 0.01304776, 0.001461858, 0.0005001928
PRX, 107069969, 2, 0.78, 0, 1.3, 0, 3.6, 0, 1.14, 0, 0, 0, 0.78
IMU, 107087228, -0.001118664, -0.002995822, -0.002800919, 0.2370768, 0.1873784, -9.459002, 0, 0, 44.57581, 1, 1, 1000, 1000
RFND, 107117154, 0.2, 25, 0, 0
IMU, 107127175, 0.001077396, -0.003026606, -0.008582953, 0.3017683, 0.0886439, -9.593269, 0, 0, 44.57281, 1, 1, 1000, 1000
MAG, 107167163, -24, 318, 189, 0, 0, 0, 0, 0, 0, 1, 107167154
RFND, 107167193, 0.2, 25, 0, 0
BARO, 107167231, -0.1978004, 983.2617, 43.63, 0.4079633, 107167, 0, 35
CTUN, 107167244, 0, 0, 0, 0.3167473, 0.04802911, 0.04802911, -0.19, 0, 0.19, 0, 0, -1
IMU, 107167314, 0.001235747, 0.004639949, -0.009892652, 0.4298956, 0.1202884, -9.568418, 0, 0, 44.56464, 1, 1, 1000, 1000
ATT, 107169549, 0, -0.75, 0, 1.23, 158.76, 158.76, 0, 1
RATE, 107169559, 3.392133, 0.04074444, 0.008357925, -5.561928, 0.3069328, -0.01607914, -0.03644091, -0.7555013, 0.0008822316, 608.5352, -0.7289886, 0
NKF1, 107169567, -0.75, 1.23, 158.76, 0.05624607, -0.04009541, 0.01502556, 0, 0, 0, -0.04801388, -0.02, 0, 0.16
NKF2, 107169567, 22, 0, 0, 0, 0, 0, 0, 0, 0, 0, 0, 0, 0
NKF3, 107169567, 0, 0, 0, 0.1, -0.05, 0.01, 0, 0, 0, 0, 0
NKF4, 107169567, 0, 0, 0, 0, 0, 4.601245E-06, 0, 0, 0, 19, 229, 0, 0
NKF5, 107169567, 0, 0, 0, 0, 0.18, 0.13, 0, 0.19, 0.5, 3.250602E-05, 0.0007365884, 0.001545563
NKQ1, 107169567, -0.184167, 0.01654124, 0.00255348, -0.9827524
AHR2, 107169611, -0.81, 1.45, 171.18, -0.19, 0, 0, 0.07674871, -0.01321919, -0.006084553, 0.9969443
MOTB, 107169618, 1, 1, 0, 1
RCIN, 107169623, 0, 0, 0, 0, 0, 0, 0, 0, 0, 0, 0, 0, 0, 0
RCOU, 107169629, 1221, 1261, 1234, 1246, 0, 0, 0, 0, 0, 0, 0, 0, 0, 0
VIBE, 107169637, 0.4075219, 0.4914922, 0.5242223, 0, 0, 0
CTRL, 107169643, 0.007946629, 0.0009837553, 0.01307759, 0.001371574, 0.0007275004
PRX, 107169676, 2, 0.78, 0, 1.3, 0, 3.6, 0, 1.14, 0, 0, 0, 0.78
IMU, 107207180, -0.001028648, 0.003694141, -0.01078341, 0.4191537, 0.09110574, -9.559675, 0, 0, 44.55181, 1, 1, 1000, 1000
RFND, 107217157, 0.2, 25, 0, 0
IMU, 107247034, -0.00444375, 0.002163986, 0.01272892, 0.1367579, 0.2017098, -9.505337, 0, 0, 44.53267, 1, 1, 1000, 1000
MAG, 107267143, -23, 314, 196, 0, 0, 0, 0, 0, 0, 1, 107267134
RFND, 107267172, 0.2, 25, 0, 0
BARO, 107267255, -0.1525889, 983.257, 43.6, 0.2808059, 107267, 0, 35
CTUN, 107267269, 0, 0, 0, 0.3167473, 0.0476854, 0.0476854, -0.15, 0, 0.19, 0, 0, -1
ATT, 107269731, 0, -0.75, 0, 1.23, 158.76, 158.75, 0, 1
RATE, 107269741, 3.409219, 0.1410631, 0.008082264, -5.5636, 0.4299888, -0.01771091, -0.03670201, -0.7992698, 0.0003256173, 698.2353, -4.202652, 0
NKF1, 107269749, -0.75, 1.23, 158.75, 0.05562632, -0.03991971, 0.01724038, 0, 0, 0, -0.0476506, -0.02, 0, 0.16
NKF2, 107269749, 22, 0, 0, 0, 0, 0, 0, 0, 0, 0, 0, 0, 0
NKF3, 107269749, 0, 0, 0, 0.11, -0.06, 0.01, 0, 0, 0, 0, 0
NKF4, 107269749, 0, 0, 0, 0, 0, 5.068596E-06, 0, 0, 0, 19, 229, 0, 0
NKF5, 107269749, 0, 0, 0, 0, 0.18, 0.13, 0, 0.19, 0.5, 3.211005E-05, 0.0005555319, 0.0005474004
NKQ1, 107269749, -0.1842389, 0.01655054, 0.002581815, -0.9827388
AHR2, 107269876, -0.81, 1.45, 171.19, -0.15, 0, 0, 0.07667699, -0.01322348, -0.00611963, 0.9969495
MOTB, 107269883, 1, 1, 0, 1
RCIN, 107269888, 0, 0, 0, 0, 0, 0, 0, 0, 0, 0, 0, 0, 0, 0
RCOU, 107269894, 1221, 1263, 1234, 1250, 0, 0, 0, 0, 0, 0, 0, 0, 0, 0
VIBE, 107269902, 0.4800574, 0.4684591, 0.6064962, 0, 0, 0
CTRL, 107269909, 0.007988882, 0.0009994368, 0.01304739, 0.001486621, 0.0006762184
PRX, 107269940, 2, 0.78, 0, 1.29, 0, 3.6, 0, 1.14, 0, 0, 0, 0.78
IMU, 107287432, -0.000947107, -0.006184791, 0.003536631, 0.09459466, 0.07962238, -9.591156, 0, 0, 44.51145, 1, 1, 1000, 1000
RFND, 107316988, 0.2, 25, 0, 0
IMU, 107327026, 0.001624953, -0.002276797, 0.0008181131, 0.3205175, 0.08313599, -9.531934, 0, 0, 44.4856, 1, 1, 1000, 1000
MAG, 107367083, -27, 313, 189, 0, 0, 0, 0, 0, 0, 1, 107367074
RFND, 107367114, 0.2, 25, 0, 0
BARO, 107367152, -0.231709, 983.2654, 43.56, 0.01412859, 107367, 0, 35
CTUN, 107367164, 0, 0, 0, 0.3167473, 0.04700875, 0.04700875, -0.23, 0, 0.19, 0, 0, -1
IMU, 107367264, 0.006194758, 0.002602918, -0.008888158, 0.5257844, 0.126119, -9.525954, 0, 0, 44.45984, 1, 1, 1000, 1000
ATT, 107369642, 0, -0.75, 0, 1.24, 158.74, 158.73, 0, 1
RATE, 107369652, 3.397117, 0.3456441, 0.005696067, -5.57313, 0.3819184, -0.01651398, -0.036633, -0.7502977, 0.0003135084, 904.4128, -4.810333, 0
NKF1, 107369660, -0.75, 1.24, 158.73, 0.0589665, -0.04159096, 0.02233118, 0, 0, 0, -0.04694749, -0.02, 0, 0.16
NKF2, 107369660, 22, 0, 0, 0, 0, 0, 0, 0, 0, 0, 0, 0, 0
NKF3, 107369660, 0, 0, 0, 0.11, -0.06, 0.01, 0, 0, 0, 0, 0
