FMT, 128, 89, FMT, BBnNZ, Type,Length,Name,Format,Columns
FMT, 129, 31, PARM, QNf, TimeUS,Name,Value
FMT, 130, 46, GPS, QBIHBcLLefffB, TimeUS,Status,GMS,GWk,NSats,HDop,Lat,Lng,Alt,Spd,GCrs,VZ,U
FMT, 131, 46, GPS2, QBIHBcLLefffB, TimeUS,Status,GMS,GWk,NSats,HDop,Lat,Lng,Alt,Spd,GCrs,VZ,U
FMT, 132, 46, GPSB, QBIHBcLLefffB, TimeUS,Status,GMS,GWk,NSats,HDop,Lat,Lng,Alt,Spd,GCrs,VZ,U
FMT, 193, 24, GPA, QCCCCBI, TimeUS,VDop,HAcc,VAcc,SAcc,VV,SMS
FMT, 194, 24, GPA2, QCCCCBI, TimeUS,VDop,HAcc,VAcc,SAcc,VV,SMS
FMT, 195, 24, GPAB, QCCCCBI, TimeUS,VDop,HAcc,VAcc,SAcc,VV,SMS
FMT, 133, 53, IMU, QffffffIIfBBHH, TimeUS,GyrX,GyrY,GyrZ,AccX,AccY,AccZ,EG,EA,T,GH,AH,GHz,AHz
FMT, 134, 75, MSG, QZ, TimeUS,Message
FMT, 135, 39, RCIN, QHHHHHHHHHHHHHH, TimeUS,C1,C2,C3,C4,C5,C6,C7,C8,C9,C10,C11,C12,C13,C14
FMT, 136, 39, RCOU, QHHHHHHHHHHHHHH, TimeUS,C1,C2,C3,C4,C5,C6,C7,C8,C9,C10,C11,C12,C13,C14
FMT, 137, 15, RSSI, Qf, TimeUS,RXRSSI
FMT, 139, 37, BARO, QffcfIff, TimeUS,Alt,Press,Temp,CRt,SMS,Offset,GndTemp
FMT, 140, 22, POWR, QffHB, TimeUS,Vcc,VServo,Flags,Safety
FMT, 143, 45, CMD, QHHHfffffff, TimeUS,CTot,CNum,CId,Prm1,Prm2,Prm3,Prm4,Lat,Lng,Alt
FMT, 144, 20, RAD, QBBBBBHH, TimeUS,RSSI,RemRSSI,TxBuf,Noise,RemNoise,RxErrors,Fixed
FMT, 146, 43, CAM, QIHLLeeeccC, TimeUS,GPSTime,GPSWeek,Lat,Lng,Alt,RelAlt,GPSAlt,Roll,Pitch,Yaw
FMT, 232, 43, TRIG, QIHLLeeeccC, TimeUS,GPSTime,GPSWeek,Lat,Lng,Alt,RelAlt,GPSAlt,Roll,Pitch,Yaw
FMT, 162, 30, ARSP, QffcffB, TimeUS,Airspeed,DiffPress,Temp,RawPress,Offset,U
FMT, 164, 45, CURR, QfffcHHHHHHHHHH, TimeUS,Volt,Curr,CurrTot,Temp,V1,V2,V3,V4,V5,V6,V7,V8,V9,V10
FMT, 165, 45, CUR2, QfffcHHHHHHHHHH, TimeUS,Volt,Curr,CurrTot,Temp,V1,V2,V3,V4,V5,V6,V7,V8,V9,V10
FMT, 163, 27, ATT, QccccCCCC, TimeUS,DesRoll,Roll,DesPitch,Pitch,DesYaw,Yaw,ErrRP,ErrYaw
FMT, 166, 34, MAG, QhhhhhhhhhBI, TimeUS,MagX,MagY,MagZ,OfsX,OfsY,OfsZ,MOfsX,MOfsY,MOfsZ,Health,S
FMT, 169, 14, MODE, QMBB, TimeUS,Mode,ModeNum,Rsn
FMT, 196, 17, RFND, QCBCB, TimeUS,Dist1,Orient1,Dist2,Orient2
FMT, 223, 33, DMS, IIIIIBBBBBBBBBB, TimeMS,N,Dp,RT,RS,Er,Fa,Fmn,Fmx,Pa,Pmn,Pmx,Sa,Smn,Smx
FMT, 240, 41, BCN, QBBfffffff, TimeUS,Health,Cnt,D0,D1,D2,D3,PosX,PosY,PosZ
FMT, 138, 53, IMU2, QffffffIIfBBHH, TimeUS,GyrX,GyrY,GyrZ,AccX,AccY,AccZ,EG,EA,T,GH,AH,GHz,AHz
FMT, 147, 53, IMU3, QffffffIIfBBHH, TimeUS,GyrX,GyrY,GyrZ,AccX,AccY,AccZ,EG,EA,T,GH,AH,GHz,AHz
FMT, 141, 45, AHR2, QccCfLLffff, TimeUS,Roll,Pitch,Yaw,Alt,Lat,Lng,Q1,Q2,Q3,Q4
FMT, 180, 31, POS, QLLfff, TimeUS,Lat,Lng,Alt,RelHomeAlt,RelOriginAlt
FMT, 142, 45, SIM, QccCfLLffff, TimeUS,Roll,Pitch,Yaw,Alt,Lat,Lng,Q1,Q2,Q3,Q4
FMT, 198, 51, NKF1, QccCfffffffccc, TimeUS,Roll,Pitch,Yaw,VN,VE,VD,dPD,PN,PE,PD,GX,GY,GZ
FMT, 199, 35, NKF2, QbccccchhhhhhB, TimeUS,AZbias,GSX,GSY,GSZ,VWN,VWE,MN,ME,MD,MX,MY,MZ,MI
FMT, 200, 33, NKF3, Qcccccchhhcc, TimeUS,IVN,IVE,IVD,IPN,IPE,IPD,IMX,IMY,IMZ,IYAW,IVT
FMT, 201, 35, NKF4, QcccccfbbHBHHb, TimeUS,SV,SP,SH,SM,SVT,errRP,OFN,OFE,FS,TS,SS,GPS,PI
FMT, 202, 40, NKF5, QBhhhcccCCfff, TimeUS,NI,FIX,FIY,AFI,HAGL,offset,RI,rng,Herr,eAng,eVel,ePos
FMT, 203, 51, NKF6, QccCfffffffccc, TimeUS,Roll,Pitch,Yaw,VN,VE,VD,dPD,PN,PE,PD,GX,GY,GZ
FMT, 204, 35, NKF7, QbccccchhhhhhB, TimeUS,AZbias,GSX,GSY,GSZ,VWN,VWE,MN,ME,MD,MX,MY,MZ,MI
FMT, 205, 33, NKF8, Qcccccchhhcc, TimeUS,IVN,IVE,IVD,IPN,IPE,IPD,IMX,IMY,IMZ,IYAW,IVT
FMT, 206, 35, NKF9, QcccccfbbHBHHb, TimeUS,SV,SP,SH,SM,SVT,errRP,OFN,OFE,FS,TS,SS,GPS,PI
FMT, 207, 36, NKF0, QBccCCcccccccc, TimeUS,ID,rng,innov,SIV,TR,BPN,BPE,BPD,OFH,OFL,OFN,OFE,OFD
FMT, 208, 27, NKQ1, Qffff, TimeUS,Q1,Q2,Q3,Q4
FMT, 209, 27, NKQ2, Qffff, TimeUS,Q1,Q2,Q3,Q4
FMT, 210, 51, XKF1, QccCfffffffccc, TimeUS,Roll,Pitch,Yaw,VN,VE,VD,dPD,PN,PE,PD,GX,GY,GZ
FMT, 211, 34, XKF2, QccccchhhhhhB, TimeUS,AX,AY,AZ,VWN,VWE,MN,ME,MD,MX,MY,MZ,MI
FMT, 212, 33, XKF3, Qcccccchhhcc, TimeUS,IVN,IVE,IVD,IPN,IPE,IPD,IMX,IMY,IMZ,IYAW,IVT
FMT, 213, 35, XKF4, QcccccfbbHBHHb, TimeUS,SV,SP,SH,SM,SVT,errRP,OFN,OFE,FS,TS,SS,GPS,PI
FMT, 214, 40, XKF5, QBhhhcccCCfff, TimeUS,NI,FIX,FIY,AFI,HAGL,offset,RI,rng,Herr,eAng,eVel,ePos
FMT, 215, 51, XKF6, QccCfffffffccc, TimeUS,Roll,Pitch,Yaw,VN,VE,VD,dPD,PN,PE,PD,GX,GY,GZ
FMT, 216, 34, XKF7, QccccchhhhhhB, TimeUS,AX,AY,AZ,VWN,VWE,MN,ME,MD,MX,MY,MZ,MI
FMT, 217, 33, XKF8, Qcccccchhhcc, TimeUS,IVN,IVE,IVD,IPN,IPE,IPD,IMX,IMY,IMZ,IYAW,IVT
FMT, 218, 35, XKF9, QcccccfbbHBHHb, TimeUS,SV,SP,SH,SM,SVT,errRP,OFN,OFE,FS,TS,SS,GPS,PI
FMT, 219, 36, XKF0, QBccCCcccccccc, TimeUS,ID,rng,innov,SIV,TR,BPN,BPE,BPD,OFH,OFL,OFN,OFE,OFD
FMT, 220, 27, XKQ1, Qffff, TimeUS,Q1,Q2,Q3,Q4
FMT, 221, 27, XKQ2, Qffff, TimeUS,Q1,Q2,Q3,Q4
FMT, 222, 35, XKFD, Qffffff, TimeUS,IX,IY,IZ,IVX,IVY,IVZ
FMT, 148, 34, TERR, QBLLHffHH, TimeUS,Status,Lat,Lng,Spacing,TerrH,CHeight,Pending,Loaded
FMT, 149, 18, UBX1, QBHBBH, TimeUS,Instance,noisePerMS,jamInd,aPower,agcCnt
FMT, 150, 16, UBX2, QBbBbB, TimeUS,Instance,ofsI,magI,ofsQ,magQ
FMT, 151, 18, UBY1, QBHBBH, TimeUS,Instance,noisePerMS,jamInd,aPower,agcCnt
FMT, 152, 16, UBY2, QBbBbB, TimeUS,Instance,ofsI,magI,ofsQ,magQ
FMT, 170, 42, GRAW, QIHBBddfBbB, TimeUS,WkMS,Week,numSV,sv,cpMes,prMes,doMes,mesQI,cno,lli
FMT, 171, 24, GRXH, QdHbBB, TimeUS,rcvTime,week,leapS,numMeas,recStat
FMT, 172, 41, GRXS, QddfBBBHBBBBB, TimeUS,prMes,cpMes,doMes,gnss,sv,freq,lock,cno,prD,cpD,doD,trk
FMT, 173, 63, SBFE, QIHBBdddfffff, TimeUS,TOW,WN,Mode,Err,Lat,Lng,Height,Undul,Vn,Ve,Vu,COG
FMT, 153, 19, ESC1, Qcccc, TimeUS,RPM,Volt,Curr,Temp
FMT, 154, 19, ESC2, Qcccc, TimeUS,RPM,Volt,Curr,Temp
FMT, 155, 19, ESC3, Qcccc, TimeUS,RPM,Volt,Curr,Temp
FMT, 156, 19, ESC4, Qcccc, TimeUS,RPM,Volt,Curr,Temp
FMT, 157, 19, ESC5, Qcccc, TimeUS,RPM,Volt,Curr,Temp
FMT, 158, 19, ESC6, Qcccc, TimeUS,RPM,Volt,Curr,Temp
FMT, 159, 19, ESC7, Qcccc, TimeUS,RPM,Volt,Curr,Temp
FMT, 160, 19, ESC8, Qcccc, TimeUS,RPM,Volt,Curr,Temp
FMT, 167, 34, MAG2, QhhhhhhhhhBI, TimeUS,MagX,MagY,MagZ,OfsX,OfsY,OfsZ,MOfsX,MOfsY,MOfsZ,Health,S
FMT, 168, 34, MAG3, QhhhhhhhhhBI, TimeUS,MagX,MagY,MagZ,OfsX,OfsY,OfsZ,MOfsX,MOfsY,MOfsZ,Health,S
FMT, 174, 31, ACC1, QQfff, TimeUS,SampleUS,AccX,AccY,AccZ
FMT, 175, 31, ACC2, QQfff, TimeUS,SampleUS,AccX,AccY,AccZ
FMT, 176, 31, ACC3, QQfff, TimeUS,SampleUS,AccX,AccY,AccZ
FMT, 177, 31, GYR1, QQfff, TimeUS,SampleUS,GyrX,GyrY,GyrZ
FMT, 178, 31, GYR2, QQfff, TimeUS,SampleUS,GyrX,GyrY,GyrZ
FMT, 179, 31, GYR3, QQfff, TimeUS,SampleUS,GyrX,GyrY,GyrZ
FMT, 181, 35, PIDR, Qffffff, TimeUS,Des,P,I,D,FF,AFF
FMT, 182, 35, PIDP, Qffffff, TimeUS,Des,P,I,D,FF,AFF
FMT, 183, 35, PIDY, Qffffff, TimeUS,Des,P,I,D,FF,AFF
FMT, 184, 35, PIDA, Qffffff, TimeUS,Des,P,I,D,FF,AFF
FMT, 185, 35, PIDS, Qffffff, TimeUS,Des,P,I,D,FF,AFF
FMT, 186, 35, PIDL, Qffffff, TimeUS,Des,P,I,D,FF,AFF
FMT, 161, 37, BAR2, QffcfIff, TimeUS,Alt,Press,Temp,CRt,SMS,Offset,GndTemp
FMT, 197, 37, BAR3, QffcfIff, TimeUS,Alt,Press,Temp,CRt,SMS,Offset,GndTemp
FMT, 187, 35, VIBE, QfffIII, TimeUS,VibeX,VibeY,VibeZ,Clip0,Clip1,Clip2
FMT, 188, 47, IMT, Qfffffffff, TimeUS,DelT,DelvT,DelaT,DelAX,DelAY,DelAZ,DelVX,DelVY,DelVZ
FMT, 189, 47, IMT2, Qfffffffff, TimeUS,DelT,DelvT,DelaT,DelAX,DelAY,DelAZ,DelVX,DelVY,DelVZ
FMT, 190, 47, IMT3, Qfffffffff, TimeUS,DelT,DelvT,DelaT,DelAX,DelAY,DelAZ,DelVX,DelVY,DelVZ
FMT, 191, 24, ORGN, QBLLe, TimeUS,Type,Lat,Lng,Alt
FMT, 192, 19, RPM, Qff, TimeUS,rpm1,rpm2
FMT, 233, 47, GMB1, Iffffffffff, TimeMS,dt,dax,day,daz,dvx,dvy,dvz,jx,jy,jz
FMT, 234, 44, GMB2, IBfffffffff, TimeMS,es,ex,ey,ez,rx,ry,rz,tx,ty,tz
FMT, 235, 13, GMB3, Ihhh, TimeMS,rl_torque_cmd,el_torque_cmd,az_torque_cmd
FMT, 236, 59, RATE, Qffffffffffff, TimeUS,RDes,R,ROut,PDes,P,POut,YDes,Y,YOut,ADes,A,AOut
FMT, 237, 23, RALY, QBBLLh, TimeUS,Tot,Seq,Lat,Lng,Alt
FMT, 238, 43, VISO, Qffffffff, TimeUS,dt,AngDX,AngDY,AngDZ,PosDX,PosDY,PosDZ,conf
FMT, 224, 23, SBPH, QIII, TimeUS,CrcError,LastInject,IARhyp
FMT, 229, 80, SBR1, QHHBZ, TimeUS,msg_type,sender_id,msg_len,d1
FMT, 230, 205, SBR2, QHZZZ, TimeUS,msg_type,d2,d3,d4
FMT, 25, 41, ATUN, QBBfffffff, TimeUS,Axis,TuneStep,Targ,Min,Max,RP,RD,SP,ddt
FMT, 26, 19, ATDE, Qff, TimeUS,Angle,Rate
FMT, 31, 22, PTUN, QBfHHH, TimeUS,Param,TunVal,CtrlIn,TunLo,TunHi
FMT, 12, 28, OF, QBffff, TimeUS,Qual,flowX,flowY,bodyX,bodyY
FMT, 5, 51, NTUN, Qffffffffff, TimeUS,DPosX,DPosY,PosX,PosY,DVelX,DVelY,VelX,VelY,DAccX,DAccY
FMT, 4, 51, CTUN, Qffffffeccfhh, TimeUS,ThI,ABst,ThO,ThH,DAlt,Alt,BAlt,DSAlt,SAlt,TAlt,DCRt,CRt
FMT, 6, 32, PM, QHHIhBHII, TimeUS,NLon,NLoop,MaxT,PMT,I2CErr,INSErr,LogDrop,Mem
FMT, 30, 27, MOTB, Qffff, TimeUS,LiftMax,BatVolt,BatRes,ThLimit
FMT, 13, 12, EV, QB, TimeUS,Id
FMT, 20, 14, D16, QBh, TimeUS,Id,Value
FMT, 21, 14, DU16, QBH, TimeUS,Id,Value
FMT, 22, 16, D32, QBi, TimeUS,Id,Value
FMT, 23, 16, DU32, QBI, TimeUS,Id,Value
FMT, 24, 16, DFLT, QBf, TimeUS,Id,Value
FMT, 19, 13, ERR, QBB, TimeUS,Subsys,ECode
FMT, 32, 19, HELI, Qff, TimeUS,DRRPM,ERRPM
FMT, 33, 29, PL, QBBffff, TimeUS,Heal,TAcq,pX,pY,vX,vY
FMT, 34, 36, GUID, QBffffff, TimeUS,Type,pX,pY,pZ,vX,vY,vZ
FMT, 35, 32, THRO, QBffffbbbb, TimeUS,Stage,Vel,VelZ,Acc,AccEfZ,Throw,AttOk,HgtOk,PosOk
FMT, 36, 56, PRX, QBfffffffffff, TimeUS,Health,D0,D45,D90,D135,D180,D225,D270,D315,DUp,CAn,CDis
MODE, 68002273, 100, 100, 1
DU32, 68008077, 7, 50389208
FMT, 254, 47, NKT1, QIffffffff, TimeUS,Cnt,IMUMin,IMUMax,EKFMin,EKFMax,AngMin,AngMax,VelMin,VelM
FMT, 253, 31, CTRL, Qfffff, TimeUS,RMSRollP,RMSRollD,RMSPitchP,RMSPitchD,RMSYaw
MSG, 68123448, APM:Copter V3.5.7 (791a96c7)
MSG, 68123453, New mission
MSG, 68123464, Frame: QUAD
MODE, 68123468, 100, 100, 1
IMU, 68128431, 0.001355574, 0.001160195, -0.004874721, 0.1310291, 0.01331846, -9.808526, 0, 0, 38.59871, 1, 1, 1000, 1000
RFND, 68158272, 0.2, 25, 0, 0
IMU, 68168498, 0.0001431886, 0.0006300556, -0.004427704, 0.1286448, 0.01931969, -9.847906, 0, 0, 38.59964, 1, 1, 1000, 1000
MAG, 68208303, 118, 153, 534, 0, 0, 0, 0, 0, 0, 1, 68208294
RFND, 68208333, 0.2, 25, 0, 0
BARO, 68208370, -0.3956007, 983.3234, 37.37, 0.1516275, 68208, 0, 35
CTUN, 68208383, 0, 0, 0, 0.311533, 0.04596839, 0.04596839, -0.39, 0, 0.19, 0, 0, -1
ATT, 68208463, 0, 0.21, 0, 0.49, 351.45, 351.46, 0, 1
RATE, 68208468, -0.9443409, -0.05046462, -0.001800775, -2.229219, 0.04509533, -0.005575219, 0.005401139, -0.23815, 0.0009072823, 614.7747, 0.04529953, 0
NKF1, 68208476, 0.21, 0.49, 351.45, -0.00610789, -0.01908206, 0.01517962, 0, 0, 0, -0.04596839, 0.05, 0.07, 0
NKF2, 68208476, -1, 0, 0, 0, 0, 0, 0, 0, 0, 0, 0, 0, 0
NKF3, 68208476, 0, 0, 0, 0, -0.01, 0.01, 0, 0, 0, 0, 0
NKF4, 68208476, 0, 0, 0, 0, 0, 3.505512E-05, 0, 0, 0, 19, 229, 0, 0
NKF5, 68208476, 0, 0, 0, 0, 0.18, 0.13, 0, 0.19, 0.5, 5.375558E-05, 0.0007671093, 0.001710556
NKQ1, 68208476, 0.9971871, -0.001655176, 0.008216818, -0.07448289
AHR2, 68208521, 0.26, 0.52, 351.72, -0.39, 0, 0, 0.9973779, 0.002624902, 0.004443688, -0.07218597
MOTB, 68208528, 1, 1, 0, 1
RCIN, 68208532, 0, 0, 0, 0, 0, 0, 0, 0, 0, 0, 0, 0, 0, 0
RCOU, 68208538, 1101, 1101, 1101, 1101, 0, 0, 0, 0, 0, 0, 0, 0, 0, 0
VIBE, 68208547, 0.03875214, 0.02545987, 0.0403944, 0, 0, 0
CTRL, 68208553, 0.002228531, 0.0001586925, 0.00525882, 0.0002009536, 0.0008914145
PRX, 68208583, 1, 0, 0, 0, 0, 0, 0, 0, 0, 0, 0, 0
IMU, 68208590, 1.985112E-05, 0.002041271, -0.004011531, 0.1806054, 0.04080329, -9.820258, 0, 0, 38.60176, 1, 1, 1000, 1000
IMU, 68248372, 0.0009385254, 0.0009519807, -0.004006875, 0.177872, 0.03345253, -9.789124, 0, 0, 38.60424, 1, 1, 1000, 1000
RFND, 68258287, 0.2, 25, 0, 0
IMU, 68288946, 0.001137941, 0.00288422, -0.004106136, 0.1622132, 0.03017264, -9.810849, 0, 0, 38.60608, 1, 1, 1000, 1000
MAG, 68308307, 121, 153, 536, 0, 0, 0, 0, 0, 0, 1, 68308298
RFND, 68308337, 0.2, 25, 0, 0
BARO, 68308374, -0.4182065, 983.3256, 37.37, 0.3556527, 68308, 0, 35
CTUN, 68308387, 0, 0, 0, 0.311533, 0.04559888, 0.04559888, -0.41, 0, 0.19, 0, 0, -1
ATT, 68308463, 0, 0.21, 0, 0.49, 351.42, 351.43, 0, 1
RATE, 68308469, -0.9556419, 0.0513351, -0.002372292, -2.240389, -0.06554992, -0.004768824, 0.007183776, -0.2071071, 0.0008259437, 628.7162, 0.5187035, 0
NKF1, 68308476, 0.21, 0.49, 351.42, -0.005010368, -0.01980647, 0.01552386, 0, 0, 0, -0.04559888, 0.05, 0.07, 0
NKF2, 68308476, -1, 0, 0, 0, 0, 0, 0, 0, 0, 0, 0, 0, 0
NKF3, 68308476, 0, 0, 0, 0, -0.01, 0.01, 0, 0, 0, 0, 0
NKF4, 68308476, 0, 0, 0, 0, 0, 2.293369E-05, 0, 0, 0, 19, 229, 0, 0
NKF5, 68308476, 0, 0, 0, 0, 0.18, 0.13, 0, 0.19, 0.5, 3.056815E-05, 0.001007834, 0.001815474
NKQ1, 68308476, 0.997171, -0.001631591, 0.008235111, -0.07469739
AHR2, 68308521, 0.26, 0.53, 351.69, -0.41, 0, 0, 0.9973626, 0.002643547, 0.004464508, -0.07239475
MOTB, 68308527, 1, 1, 0, 1
RCIN, 68308532, 0, 0, 0, 0, 0, 0, 0, 0, 0, 0, 0, 0, 0, 0
RCOU, 68308537, 1101, 1101, 1101, 1101, 0, 0, 0, 0, 0, 0, 0, 0, 0, 0
VIBE, 68308546, 0.03059658, 0.02105918, 0.03778823, 0, 0, 0
CTRL, 68308552, 0.002245581, 0.0001556864, 0.005295172, 0.0002283995, 0.0008793988
PRX, 68308583, 1, 0, 0, 0, 0, 0, 0, 0, 0, 0, 0, 0
IMU, 68328363, -0.0003360869, 0.001630201, -0.003588537, 0.1530478, 0.0402029, -9.799669, 0, 0, 38.60762, 1, 1, 1000, 1000
RFND, 68358248, 0.2, 25, 0, 0
IMU, 68368355, 0.0005968149, 0.001186352, -0.0042857, 0.16601, 0.03059799, -9.84095, 0, 0, 38.60877, 1, 1, 1000, 1000
MAG, 68408317, 120, 155, 536, 0, 0, 0, 0, 0, 0, 1, 68408309
RFND, 68408352, 0.2, 25, 0, 0
BARO, 68408388, -0.3842978, 983.3223, 37.37, 0.3271818, 68408, 0, 35
CTUN, 68408401, 0, 0, 0, 0.311533, 0.04546535, 0.04546535, -0.38, 0, 0.19, 0, 0, -1
ATT, 68408477, 0, 0.21, 0, 0.49, 351.4, 351.41, 0, 1
RATE, 68408482, -0.9547595, 0.08244239, -0.002431127, -2.233675, -0.0958942, -0.004705413, 0.006346189, -0.2939397, 0.0008585507, 623.3781, -0.8777618, 0
NKF1, 68408490, 0.21, 0.49, 351.4, -0.004873251, -0.02080066, 0.01539205, 0, 0, 0, -0.04546535, 0.05, 0.07, 0
NKF2, 68408490, -1, 0, 0, 0, 0, 0, 0, 0, 0, 0, 0, 0, 0
NKF3, 68408490, 0, 0, 0, 0, -0.01, 0.01, 0, 0, 0, 0, 0
NKF4, 68408490, 0, 0, 0, 0, 0, 1.533714E-05, 0, 0, 0, 19, 229, 0, 0
NKF5, 68408490, 0, 0, 0, 0, 0.18, 0.13, 0, 0.19, 0.5, 1.338268E-05, 0.001371205, 0.0026973
NKQ1, 68408490, 0.9971539, -0.001630223, 0.008223408, -0.07492416
AHR2, 68408535, 0.26, 0.53, 351.67, -0.38, 0, 0, 0.9973466, 0.002639927, 0.004458164, -0.07261557
MOTB, 68408542, 1, 1, 0, 1
RCIN, 68408546, 0, 0, 0, 0, 0, 0, 0, 0, 0, 0, 0, 0, 0, 0
RCOU, 68408552, 1101, 1101, 1101, 1101, 0, 0, 0, 0, 0, 0, 0, 0, 0, 0
VIBE, 68408560, 0.02455742, 0.01985416, 0.03767392, 0, 0, 0
CTRL, 68408567, 0.002245602, 0.0001745519, 0.005285861, 0.0002076405, 0.0008519351
PRX, 68408598, 1, 0, 0, 0, 0, 0, 0, 0, 0, 0, 0, 0
IMU, 68408605, 0.0023446, -0.0004123741, -0.004984428, 0.1624653, 0.0272173, -9.81145, 0, 0, 38.60974, 1, 1, 1000, 1000
IMU, 68448922, 0.0008340566, 0.00157408, -0.004429495, 0.1487928, 0.04011856, -9.817089, 0, 0, 38.61038, 1, 1, 1000, 1000
RFND, 68458859, 0.2, 25, 0, 0
IMU, 68489001, -0.001218644, 0.001107611, -0.004001597, 0.1526338, 0.01890756, -9.799704, 0, 0, 38.6109, 1, 1, 1000, 1000
MAG, 68508919, 118, 157, 534, 0, 0, 0, 0, 0, 0, 1, 68508910
RFND, 68508948, 0.2, 25, 0, 0
BARO, 68508981, -0.3447378, 983.3176, 37.37, 0.159815, 68508, 0, 35
CTUN, 68508993, 0, 0, 0, 0.311533, 0.04493508, 0.04493508, -0.34, 0, 0.19, 0, 0, -1
ATT, 68509067, 0, 0.21, 0, 0.49, 351.37, 351.38, 0, 1
RATE, 68509073, -0.9452756, 0.005780831, -0.002526773, -2.22526, 0.004813936, -0.005377752, 0.006499914, -0.2457389, 0.0008285428, 651.5002, -2.513123, 0
NKF1, 68509081, 0.21, 0.49, 351.37, -0.005317659, -0.02214344, 0.01608643, 0, 0, 0, -0.04493508, 0.05, 0.07, 0
NKF2, 68509081, -1, 0, 0, 0, 0, 0, 0, 0, 0, 0, 0, 0, 0
NKF3, 68509081, 0, 0, 0, 0, -0.01, 0.01, 0, 0, 0, 0, 0
NKF4, 68509081, 0, 0, 0, 0, 0, 1.028029E-05, 0, 0, 0, 19, 229, 0, 0
NKF5, 68509081, 0, 0, 0, 0, 0.18, 0.13, 0, 0.19, 0.5, 1.453789E-05, 0.001514524, 0.002901162
NKQ1, 68509081, 0.9971374, -0.001648755, 0.008209304, -0.07514635
AHR2, 68509126, 0.26, 0.52, 351.64, -0.34, 0, 0, 0.9973309, 0.002626128, 0.00444469, -0.07283148
MOTB, 68509132, 1, 1, 0, 1
RCIN, 68509137, 0, 0, 0, 0, 0, 0, 0, 0, 0, 0, 0, 0, 0, 0
RCOU, 68509143, 1101, 1101, 1101, 1101, 0, 0, 0, 0, 0, 0, 0, 0, 0, 0
VIBE, 68509152, 0.02423911, 0.01928729, 0.03425997, 0, 0, 0
CTRL, 68509158, 0.002231455, 0.0001836117, 0.005254624, 0.0002502218, 0.0008529666
PRX, 68509189, 1, 0, 0, 0, 0, 0, 0, 0, 0, 0, 0, 0
IMU, 68529565, -7.077843E-05, 0.001726943, -0.005004627, 0.1593802, 0.03814686, -9.809781, 0, 0, 38.61128, 1, 1, 1000, 1000
RFND, 68558823, 0.2, 25, 0, 0
IMU, 68568948, 0.0002651659, 3.910461E-05, -0.005801901, 0.1763668, 0.02016521, -9.807533, 0, 0, 38.61106, 1, 1, 1000, 1000
MAG, 68608962, 119, 157, 537, 0, 0, 0, 0, 0, 0, 1, 68608954
RFND, 68608993, 0.2, 25, 0, 0
BARO, 68609026, -0.3899493, 983.3228, 37.37, 0.1148984, 68609, 0, 35
CTUN, 68609038, 0, 0, 0, 0.311533, 0.04482994, 0.04482994, -0.38, 0, 0.19, 0, 0, -1
ATT, 68609108, 0, 0.2, 0, 0.49, 351.34, 351.35, 0, 1
RATE, 68609114, -0.9302673, 0.01259889, -0.002231887, -2.226235, 0.02052747, -0.00545877, 0.008240471, -0.2564976, 0.0008928355, 665.0165, 0.5868912, 0
NKF1, 68609122, 0.2, 0.49, 351.34, -0.005550809, -0.02371716, 0.01642016, 0, 0, 0, -0.04482994, 0.05, 0.07, 0
NKF2, 68609122, -1, 0, 0, 0, 0, 0, 0, 0, 0, 0, 0, 0, 0
NKF3, 68609122, 0, 0, 0, 0, -0.02, 0.01, 0, 0, 0, 0, 0
NKF4, 68609122, 0, 0, 0, 0, 0, 6.967028E-06, 0, 0, 0, 19, 229, 0, 0
NKF5, 68609122, 0, 0, 0, 0, 0.18, 0.13, 0, 0.19, 0.5, 2.473432E-05, 0.001674875, 0.003352814
NKQ1, 68609122, 0.9971187, -0.001675234, 0.008214097, -0.07539393
AHR2, 68609167, 0.26, 0.53, 351.62, -0.38, 0, 0, 0.9973133, 0.002607109, 0.004448409, -0.07307277
MOTB, 68609173, 1, 1, 0, 1
RCIN, 68609178, 0, 0, 0, 0, 0, 0, 0, 0, 0, 0, 0, 0, 0, 0
RCOU, 68609184, 1101, 1101, 1101, 1101, 0, 0, 0, 0, 0, 0, 0, 0, 0, 0
VIBE, 68609193, 0.02553312, 0.01963144, 0.04019462, 0, 0, 0
CTRL, 68609200, 0.002203802, 0.0001905503, 0.005251449, 0.0002289742, 0.0008590189
PRX, 68609232, 1, 0, 0, 0, 0, 0, 0, 0, 0, 0, 0, 0
IMU, 68609239, 0.00112207, 0.001614658, -0.004331506, 0.1407326, 0.01860221, -9.826418, 0, 0, 38.61134, 1, 1, 1000, 1000
IMU, 68648930, 0.0003092891, 0.00242673, -0.004183667, 0.1652673, 0.02928553, -9.834227, 0, 0, 38.61271, 1, 1, 1000, 1000
RFND, 68658886, 0.2, 25, 0, 0
IMU, 68688908, 0.00121344, 0.0001269109, -0.003799346, 0.1871271, 0.03835955, -9.790216, 0, 0, 38.61427, 1, 1, 1000, 1000
MAG, 68708995, 118, 152, 537, 0, 0, 0, 0, 0, 0, 1, 68708987
RFND, 68709025, 0.2, 25, 0, 0
BARO, 68709058, -0.3616921, 983.3194, 37.37, 0.132438, 68709, 0, 35
CTUN, 68709071, 0, 0, 0, 0.311533, 0.04456609, 0.04456609, -0.36, 0, 0.19, 0, 0, -1
ATT, 68709143, 0, 0.2, 0, 0.49, 351.32, 351.33, 0, 1
RATE, 68709149, -0.9265746, 0.04516233, -0.002453219, -2.22064, -0.002200088, -0.005669802, 0.01226303, -0.2431174, 0.0007957311, 654.9057, -2.78101, 0
NKF1, 68709157, 0.2, 0.49, 351.32, -0.00461262, -0.02490512, 0.01617051, 0, 0, 0, -0.04456609, 0.05, 0.07, 0
NKF2, 68709157, -1, 0, 0, 0, 0, 0, 0, 0, 0, 0, 0, 0, 0
NKF3, 68709157, 0, 0, 0, 0, -0.02, 0.01, 0, 0, 0, 0, 0
NKF4, 68709157, 0, 0, 0, 0, 0, 4.713198E-06, 0, 0, 0, 19, 229, 0, 0
NKF5, 68709157, 0, 0, 0, 0, 0.18, 0.13, 0, 0.19, 0.5, 3.274258E-05, 0.001844245, 0.003906894
NKQ1, 68709157, 0.9971024, -0.001681825, 0.008203959, -0.07560884
AHR2, 68709202, 0.26, 0.52, 351.59, -0.36, 0, 0, 0.9972981, 0.002612268, 0.004427657, -0.07328127
MOTB, 68709208, 1, 1, 0, 1
RCIN, 68709213, 0, 0, 0, 0, 0, 0, 0, 0, 0, 0, 0, 0, 0, 0
RCOU, 68709219, 1101, 1101, 1101, 1101, 0, 0, 0, 0, 0, 0, 0, 0, 0, 0
VIBE, 68709228, 0.02825473, 0.02253008, 0.04060233, 0, 0, 0
CTRL, 68709235, 0.002191924, 0.0001721652, 0.005234776, 0.0002164762, 0.0008513592
PRX, 68709267, 1, 0, 0, 0, 0, 0, 0, 0, 0, 0, 0, 0
IMU, 68728979, 0.001505161, 0.001537256, -0.007492871, 0.1704512, 0.03002699, -9.819008, 0, 0, 38.61522, 1, 1, 1000, 1000
RFND, 68758901, 0.2, 25, 0, 0
IMU, 68768991, 0.002469867, 0.002056431, -0.006439444, 0.1474559, 0.02500064, -9.826189, 0, 0, 38.61463, 1, 1, 1000, 1000
MAG, 68808861, 115, 151, 536, 0, 0, 0, 0, 0, 0, 1, 68808853
RFND, 68808912, 0.2, 25, 0, 0
BARO, 68808945, -0.2656176, 983.3093, 37.37, 0.1023001, 68808, 0, 35
CTUN, 68808958, 0, 0, 0, 0.311533, 0.04433904, 0.04433904, -0.26, 0, 0.19, 0, 0, -1
ATT, 68809030, 0, 0.22, 0, 0.5, 351.31, 351.32, 0, 1
RATE, 68809036, -1.003909, 0.2548783, -0.002824219, -2.286098, 0.7203295, -0.009765144, 0.01744555, 0.1633304, 0.0002661617, 701.5019, -6.161785, 0
NKF1, 68809044, 0.22, 0.5, 351.31, -0.01019528, -0.02434806, 0.01732103, 0, 0, 0, -0.04433904, 0.05, 0.07, 0
NKF2, 68809044, -1, 0, 0, 0, 0, 0, 0, 0, 0, 0, 0, 0, 0
NKF3, 68809044, 0, 0, 0, 0, -0.02, 0.01, 0, 0, 0, 0, 0
NKF4, 68809044, 0, 0, 0, 0, 0, 3.256547E-06, 0, 0, 0, 19, 229, 0, 0
NKF5, 68809044, 0, 0, 0, 0, 0.18, 0.13, 0, 0.19, 0.5, 3.839278E-05, 0.001763463, 0.003592385
NKQ1, 68809044, 0.9970918, -0.001528012, 0.008323164, -0.07573966
AHR2, 68809088, 0.27, 0.54, 351.58, -0.26, 0, 0, 0.9972879, 0.002779396, 0.004535004, -0.0734067
MOTB, 68809095, 1, 1, 0, 1
RCIN, 68809099, 0, 0, 0, 0, 0, 0, 0, 0, 0, 0, 0, 0, 0, 0
RCOU, 68809105, 1101, 1101, 1101, 1101, 0, 0, 0, 0, 0, 0, 0, 0, 0, 0
VIBE, 68809113, 0.0824696, 0.07682658, 0.0944401, 0, 0, 0
CTRL, 68809120, 0.002347416, 0.0003427264, 0.005287933, 0.0006089037, 0.0008403379
PRX, 68809151, 1, 0, 0, 0, 0, 0, 0, 0, 0, 0, 0, 0
IMU, 68809158, 0.005355193, 0.01383485, 0.002996608, -0.008806865, 0.06639601, -9.761221, 0, 0, 38.61346, 1, 1, 1000, 1000
IMU, 68849040, -0.001943639, 0.01728492, -0.0277032, 0.2922195, -0.2403991, -9.826489, 0, 0, 38.61291, 1, 1, 1000, 1000
RFND, 68858900, 0.2, 25, 0, 0
IMU, 68888949, -0.01003988, -0.01335019, -0.07080997, 0.01851875, 0.0608082, -9.924577, 0, 0, 38.61298, 1, 1, 1000, 1000
MAG, 68908898, 120, 154, 533, 0, 0, 0, 0, 0, 0, 1, 68908889
RFND, 68908927, 0.2, 25, 0, 0
BARO, 68908960, -0.3164806, 983.3144, 37.37, 0.1537803, 68908, 0, 35
CTUN, 68908973, 0, 0, 0, 0.311533, 0.04413998, 0.04413998, -0.31, 0, 0.19, 0, 0, -1
ATT, 68909045, 0, 0.19, 0, 0.54, 351.04, 351.04, 0, 1
RATE, 68909051, -0.8259976, -0.2190033, -0.00250496, -2.447253, 0.7821324, -0.01234996, 0.05361986, -3.339711, 0.007332395, 581.8818, 10.40392, 0
NKF1, 68909058, 0.19, 0.54, 351.03, -0.01501031, -0.03220622, 0.01436745, 0, 0, 0, -0.04413998, 0.05, 0.07, 0
NKF2, 68909058, -1, 0, 0, 0, 0, 0, 0, 0, 0, 0, 0, 0, 0
NKF3, 68909058, 0, 0, 0, -0.01, -0.02, 0.01, 0, 0, 0, 0, 0
NKF4, 68909058, 0, 0, 0, 0, 0, 2.31502E-06, 0, 0, 0, 19, 229, 0, 0
NKF5, 68909058, 0, 0, 0, 0, 0.18, 0.13, 0, 0.19, 0.5, 4.086669E-05, 0.001824602, 0.003881509
NKQ1, 68909058, 0.9969062, -0.001766255, 0.008636713, -0.07810567
AHR2, 68909103, 0.24, 0.57, 351.31, -0.31, 0, 0, 0.9971108, 0.002525544, 0.004806293, -0.07576684
MOTB, 68909110, 1, 1, 0, 1
RCIN, 68909114, 0, 0, 0, 0, 0, 0, 0, 0, 0, 0, 0, 0, 0, 0
RCOU, 68909120, 1101, 1101, 1101, 1101, 0, 0, 0, 0, 0, 0, 0, 0, 0, 0
VIBE, 68909129, 0.2314932, 0.1198811, 0.1388239, 0, 0, 0
CTRL, 68909136, 0.002209691, 0.000733635, 0.005766638, 0.001849501, 0.002517924
PRX, 68909168, 1, 0, 0, 0, 0, 0, 0, 0, 0, 0, 0, 0
IMU, 68928962, 0.002434944, 0.01209587, -0.09475707, -0.06349945, -0.2092023, -9.779909, 0, 0, 38.61364, 1, 1, 1000, 1000
RFND, 68958964, 0.2, 25, 0, 0
IMU, 68968915, 0.007794117, -0.01020604, -0.3359666, -0.4499258, -0.5917284, -9.848305, 0, 0, 38.61282, 1, 1, 1000, 1000
MAG, 69008811, 125, 153, 536, 0, 0, 0, 0, 0, 0, 1, 69008803
RFND, 69008841, 0.2, 25, 0, 0
BARO, 69008894, -0.4351608, 983.3278, 37.37, 0.2146713, 69008, 0, 35
CTUN, 69008908, 0, 0, 0, 0.311533, 0.04392902, 0.04392902, -0.43, 0, 0.19, 0, 0, -1
DU32, 69008940, 7, 50389208
ATT, 69009034, 0, 0.16, 0, 0.54, 349.14, 349.08, 0, 1
RATE, 69009039, -0.4538048, -0.1341489, -0.001218618, -2.546159, 1.259838, -0.01134954, 0.3239042, -32.80984, 0.05303072, 610.7585, 8.326817, 0
NKF1, 69009047, 0.16, 0.54, 349.07, -0.07191814, -0.06952564, 0.01508046, 0, 0, 0, -0.04392902, 0.05, 0.07, 0
NKF2, 69009047, -1, 0, 0, 0, 0, 0, 0, 0, 0, 0, 0, 0, 0
NKF3, 69009047, 0, 0, 0, -0.01, -0.02, 0.01, 0, 0, 0, 0, 0
NKF4, 69009047, 0, 0, 0, 0, 0, 1.701232E-06, 0, 0, 0, 19, 229, 0, 0
NKF5, 69009047, 0, 0, 0, 0, 0.18, 0.13, 0, 0.19, 0.5, 4.194753E-05, 0.001731093, 0.003570968
NKQ1, 69009047, 0.9954235, -0.001794369, 0.008707028, -0.095148
AHR2, 69009091, 0.22, 0.57, 349.35, -0.43, 0, 0, 0.9956698, 0.002415057, 0.004782197, -0.09280615
MOTB, 69009098, 1, 1, 0, 1
RCIN, 69009102, 0, 0, 0, 0, 0, 0, 0, 0, 0, 0, 0, 0, 0, 0
RCOU, 69009108, 1101, 1101, 1101, 1101, 0, 0, 0, 0, 0, 0, 0, 0, 0, 0
VIBE, 69009117, 0.2301438, 0.1907264, 0.2243149, 0, 0, 0
CTRL, 69009123, 0.002201978, 0.001055975, 0.005989031, 0.002272455, 0.01667995
PRX, 69009154, 1, 0, 0, 0, 0, 0, 0, 0, 0, 0, 0, 0
IMU, 69009161, -0.001434411, 0.02325135, -0.5724938, -0.4099683, -0.3876411, -9.9154, 0, 0, 38.61268, 1, 1, 1000, 1000
IMU, 69048815, 0.02956503, -0.01473841, -0.7313353, -0.3623216, -0.1742507, -10.07851, 0, 0, 38.61322, 1, 1, 1000, 1000
RFND, 69058777, 0.2, 25, 0, 0
IMU, 69088849, 0.02133886, -0.02127062, -0.8414604, 0.05746264, 0.3968945, -9.433566, 0, 0, 38.61395, 1, 1, 1000, 1000
MAG, 69108882, 145, 155, 546, 0, 0, 0, 0, 0, 0, 1, 69108873
RFND, 69108911, 0.2, 25, 0, 0
BARO, 69108943, -0.4521151, 983.3293, 37.37, -0.01921346, 69108, 0, 35
CTUN, 69108956, 0, 0, 0, 0.311533, 0.04381146, 0.04381146, -0.45, 0, 0.19, 0, 0, -1
ATT, 69109030, 0, 0.17, 0, 0.49, 344.69, 344.65, 0, 1
RATE, 69109036, -0.3399122, -1.078147, 0.008757656, -2.394294, -0.6033027, -0.008170748, 0.2243381, -49.78136, 0.1245555, 665.8138, 15.67211, 0
NKF1, 69109044, 0.17, 0.49, 344.64, -0.09315103, -0.05844848, 0.01643985, 0, 0, 0, -0.04381146, 0.05, 0.07, 0
NKF2, 69109044, -1, 0, 0, 0, 0, 0, 0, 0, 0, 0, 0, 0, 0
NKF3, 69109044, 0, 0, 0, -0.01, -0.03, 0.01, 0, 0, 0, 0, 0
NKF4, 69109044, 0, 0, 0, 0, 0, 1.32283E-06, 0, 0, 0, 19, 229, 0, 0
NKF5, 69109044, 0, 0, 0, 0, 0.18, 0.13, 0, 0.19, 0.5, 4.134801E-05, 0.001730303, 0.00369349
NKQ1, 69109044, 0.9910063, -0.001493321, 0.008378399, -0.133545
AHR2, 69109090, 0.25, 0.5, 344.92, -0.45, 0, 0, 0.991343, 0.002781034, 0.004070921, -0.1312051
MOTB, 69109096, 1, 1, 0, 1
RCIN, 69109100, 0, 0, 0, 0, 0, 0, 0, 0, 0, 0, 0, 0, 0, 0
RCOU, 69109106, 1101, 1101, 1101, 1101, 0, 0, 0, 0, 0, 0, 0, 0, 0, 0
VIBE, 69109115, 0.2733224, 0.3122379, 0.3766335, 0, 0, 0
CTRL, 69109121, 0.002840274, 0.002411841, 0.006050905, 0.004358193, 0.05729958
PRX, 69109153, 1, 0, 0, 0, 0, 0, 0, 0, 0, 0, 0, 0
IMU, 69128914, -0.001348613, 0.05713552, -0.8273396, 0.502695, 0.04392277, -9.933904, 0, 0, 38.61397, 1, 1, 1000, 1000
RFND, 69158698, 0.2, 25, 0, 0
IMU, 69168817, -0.002608106, -0.004829259, -0.6404546, 0.3294104, 0.3592867, -9.970571, 0, 0, 38.61408, 1, 1, 1000, 1000
MAG, 69208718, 159, 159, 553, 0, 0, 0, 0, 0, 0, 1, 69208710
RFND, 69208798, 0.2, 25, 0, 0
BARO, 69208829, -0.463418, 983.3303, 37.38, -0.4012206, 69208, 0, 35
CTUN, 69208841, 0, 0, 0, 0.311533, 0.04335655, 0.04335655, -0.46, 0, 0.19, 0, 0, -1
ATT, 69208925, 0, 0.15, 0, 0.54, 341.08, 341.05, 0, 1
RATE, 69208932, -0.4837309, 0.102962, 0.002447364, -2.517335, -0.7649026, 0.004821116, 0.1848749, -23.03727, 0.1130303, 710.2338, -7.223034, 0
NKF1, 69208939, 0.15, 0.54, 341.04, -0.0528616, -0.04939292, 0.01753664, 0, 0, 0, -0.04335655, 0.05, 0.07, 0
NKF2, 69208939, -1, 0, 0, 0, 0, 0, 0, 0, 0, 0, 0, 0, 0
NKF3, 69208939, 0, 0, 0, -0.01, -0.03, 0.01, 0, 0, 0, 0, 0
NKF4, 69208939, 0, 0, 0, 0, 0, 1.086824E-06, 0, 0, 0, 19, 229, 0, 0
NKF5, 69208939, 0, 0, 0, 0, 0.18, 0.13, 0, 0.19, 0.5, 4.06461E-05, 0.001637403, 0.00340952
NKQ1, 69208939, 0.9863213, -0.001297095, 0.008843582, -0.1645917
AHR2, 69208983, 0.27, 0.52, 341.32, -0.46, 0, 0, 0.9867351, 0.003124068, 0.004122966, -0.1622563
MOTB, 69208990, 1, 1, 0, 1
RCIN, 69208994, 0, 0, 0, 0, 0, 0, 0, 0, 0, 0, 0, 0, 0, 0
RCOU, 69209000, 1101, 1101, 1101, 1101, 0, 0, 0, 0, 0, 0, 0, 0, 0, 0
VIBE, 69209009, 0.2446804, 0.2631572, 0.3047251, 0, 0, 0
CTRL, 69209015, 0.002815296, 0.003011029, 0.007193136, 0.006413804, 0.08758074
PRX, 69209047, 1, 0, 0, 0, 0, 0, 0, 0, 0, 0, 0, 0
IMU, 69209054, 0.002705406, -0.012085, -0.4019301, 0.7160365, 0.4011332, -9.736525, 0, 0, 38.61402, 1, 1, 1000, 1000
IMU, 69248793, 0.008665731, 0.01810479, -0.1932108, 0.9480113, 0.5956025, -9.665018, 0, 0, 38.61406, 1, 1, 1000, 1000
RFND, 69258799, 0.2, 25, 0, 0
IMU, 69288834, 0.01016925, -5.158951E-05, 0.02516439, 0.1598284, 0.2835165, -9.838223, 0, 0, 38.6139, 1, 1, 1000, 1000
MAG, 69308906, 168, 153, 558, 0, 0, 0, 0, 0, 0, 1, 69308898
RFND, 69308937, 0.2, 25, 0, 0
BARO, 69308970, -0.4238579, 983.3265, 37.38, -0.4786387, 69308, 0, 35
CTUN, 69308982, 0, 0, 0, 0.311533, 0.04313591, 0.04313591, -0.42, 0, 0.19, 0, 0, -1
ATT, 69309051, 0, 0.14, 0, 0.52, 340.48, 340.49, 0.01, 1
RATE, 69309057, -0.6645469, 0.06435984, 0.000752512, -2.338228, -0.8915054, 0.0009273412, 0.002672776, 2.225049, 0.0352256, 710.8178, 1.034927, 0
NKF1, 69309064, 0.14, 0.52, 340.48, -0.004870179, -0.03310213, 0.01755106, 0, 0, 0, -0.04313591, 0.05, 0.07, 0
NKF2, 69309064, -1, 0, 0, 0, 0, 0, 0, 0, 0, 0, 0, 0, 0
NKF3, 69309064, 0, 0, 0, -0.01, -0.04, 0.01, 0, 0, 0, 0, 0
NKF4, 69309064, 0, 0, 0, 0, 0, 9.899986E-07, 0, 0, 0, 19, 229, 0, 0
NKF5, 69309064, 0, 0, 0, 0, 0.18, 0.13, 0, 0.19, 0.5, 3.90632E-05, 0.001595526, 0.003413657
NKQ1, 69309064, 0.985499, -0.001402226, 0.008656189, -0.1694546
AHR2, 69309110, 0.25, 0.5, 340.76, -0.42, 0, 0, 0.985925, 0.002907349, 0.004012477, -0.1671145
MOTB, 69309117, 1, 1, 0, 1
RCIN, 69309121, 0, 0, 0, 0, 0, 0, 0, 0, 0, 0, 0, 0, 0, 0
RCOU, 69309127, 1101, 1101, 1101, 1101, 0, 0, 0, 0, 0, 0, 0, 0, 0, 0
VIBE, 69309135, 0.3822055, 0.2680162, 0.2150826, 0, 0, 0
CTRL, 69309142, 0.002551139, 0.002955921, 0.006901326, 0.006315812, 0.08375623
PRX, 69309176, 1, 0, 0, 0, 0, 0, 0, 0, 0, 0, 0, 0
IMU, 69328967, -0.008482602, -0.01447667, -0.02625977, 0.2382291, 0.04849849, -9.938455, 0, 0, 38.61388, 1, 1, 1000, 1000
RFND, 69358848, 0.2, 25, 0, 0
IMU, 69368950, -0.007381913, -0.005399061, -0.003252315, 0.1308935, 0.01664561, -9.812428, 0, 0, 38.61406, 1, 1, 1000, 1000
MAG, 69408991, 169, 152, 555, 0, 0, 0, 0, 0, 0, 1, 69408983
RFND, 69409022, 0.2, 25, 0, 0
BARO, 69409053, -0.412555, 983.3253, 37.38, -0.2242151, 69409, 0, 35
CTUN, 69409065, 0, 0, 0, 0.311533, 0.04274166, 0.04274166, -0.41, 0, 0.19, 0, 0, -1
ATT, 69409140, 0, 0.14, 0, 0.52, 340.4, 340.41, 0.01, 1
RATE, 69409145, -0.6396372, 0.1404783, -0.0002646985, -2.356875, -0.1251871, -0.00175787, 0.009719047, -0.3390822, 0.00891057, 724.305, -6.969357, 0
NKF1, 69409153, 0.14, 0.52, 340.4, -0.003887078, -0.03482707, 0.01788407, 0, 0, 0, -0.04274166, 0.05, 0.07, 0
NKF2, 69409153, -1, 0, 0, 0, 0, 0, 0, 0, 0, 0, 0, 0, 0
NKF3, 69409153, 0, 0, 0, -0.02, -0.05, 0.01, 0, 0, 0, 0, 0
NKF4, 69409153, 0, 0, 0, 0, 0, 9.478915E-07, 0, 0, 0, 19, 229, 0, 0
NKF5, 69409153, 0, 0, 0, 0, 0.18, 0.13, 0, 0.19, 0.5, 3.732122E-05, 0.001666993, 0.003773024
NKQ1, 69409153, 0.9853821, -0.0013952, 0.008681316, -0.1701318
AHR2, 69409196, 0.22, 0.53, 340.68, -0.41, 0, 0, 0.9858103, 0.002713061, 0.004249387, -0.1677876
MOTB, 69409203, 1, 1, 0, 1
RCIN, 69409207, 0, 0, 0, 0, 0, 0, 0, 0, 0, 0, 0, 0, 0, 0
RCOU, 69409214, 1101, 1101, 1101, 1101, 0, 0, 0, 0, 0, 0, 0, 0, 0, 0
VIBE, 69409222, 0.2327437, 0.1606435, 0.1311204, 0, 0, 0
CTRL, 69409228, 0.002340178, 0.002755772, 0.006542426, 0.005427062, 0.06939313
PRX, 69409260, 1, 0, 0, 0, 0, 0, 0, 0, 0, 0, 0, 0
IMU, 69409266, 0.003361124, -0.0009184929, -0.005771723, 0.1706643, 0.04122965, -9.750303, 0, 0, 38.61329, 1, 1, 1000, 1000
IMU, 69448953, 0.01009736, 0.009604691, -0.006440942, 0.1743946, 0.05069853, -9.804945, 0, 0, 38.61206, 1, 1, 1000, 1000
RFND, 69458895, 0.2, 25, 0, 0
IMU, 69488966, 0.003933669, 0.004109288, -0.01439958, 0.1928325, 0.06413005, -9.84283, 0, 0, 38.61099, 1, 1, 1000, 1000
MAG, 69508905, 171, 148, 560, 0, 0, 0, 0, 0, 0, 1, 69508897
RFND, 69508934, 0.2, 25, 0, 0
BARO, 69508967, -0.463418, 983.3308, 37.38, 0.02642067, 69508, 0, 35
CTUN, 69508980, 0, 0, 0, 0.311533, 0.04267421, 0.04267421, -0.46, 0, 0.19, 0, 0, -1
ATT, 69509050, 0, 0.14, 0, 0.51, 340.35, 340.36, 0.01, 1
RATE, 69509056, -0.6506005, 0.1818392, -0.001189649, -2.309657, -0.3823789, -0.002340616, 0.01007982, -0.7350922, 0.003420477, 667.4525, -3.025246, 0
NKF1, 69509063, 0.14, 0.51, 340.35, -0.003275755, -0.0363532, 0.01648031, 0, 0, 0, -0.04267421, 0.05, 0.07, 0
NKF2, 69509063, -1, 0, 0, 0, 0, 0, 0, 0, 0, 0, 0, 0, 0
NKF3, 69509063, 0, 0, 0, -0.02, -0.05, 0.01, 0, 0, 0, 0, 0
NKF4, 69509063, 0, 0, 0, 0, 0, 1.065549E-06, 0, 0, 0, 19, 229, 0, 0
NKF5, 69509063, 0, 0, 0, 0, 0.18, 0.13, 0, 0.19, 0.5, 3.687737E-05, 0.001439006, 0.003051457
NKQ1, 69509063, 0.9853005, -0.001378874, 0.008586076, -0.1706087
AHR2, 69509109, 0.21, 0.53, 340.62, -0.46, 0, 0, 0.9857299, 0.002621395, 0.004320475, -0.168259
MOTB, 69509116, 1, 1, 0, 1
RCIN, 69509120, 0, 0, 0, 0, 0, 0, 0, 0, 0, 0, 0, 0, 0, 0
RCOU, 69509126, 1101, 1101, 1101, 1101, 0, 0, 0, 0, 0, 0, 0, 0, 0, 0
VIBE, 69509136, 0.1314679, 0.09288985, 0.08310282, 0, 0, 0
CTRL, 69509142, 0.002173983, 0.002497915, 0.006181494, 0.004606412, 0.05683648
PRX, 69509174, 1, 0, 0, 0, 0, 0, 0, 0, 0, 0, 0, 0
IMU, 69528961, -0.003456952, -0.005801389, -0.01045961, 0.1105151, 0.01423579, -9.808107, 0, 0, 38.60989, 1, 1, 1000, 1000
RFND, 69558720, 0.2, 25, 0, 0
IMU, 69568793, -0.003652259, -0.004469524, -0.004546536, 0.1888964, 0.02664383, -9.836376, 0, 0, 38.60912, 1, 1, 1000, 1000
MAG, 69608799, 170, 152, 555, 0, 0, 0, 0, 0, 0, 1, 69608791
RFND, 69608826, 0.2, 25, 0, 0
BARO, 69608857, -0.5312353, 983.338, 37.38, 0.03492612, 69608, 0, 35
CTUN, 69608888, 0, 0, 0, 0.311533, 0.04242088, 0.04242088, -0.53, 0, 0.19, 0, 0, -1
ATT, 69608953, 0, 0.14, 0, 0.49, 340.29, 340.3, 0.01, 1
RATE, 69608958, -0.627684, 0.06210556, -0.001361775, -2.223367, -0.4111782, -0.002684787, 0.01050218, -0.905455, 0.002236005, 688.8055, -1.142883, 0
NKF1, 69608966, 0.14, 0.49, 340.29, -0.003453932, -0.03794853, 0.01700754, 0, 0, 0, -0.04242088, 0.05, 0.07, 0
NKF2, 69608966, -1, 0, 0, 0, 0, 0, 0, 0, 0, 0, 0, 0, 0
NKF3, 69608966, 0, 0, 0, -0.03, -0.06, 0.01, 0, 0, 0, 0, 0
NKF4, 69608966, 0, 0, 0, 0, 0, 1.184131E-06, 0, 0, 0, 19, 229, 0, 0
NKF5, 69608966, 0, 0, 0, 0, 0.18, 0.13, 0, 0.19, 0.5, 3.52439E-05, 0.001479635, 0.003335196
NKQ1, 69608966, 0.9852153, -0.001445705, 0.00842646, -0.1711075
AHR2, 69609009, 0.19, 0.53, 340.57, -0.53, 0, 0, 0.9856461, 0.002472611, 0.004313518, -0.1687517
MOTB, 69609016, 1, 1, 0, 1
RCIN, 69609021, 0, 0, 0, 0, 0, 0, 0, 0, 0, 0, 0, 0, 0, 0
RCOU, 69609026, 1101, 1101, 1101, 1101, 0, 0, 0, 0, 0, 0, 0, 0, 0, 0
VIBE, 69609035, 0.07826281, 0.05929433, 0.05537861, 0, 0, 0
CTRL, 69609041, 0.001980091, 0.002146155, 0.005795151, 0.003825271, 0.04650987
PRX, 69609073, 1, 0, 0, 0, 0, 0, 0, 0, 0, 0, 0, 0
IMU, 69609079, 0.001993949, -0.005908969, -0.01565668, 0.1470573, 0.02672972, -9.809042, 0, 0, 38.6082, 1, 1, 1000, 1000
IMU, 69648834, 0.006565269, 0.006791769, -0.004222329, 0.1803821, 0.03780344, -9.78381, 0, 0, 38.60723, 1, 1, 1000, 1000
RFND, 69658710, 0.2, 25, 0, 0
IMU, 69688843, -0.0003226491, 0.003288044, -0.01924485, 0.2115158, -0.02340554, -9.855264, 0, 0, 38.60667, 1, 1, 1000, 1000
MAG, 69708792, 171, 151, 557, 0, 0, 0, 0, 0, 0, 1, 69708783
RFND, 69708820, 0.2, 25, 0, 0
BARO, 69708851, -0.5481896, 983.3397, 37.38, -0.1766075, 69708, 0, 35
CTUN, 69708864, 0, 0, 0, 0.311533, 0.04219007, 0.04219007, -0.54, 0, 0.19, 0, 0, -1
ATT, 69708949, 0, 0.14, 0, 0.5, 340.23, 340.24, 0.01, 1
RATE, 69708955, -0.6302524, -0.4638987, 0.0002161834, -2.275539, 0.3467863, -0.007205859, 0.002119255, -0.5462117, 0.002274534, 670.0508, 11.62872, 0
NKF1, 69708962, 0.14, 0.5, 340.23, -0.006985655, -0.03980858, 0.01654446, 0, 0, 0, -0.04219007, 0.05, 0.07, 0
NKF2, 69708962, -1, 0, 0, 0, 0, 0, 0, 0, 0, 0, 0, 0, 0
NKF3, 69708962, 0, 0, 0, -0.03, -0.06, 0.01, 0, 0, 0, 0, 0
NKF4, 69708962, 0, 0, 0, 0, 0, 1.357726E-06, 0, 0, 0, 19, 229, 0, 0
NKF5, 69708962, 0, 0, 0, 0, 0.18, 0.13, 0, 0.19, 0.5, 3.511823E-05, 0.001288237, 0.002708607
NKQ1, 69708962, 0.9851235, -0.00142329, 0.008530922, -0.1716304
AHR2, 69709007, 0.19, 0.55, 340.51, -0.54, 0, 0, 0.9855568, 0.002482156, 0.004448345, -0.1692689
MOTB, 69709013, 1, 1, 0, 1
RCIN, 69709018, 0, 0, 0, 0, 0, 0, 0, 0, 0, 0, 0, 0, 0, 0
RCOU, 69709024, 1101, 1101, 1101, 1101, 0, 0, 0, 0, 0, 0, 0, 0, 0, 0
VIBE, 69709032, 0.1948691, 0.08155177, 0.128441, 0, 0, 0
CTRL, 69709039, 0.001929202, 0.001935477, 0.005670269, 0.003178037, 0.03806069
PRX, 69709072, 1, 0, 0, 0, 0, 0, 0, 0, 0, 0, 0, 0
IMU, 69728717, 0.002098731, -0.005069578, -0.003223362, 0.0390851, 0.05746837, -9.851019, 0, 0, 38.60676, 1, 1, 1000, 1000
RFND, 69758693, 0.2, 25, 0, 0
IMU, 69768793, 0.002406276, -0.001721815, -0.01056142, 0.2792411, 0.05867318, -9.74442, 0, 0, 38.60613, 1, 1, 1000, 1000
MAG, 69808715, 171, 156, 556, 0, 0, 0, 0, 0, 0, 1, 69808707
RFND, 69808793, 0.2, 25, 0, 0
BARO, 69808824, -0.5368867, 983.3387, 37.39, -0.3647433, 69808, 0, 35
CTUN, 69808837, 0, 0, 0, 0.311533, 0.04210859, 0.04210859, -0.53, 0, 0.19, 0, 0, -1
ATT, 69808919, 0, 0.12, 0, 0.47, 340.19, 340.2, 0.01, 1
RATE, 69808926, -0.5822678, -0.3957244, 0.001252772, -2.130273, -0.1441093, -0.005713564, 0.00366345, -0.04847214, 0.001376757, 677.7812, -1.681328, 0
NKF1, 69808933, 0.12, 0.47, 340.19, -0.005815756, -0.0412556, 0.01673534, 0, 0, 0, -0.0421086, 0.05, 0.07, 0
NKF2, 69808933, -1, 0, 0, 0, 0, 0, 0, 0, 0, 0, 0, 0, 0
NKF3, 69808933, 0, 0, 0, -0.03, -0.06, 0.01, 0, 0, 0, 0, 0
NKF4, 69808933, 0, 0, 0, 0, 0, 1.535868E-06, 0, 0, 0, 19, 229, 0, 0
NKF5, 69808933, 0, 0, 0, 0, 0.18, 0.13, 0, 0.19, 0.5, 3.348364E-05, 0.001299912, 0.002902432
NKQ1, 69808933, 0.985073, -0.001568945, 0.008273486, -0.171931
AHR2, 69808976, 0.18, 0.51, 340.47, -0.53, 0, 0, 0.9855079, 0.002348769, 0.004180317, -0.1695618
MOTB, 69808983, 1, 1, 0, 1
RCIN, 69808987, 0, 0, 0, 0, 0, 0, 0, 0, 0, 0, 0, 0, 0, 0
RCOU, 69808993, 1101, 1101, 1101, 1101, 0, 0, 0, 0, 0, 0, 0, 0, 0, 0
VIBE, 69809002, 0.1425594, 0.07241795, 0.09579103, 0, 0, 0
CTRL, 69809008, 0.001802076, 0.001913302, 0.005321076, 0.0026776, 0.03114621
PRX, 69809041, 1, 0, 0, 0, 0, 0, 0, 0, 0, 0, 0, 0
IMU, 69809047, -0.005996248, -0.001247056, -0.0006994251, 0.1791223, 0.04990492, -9.803007, 0, 0, 38.60654, 1, 1, 1000, 1000
IMU, 69848831, -0.0007216376, -0.004968609, 0.002119297, 0.1216711, 0.004210212, -9.84641, 0, 0, 38.60748, 1, 1, 1000, 1000
RFND, 69858720, 0.2, 25, 0, 0
IMU, 69888970, 0.005551387, 0.001074021, -0.005497835, 0.1837098, 0.01621775, -9.787454, 0, 0, 38.60828, 1, 1, 1000, 1000
MAG, 69908945, 178, 158, 561, 0, 0, 0, 0, 0, 0, 1, 69908937
RFND, 69908976, 0.2, 25, 0, 0
BARO, 69909008, -0.4747209, 983.332, 37.39, -0.3041543, 69908, 0, 35
CTUN, 69909021, 0, 0, 0, 0.311533, 0.04195582, 0.04195582, -0.47, 0, 0.19, 0, 0, -1
ATT, 69909093, 0, 0.12, 0, 0.47, 340.17, 340.18, 0, 1
RATE, 69909099, -0.5629126, -0.2961208, 0.000742179, -2.12056, 0.5633315, -0.008558158, 0.009526376, -0.7527993, 0.0008231677, 674.372, -2.024269, 0
NKF1, 69909106, 0.12, 0.47, 340.17, -0.006250996, -0.04364704, 0.01665116, 0, 0, 0, -0.04195582, 0.05, 0.07, 0
NKF2, 69909106, -1, 0, 0, 0, 0, 0, 0, 0, 0, 0, 0, 0, 0
NKF3, 69909106, 0, 0, 0, -0.03, -0.06, 0.01, 0, 0, 0, 0, 0
NKF4, 69909106, 0, 0, 0, 0, 0, 1.712392E-06, 0, 0, 0, 19, 229, 0, 0
NKF5, 69909106, 0, 0, 0, 0, 0.18, 0.13, 0, 0.19, 0.5, 3.360073E-05, 0.001153564, 0.002381803
NKQ1, 69909106, 0.9850433, -0.00159718, 0.008256836, -0.1721021
AHR2, 69909153, 0.18, 0.51, 340.45, -0.47, 0, 0, 0.9854797, 0.002332771, 0.004153658, -0.1697264
MOTB, 69909160, 1, 1, 0, 1
RCIN, 69909165, 0, 0, 0, 0, 0, 0, 0, 0, 0, 0, 0, 0, 0, 0
RCOU, 69909171, 1101, 1101, 1101, 1101, 0, 0, 0, 0, 0, 0, 0, 0, 0, 0
VIBE, 69909180, 0.08471247, 0.05474323, 0.06595257, 0, 0, 0
CTRL, 69909186, 0.001695397, 0.001737374, 0.005139783, 0.002246184, 0.02547864
PRX, 69909218, 1, 0, 0, 0, 0, 0, 0, 0, 0, 0, 0, 0
IMU, 69929006, 0.005259053, 0.004323163, -0.01146576, 0.1910174, 0.1107702, -9.825656, 0, 0, 38.61012, 1, 1, 1000, 1000
RFND, 69958909, 0.2, 25, 0, 0
IMU, 69969037, -0.005331426, -0.001918576, -0.09983797, 0.2144013, 0.1174329, -9.746056, 0, 0, 38.61219, 1, 1, 1000, 1000
EV, 70003632, 57
MAG, 70009009, 175, 152, 558, 0, 0, 0, 0, 0, 0, 1, 70009001
RFND, 70009040, 0.2, 25, 0, 0
BARO, 70009073, -0.4973266, 983.3345, 37.39, -0.04945007, 70009, 0, 35
CTUN, 70009085, 0, 0, 0, 0.311533, 0.04199987, 0.04199987, -0.49, 0, 0.19, 0, 0, -1
DU32, 70009121, 7, 33611992
ATT, 70009219, 0, 0.12, 0, 0.45, 340.02, 340.03, 0, 1
RATE, 70009225, -0.5741005, -0.02170419, -0.000233768, -2.039393, -0.5657229, 0.001117527, 0.002203292, 2.334518, 0.00390366, 670.1003, 7.245159, 0
NKF1, 70009233, 0.12, 0.45, 340.02, -0.00830356, -0.04405838, 0.01654569, 0, 0, 0, -0.04199987, 0.05, 0.07, 0
NKF2, 70009233, -1, 0, 0, 0, 0, 0, 0, 0, 0, 0, 0, 0, 0
NKF3, 70009233, 0, 0, 0, -0.03, -0.07, 0.01, 0, 0, 0, 0, 0
NKF4, 70009233, 0, 0, 0, 0, 0, 1.932778E-06, 0, 0, 0, 19, 229, 0, 0
NKF5, 70009233, 0, 0, 0, 0, 0.18, 0.13, 0, 0.19, 0.5, 3.188321E-05, 0.00113424, 0.002478653
NKQ1, 70009233, 0.9848175, -0.001637429, 0.008120599, -0.1733952
AHR2, 70009279, 0.18, 0.49, 340.3, -0.49, 0, 0, 0.985258, 0.002299634, 0.00400405, -0.1710131
MOTB, 70009286, 1, 1, 0, 1
RCIN, 70009291, 0, 0, 0, 0, 0, 0, 0, 0, 0, 0, 0, 0, 0, 0
RCOU, 70009297, 1101, 1101, 1101, 1101, 0, 0, 0, 0, 0, 0, 0, 0, 0, 0
VIBE, 70009305, 0.1374216, 0.1162656, 0.1296527, 0, 0, 0
CTRL, 70009311, 0.001608255, 0.001568256, 0.005160102, 0.002572742, 0.02100814
PRX, 70009342, 1, 0, 0, 0, 0, 0, 0, 0, 0, 0, 0, 0
IMU, 70009348, 0.0005319136, -0.008605141, 0.04089166, -0.02640484, -0.009961294, -9.895815, 0, 0, 38.61435, 1, 1, 1000, 1000
IMU, 70049053, 0.006509218, 0.03400419, -0.005877061, 0.194569, 0.06493402, -9.787874, 0, 0, 38.61669, 1, 1, 1000, 1000
RFND, 70058906, 0.2, 25, 0, 0
IMU, 70088974, 0.00576595, 0.006712453, -0.0268155, 0.369901, -0.01920097, -9.84188, 0, 0, 38.61998, 1, 1, 1000, 1000
MAG, 70108928, 172, 156, 557, 0, 0, 0, 0, 0, 0, 1, 70108919
RFND, 70108959, 0.2, 25, 0, 0
BARO, 70108992, -0.4973266, 983.3342, 37.4, 0.1464785, 70108, 0, 35
CTUN, 70109005, 0, 0, 0, 0.311533, 0.04164188, 0.04164188, -0.49, 0, 0.19, 0, 0, -1
ATT, 70109075, 0, 0.12, 0, 0.47, 339.92, 339.93, 0, 1
RATE, 70109080, -0.5437871, -0.3242671, 0.001878589, -2.123711, -0.3374212, -0.00246757, 0.002295873, -1.708515, 0.00312696, 765.1525, -2.841473, 0
NKF1, 70109088, 0.12, 0.47, 339.92, 0.002227609, -0.05050284, 0.01889265, 0, 0, 0, -0.04164188, 0.05, 0.07, 0
NKF2, 70109088, -1, 0, 0, 0, 0, 0, 0, 0, 0, 0, 0, 0, 0
NKF3, 70109088, 0, 0, 0, -0.03, -0.07, 0.01, 0, 0, 0, 0, 0
NKF4, 70109088, 0, 0, 0, 0, 0, 2.120411E-06, 0, 0, 0, 19, 229, 0, 0
NKF5, 70109088, 0, 0, 0, 0, 0.18, 0.13, 0, 0.19, 0.5, 3.240956E-05, 0.001037462, 0.002087934
NKQ1, 70109088, 0.9846704, -0.001600551, 0.008266211, -0.1742223
AHR2, 70109134, 0.18, 0.51, 340.21, -0.49, 0, 0, 0.9851142, 0.002348814, 0.004149682, -0.1718348
MOTB, 70109141, 1, 1, 0, 1
RCIN, 70109145, 0, 0, 0, 0, 0, 0, 0, 0, 0, 0, 0, 0, 0, 0
RCOU, 70109152, 1125, 1125, 1125, 1125, 0, 0, 0, 0, 0, 0, 0, 0, 0, 0
VIBE, 70109160, 0.164917, 0.1338973, 0.127824, 0, 0, 0
CTRL, 70109166, 0.001603756, 0.001467992, 0.005366821, 0.003224559, 0.0172384
PRX, 70109199, 1, 0, 0, 0, 0, 0, 0, 0, 0, 0, 0, 0
IMU, 70129418, 0.005940755, -0.004239763, -0.04030549, 0.1386745, 0.08784669, -9.862952, 0, 0, 38.62278, 1, 1, 1000, 1000
RFND, 70158864, 0.2, 25, 0, 0
IMU, 70169047, 0.008647295, 0.0330935, -0.3067774, 0.9642882, 0.05444704, -9.782057, 0, 0, 38.62492, 1, 1, 1000, 1000
MAG, 70209007, 170, 155, 558, 0, 0, 0, 0, 0, 0, 1, 70208999
RFND, 70209037, 0.2, 25, 0, 0
BARO, 70209070, -0.5312353, 983.338, 37.4, 0.1250837, 70209, 0, 35
CTUN, 70209083, 0, 0, 0, 0.311533, 0.04172745, 0.04172745, -0.53, 0, 0.19, 0, 0, -1
ATT, 70209156, 0, 0.1, 0, 0.41, 338.83, 338.84, 0, 1
RATE, 70209162, -0.4090326, -2.393038, 0.01376254, -1.866712, -6.116501, 0.02420041, 0.001703525, -9.396647, 0.03133864, 760.151, -1.028252, 0
NKF1, 70209169, 0.1, 0.41, 338.83, 0.01452803, -0.05456892, 0.01876916, 0, 0, 0, -0.04172745, 0.05, 0.07, 0
NKF2, 70209169, -1, 0, 0, 0, 0, 0, 0, 0, 0, 0, 0, 0, 0
NKF3, 70209169, 0, 0, 0, -0.03, -0.08, 0.01, 0, 0, 0, 0, 0
NKF4, 70209169, 0, 0, 0, 0, 0, 2.397044E-06, 0, 0, 0, 19, 229, 0, 0
NKF5, 70209169, 0, 0, 0, 0, 0.18, 0.13, 0, 0.19, 0.5, 3.056146E-05, 0.000979539, 0.002066594
NKQ1, 70209169, 0.9829652, -0.001774134, 0.007792415, -0.1836184
AHR2, 70209213, 0.16, 0.45, 339.11, -0.53, 0, 0, 0.9834323, 0.00215003, 0.003656527, -0.1812262
MOTB, 70209220, 1, 1, 0, 1
RCIN, 70209225, 0, 0, 0, 0, 0, 0, 0, 0, 0, 0, 0, 0, 0, 0
RCOU, 70209231, 1149, 1149, 1149, 1149, 0, 0, 0, 0, 0, 0, 0, 0, 0, 0
VIBE, 70209239, 0.4752555, 0.2133133, 0.4551317, 0, 0, 0
CTRL, 70209246, 0.002048184, 0.002674657, 0.006366064, 0.006428286, 0.01790295
PRX, 70209277, 1, 0, 0, 0, 0, 0, 0, 0, 0, 0, 0, 0
IMU, 70209284, -0.0408555, -0.1054842, -0.1638558, -0.546793, 0.08589599, -9.819971, 0, 0, 38.62683, 1, 1, 1000, 1000
IMU, 70249026, -0.004636847, 0.01036941, -0.02675626, -0.4101657, -0.1237468, -9.964037, 0, 0, 38.62902, 1, 1, 1000, 1000
RFND, 70258862, 0.2, 25, 0, 0
IMU, 70288974, 0.02708618, 0.05495406, -0.002333706, 0.2108736, -0.01844609, -9.832201, 0, 0, 38.63089, 1, 1, 1000, 1000
MAG, 70308919, 177, 155, 553, 0, 0, 0, 0, 0, 0, 1, 70308910
RFND, 70308948, 0.2, 25, 0, 0
BARO, 70308982, -0.5199324, 983.3367, 37.4, -0.01944445, 70308, 0, 35
CTUN, 70308995, 0, 0, 0, 0.311533, 0.0413201, 0.0413201, -0.51, 0, 0.19, 0, 0, -1
ATT, 70309069, 0, 0.12, 0, 0.44, 338.71, 338.72, 0, 1
RATE, 70309074, -0.5407032, -0.996223, 0.006069989, -2.01324, -1.867465, 0.01489785, 0.002118713, -0.3009019, 0.009587132, 756.071, -7.262039, 0
NKF1, 70309082, 0.12, 0.44, 338.71, -0.007517302, -0.04977897, 0.01866842, 0, 0, 0, -0.04132009, 0.05, 0.07, 0
NKF2, 70309082, -1, 0, 0, 0, 0, 0, 0, 0, 0, 0, 0, 0, 0
NKF3, 70309082, 0, 0, 0, -0.03, -0.08, 0.01, 0, 0, 0, 0, 0
NKF4, 70309082, 0, 0, 0, 0, 0, 2.617089E-06, 0, 0, 0, 19, 229, 0, 0
NKF5, 70309082, 0, 0, 0, 0, 0.18, 0.13, 0, 0.19, 0.5, 2.852339E-05, 0.001145441, 0.002729744
NKQ1, 70309082, 0.9827706, -0.001580367, 0.008081486, -0.1846462
AHR2, 70309128, 0.18, 0.49, 338.99, -0.51, 0, 0, 0.9832416, 0.002351754, 0.003935338, -0.1822499
MOTB, 70309135, 1, 1, 0, 1
RCIN, 70309139, 0, 0, 0, 0, 0, 0, 0, 0, 0, 0, 0, 0, 0, 0
RCOU, 70309145, 1173, 1173, 1173, 1173, 0, 0, 0, 0, 0, 0, 0, 0, 0, 0
VIBE, 70309153, 0.45619, 0.214805, 0.3042618, 0, 0, 0
CTRL, 70309160, 0.002574765, 0.004477695, 0.006938336, 0.009022934, 0.01863232
PRX, 70309191, 1, 0, 0, 0, 0, 0, 0, 0, 0, 0, 0, 0
IMU, 70329046, 0.02286045, 0.02077135, -0.01374712, 0.3249858, 0.1299738, -9.858088, 0, 0, 38.63308, 1, 1, 1000, 1000
RFND, 70358867, 0.2, 25, 0, 0
IMU, 70368997, -0.009054872, -0.02527439, -0.01976724, 0.1450671, 0.1264981, -9.83734, 0, 0, 38.63652, 1, 1, 1000, 1000
MAG, 70409400, 172, 154, 552, 0, 0, 0, 0, 0, 0, 1, 70409392
RFND, 70409430, 0.2, 25, 0, 0
BARO, 70409495, -0.463418, 983.3307, 37.41, -0.08657585, 70409, 0, 35
CTUN, 70409510, 0, 0, 0, 0.311533, 0.04127413, 0.04127413, -0.46, 0, 0.19, 0, 0, -1
ATT, 70409584, 0, 0.12, 0, 0.48, 338.64, 338.65, 0, 1
RATE, 70409590, -0.5357496, -1.016854, 0.006675762, -2.190044, -0.6281332, 0.002423047, 0.002311748, -0.619747, 0.003719897, 764.5779, -4.436684, 0
NKF1, 70409597, 0.12, 0.48, 338.64, -0.007595616, -0.0526637, 0.01887847, 0, 0, 0, -0.04127413, 0.05, 0.07, 0
NKF2, 70409597, -1, 0, 0, 0, 0, 0, 0, 0, 0, 0, 0, 0, 0
NKF3, 70409597, 0, 0, 0, -0.03, -0.08, 0.01, 0, 0, 0, 0, 0
NKF4, 70409597, 0, 0, 0, 0, 0, 2.940867E-06, 0, 0, 0, 19, 229, 0, 0
NKF5, 70409597, 0, 0, 0, 0, 0.18, 0.13, 0, 0.19, 0.5, 2.941812E-05, 0.0008400995, 0.001671888
NKQ1, 70409597, 0.9826484, -0.0015149, 0.008420642, -0.1852807
AHR2, 70409645, 0.18, 0.53, 338.92, -0.46, 0, 0, 0.9831231, 0.002424787, 0.004258543, -0.1828798
MOTB, 70409651, 1, 1, 0, 1
RCIN, 70409656, 0, 0, 0, 0, 0, 0, 0, 0, 0, 0, 0, 0, 0, 0
RCOU, 70409662, 1197, 1197, 1197, 1197, 0, 0, 0, 0, 0, 0, 0, 0, 0, 0
VIBE, 70409670, 0.2709879, 0.1772843, 0.1891508, 0, 0, 0
CTRL, 70409677, 0.002604061, 0.004654143, 0.00681928, 0.008404003, 0.01561724
PRX, 70409709, 1, 0, 0, 0, 0, 0, 0, 0, 0, 0, 0, 0
IMU, 70409716, -0.01683652, -0.009693933, -0.01066995, 0.0903657, -0.05163933, -9.777443, 0, 0, 38.64039, 1, 1, 1000, 1000
IMU, 70448906, 0.002673214, 0.01727366, -0.01202502, 0.2269849, -0.02944137, -9.771948, 0, 0, 38.64358, 1, 1, 1000, 1000
RFND, 70458860, 0.2, 25, 0, 0
IMU, 70489336, 0.01367027, 0.01085149, -0.03578844, 0.28335, 0.1508983, -9.905893, 0, 0, 38.64706, 1, 1, 1000, 1000
MAG, 70508825, 171, 158, 548, 0, 0, 0, 0, 0, 0, 1, 70508816
RFND, 70508854, 0.2, 25, 0, 0
BARO, 70508904, -0.4521151, 983.329, 37.41, 0.01412862, 70508, 0, 35
CTUN, 70508917, 0, 0, 0, 0.311533, 0.04109152, 0.04109152, -0.45, 0, 0.19, 0, 0, -1
ATT, 70508986, 0, 0.12, 0, 0.49, 338.47, 338.48, 0, 1
RATE, 70508992, -0.5501489, -0.3290058, 0.002368086, -2.238575, -0.3223974, -0.001596373, 0.002503795, -2.532997, 0.004917157, 711.9943, -5.29356, 0
NKF1, 70508999, 0.12, 0.49, 338.47, -0.0005712662, -0.05549425, 0.0175801, 0, 0, 0, -0.04109152, 0.05, 0.07, 0
NKF2, 70508999, -1, 0, 0, 0, 0, 0, 0, 0, 0, 0, 0, 0, 0
NKF3, 70508999, 0, 0, 0, -0.03, -0.09, 0.01, 0, 0, 0, 0, 0
NKF4, 70508999, 0, 0, 0, 0, 0, 3.227821E-06, 0, 0, 0, 19, 229, 0, 0
NKF5, 70508999, 0, 0, 0, 0, 0.18, 0.13, 0, 0.19, 0.5, 2.702954E-05, 0.0009574388, 0.002245118
NKQ1, 70508999, 0.9823852, -0.001428884, 0.008493455, -0.1866691
AHR2, 70509045, 0.19, 0.54, 338.76, -0.45, 0, 0, 0.9828642, 0.002516473, 0.004332784, -0.1842631
MOTB, 70509052, 1, 1, 0, 1
RCIN, 70509056, 0, 0, 0, 0, 0, 0, 0, 0, 0, 0, 0, 0, 0, 0
RCOU, 70509062, 1221, 1221, 1221, 1221, 0, 0, 0, 0, 0, 0, 0, 0, 0, 0
VIBE, 70509071, 0.1533628, 0.1240102, 0.1366036, 0, 0, 0
CTRL, 70509077, 0.002441506, 0.00424278, 0.006440775, 0.007078758, 0.01296283
PRX, 70509110, 1, 0, 0, 0, 0, 0, 0, 0, 0, 0, 0, 0
IMU, 70528822, 0.004021747, -0.003005953, -0.05754368, 0.2413946, 0.07756537, -9.79464, 0, 0, 38.65064, 1, 1, 1000, 1000
RFND, 70558721, 0.2, 25, 0, 0
IMU, 70568810, -0.005397058, -0.005060273, -0.07707238, 0.1989614, 0.07898565, -9.820139, 0, 0, 38.6539, 1, 1, 1000, 1000
MAG, 70608844, 171, 153, 550, 0, 0, 0, 0, 0, 0, 1, 70608836
RFND, 70608895, 0.2, 25, 0, 0
BARO, 70608929, -0.5764468, 983.343, 37.41, 0.1377126, 70608, 0, 35
CTUN, 70608942, 0, 0, 0, 0.311533, 0.04103556, 0.04103556, -0.57, 0, 0.19, 0, 0, -1
ATT, 70609013, 0, 0.12, 0, 0.49, 338.04, 338.05, 0, 1
RATE, 70609019, -0.5418915, -0.09354079, 0.0009491233, -2.217758, -0.1947356, -0.003910321, 0.002511242, -4.888239, 0.0119806, 681.6441, -4.471588, 0
NKF1, 70609026, 0.12, 0.49, 338.04, 0.001438858, -0.05684851, 0.01683072, 0, 0, 0, -0.04103556, 0.05, 0.07, 0
NKF2, 70609026, -1, 0, 0, 0, 0, 0, 0, 0, 0, 0, 0, 0, 0
NKF3, 70609026, 0, 0, 0, -0.03, -0.09, 0.01, 0, 0, 0, 0, 0
NKF4, 70609026, 0, 0, 0, 0, 0, 3.571935E-06, 0, 0, 0, 19, 229, 0, 0
NKF5, 70609026, 0, 0, 0, 0, 0.18, 0.13, 0, 0.19, 0.5, 2.824019E-05, 0.0007213519, 0.001333434
NKQ1, 70609026, 0.9816742, -0.001383713, 0.008445967, -0.1903747
AHR2, 70609072, 0.19, 0.53, 338.33, -0.57, 0, 0, 0.9821633, 0.002558077, 0.004290103, -0.1879641
MOTB, 70609079, 1, 1, 0, 1
RCIN, 70609083, 0, 0, 0, 0, 0, 0, 0, 0, 0, 0, 0, 0, 0, 0
RCOU, 70609089, 1240, 1247, 1221, 1226, 0, 0, 0, 0, 0, 0, 0, 0, 0, 0
VIBE, 70609098, 0.09527899, 0.09112291, 0.09836692, 0, 0, 0
CTRL, 70609104, 0.002233854, 0.003636715, 0.006045685, 0.005846336, 0.01176813
PRX, 70609135, 1, 0, 0, 0, 0, 0, 0, 0, 0, 0, 0, 0
IMU, 70609143, -0.0007198367, -0.002127049, -0.08516889, 0.1350763, 0.01211673, -9.775998, 0, 0, 38.65514, 1, 1, 1000, 1000
IMU, 70648826, 0.005439481, -0.0003878542, -0.03188715, -0.0657089, -0.066887, -9.762633, 0, 0, 38.65495, 1, 1, 1000, 1000
RFND, 70658991, 0.2, 25, 0, 0
IMU, 70688925, 0.015653, 0.009154022, -0.05368116, 0.3404235, 0.1439072, -9.837504, 0, 0, 38.65469, 1, 1, 1000, 1000
MAG, 70708931, 175, 156, 549, 0, 0, 0, 0, 0, 0, 1, 70708923
RFND, 70708961, 0.2, 25, 0, 0
BARO, 70708994, -0.4351608, 983.3278, 37.41, 0.0687353, 70708, 0, 35
CTUN, 70709007, 0, 0, 0, 0.311533, 0.04102179, 0.04102179, -0.43, 0, 0.19, 0, 0, -1
ATT, 70709078, 0, 0.15, 0, 0.51, 337.78, 337.79, 0, 1
RATE, 70709083, -0.6579098, -0.1226199, 0.001450678, -2.311254, 0.2530903, -0.00690341, 0.003117826, -3.576939, 0.009325577, 729.2431, -3.600883, 0
NKF1, 70709091, 0.15, 0.51, 337.78, -0.002599334, -0.05925154, 0.018006, 0, 0, 0, -0.04102179, 0.05, 0.07, 0
NKF2, 70709091, -1, 0, 0, 0, 0, 0, 0, 0, 0, 0, 0, 0, 0
NKF3, 70709091, 0, 0, 0, -0.03, -0.1, 0.02, 0, 0, 0, 0, 0
NKF4, 70709091, 0, 0, 0, 0, 0, 3.936139E-06, 0, 0, 0, 19, 229, 0, 0
NKF5, 70709091, 0, 0, 0, 0, 0.18, 0.13, 0, 0.19, 0.5, 2.536057E-05, 0.0007841542, 0.001791463
NKQ1, 70709091, 0.9812297, -0.001126201, 0.008591151, -0.1926478
AHR2, 70709136, 0.22, 0.55, 338.06, -0.43, 0, 0, 0.9817249, 0.002818244, 0.004431154, -0.1902335
MOTB, 70709143, 1, 1, 0, 1
RCIN, 70709147, 0, 0, 0, 0, 0, 0, 0, 0, 0, 0, 0, 0, 0, 0
RCOU, 70709153, 1234, 1248, 1221, 1230, 0, 0, 0, 0, 0, 0, 0, 0, 0, 0
VIBE, 70709162, 0.2237335, 0.1321993, 0.1562506, 0, 0, 0
CTRL, 70709169, 0.002270984, 0.003121667, 0.005931476, 0.004820176, 0.01137874
PRX, 70709202, 1, 0, 0, 0, 0, 0, 0, 0, 0, 0, 0, 0
IMU, 70728983, 0.001373629, 0.01180852, -0.04253739, 0.01791586, -0.0204913, -9.80137, 0, 0, 38.65388, 1, 1, 1000, 1000
RFND, 70758895, 0.2, 25, 0, 0
IMU, 70769012, -0.006915452, -0.0008134128, -0.01492497, 0.08896765, -0.0131289, -9.809014, 0, 0, 38.653, 1, 1, 1000, 1000
MAG, 70808981, 175, 157, 551, 0, 0, 0, 0, 0, 0, 1, 70808973
RFND, 70809016, 0.2, 25, 0, 0
BARO, 70809046, -0.3786464, 983.3212, 37.41, -0.02384643, 70809, 0, 35
CTUN, 70809059, 0, 0, 0, 0.311533, 0.0409049, 0.0409049, -0.37, 0, 0.19, 0, 0, -1
ATT, 70809130, 0, 0.13, 0, 0.5, 337.65, 337.66, 0, 1
RATE, 70809136, -0.6131105, -0.183101, -0.0006769602, -2.260999, -0.4473162, -0.002821546, 0.002703302, -0.6691055, 0.004846171, 634.1245, 1.74551, 0
NKF1, 70809143, 0.13, 0.5, 337.65, -0.01010679, -0.06020726, 0.0156574, 0, 0, 0, -0.0409049, 0.05, 0.07, 0
NKF2, 70809143, -1, 0, 0, 0, 0, 0, 0, 0, 0, 0, 0, 0, 0
NKF3, 70809143, 0, 0, 0, -0.03, -0.1, 0.02, 0, 0, 0, 0, 0
NKF4, 70809143, 0, 0, 0, 0, 0, 4.303832E-06, 0, 0, 0, 19, 229, 0, 0
NKF5, 70809143, 0, 0, 0, 0, 0.18, 0.13, 0, 0.19, 0.5, 2.687793E-05, 0.0006230673, 0.001049755
NKQ1, 70809143, 0.9810239, -0.001267679, 0.008538612, -0.1936947
AHR2, 70809188, 0.2, 0.55, 337.94, -0.37, 0, 0, 0.9815233, 0.002687372, 0.004371857, -0.191274
MOTB, 70809195, 1, 1, 0, 1
RCIN, 70809200, 0, 0, 0, 0, 0, 0, 0, 0, 0, 0, 0, 0, 0, 0
RCOU, 70809206, 1230, 1234, 1221, 1227, 0, 0, 0, 0, 0, 0, 0, 0, 0, 0
VIBE, 70809214, 0.1378137, 0.09117332, 0.09816692, 0, 0, 0
CTRL, 70809221, 0.001995625, 0.002648808, 0.005798809, 0.004042862, 0.01025955
PRX, 70809253, 1, 0, 0, 0, 0, 0, 0, 0, 0, 0, 0, 0
IMU, 70809260, -0.002284814, -0.006537863, -0.01153141, 0.1418568, 0.07629425, -9.837646, 0, 0, 38.65294, 1, 1, 1000, 1000
IMU, 70848897, 0.0003658032, 0.003565619, -0.01751396, 0.1429466, 0.0410828, -9.803501, 0, 0, 38.65437, 1, 1, 1000, 1000
RFND, 70858895, 0.2, 25, 0, 0
IMU, 70888817, 0.0009797848, -0.001189588, -0.002977054, 0.09957314, 0.03087984, -9.799006, 0, 0, 38.65628, 1, 1, 1000, 1000
MAG, 70908792, 176, 155, 551, 0, 0, 0, 0, 0, 0, 1, 70908784
RFND, 70908824, 0.2, 25, 0, 0
BARO, 70908853, -0.4295094, 983.3267, 37.41, 0.1607128, 70908, 0, 35
CTUN, 70908884, 0, 0, 0, 0.311533, 0.04117873, 0.04117873, -0.42, 0, 0.19, 0, 0, -1
ATT, 70908953, 0, 0.13, 0, 0.49, 337.59, 337.6, 0, 1
RATE, 70908958, -0.5863619, -0.2136572, -0.0003903942, -2.22926, -0.1064877, -0.005116375, 0.002580484, -0.07884226, 0.002354412, 600.2344, -0.5578041, 0
NKF1, 70908966, 0.13, 0.49, 337.59, -0.01095223, -0.0604441, 0.0148206, 0, 0, 0, -0.04117873, 0.05, 0.07, 0
NKF2, 70908966, -1, 0, 0, 0, 0, 0, 0, 0, 0, 0, 0, 0, 0
NKF3, 70908966, 0, 0, 0, -0.03, -0.11, 0.02, 0, 0, 0, 0, 0
NKF4, 70908966, 0, 0, 0, 0, 0, 4.759113E-06, 0, 0, 0, 19, 229, 0, 0
NKF5, 70908966, 0, 0, 0, 0, 0.18, 0.13, 0, 0.19, 0.5, 2.35772E-05, 0.0006184761, 0.001365514
NKQ1, 70908966, 0.9809228, -0.001335841, 0.008492697, -0.1942077
AHR2, 70909008, 0.2, 0.54, 337.88, -0.42, 0, 0, 0.9814249, 0.002629239, 0.004310429, -0.1917806
MOTB, 70909015, 1, 1, 0, 1
RCIN, 70909020, 0, 0, 0, 0, 0, 0, 0, 0, 0, 0, 0, 0, 0, 0
RCOU, 70909026, 1225, 1234, 1221, 1230, 0, 0, 0, 0, 0, 0, 0, 0, 0, 0
VIBE, 70909034, 0.08560951, 0.06743535, 0.07130879, 0, 0, 0
CTRL, 70909041, 0.001796587, 0.002181872, 0.00556783, 0.003325439, 0.008637024
PRX, 70909072, 1, 0, 0, 0, 0, 0, 0, 0, 0, 0, 0, 0
IMU, 70928712, 0.001505849, 0.001267798, -0.007968899, 0.1716744, 0.08116493, -9.79409, 0, 0, 38.65782, 1, 1, 1000, 1000
RFND, 70958699, 0.2, 25, 0, 0
IMU, 70968842, -0.001310504, -0.003342709, -0.008719826, 0.1544921, 0.05567909, -9.808937, 0, 0, 38.65981, 1, 1, 1000, 1000
MAG, 71008672, 173, 151, 552, 0, 0, 0, 0, 0, 0, 1, 71008664
RFND, 71008704, 0.2, 25, 0, 0
BARO, 71008783, -0.4295094, 983.3272, 37.42, 0.3463967, 71008, 0, 35
CTUN, 71008797, 0, 0, 0, 0.311533, 0.04112349, 0.04112349, -0.42, 0, 0.19, 0, 0, -1
DU32, 71008828, 7, 33611992
ATT, 71008943, 0, 0.12, 0, 0.48, 337.56, 337.58, 0, 1
RATE, 71008950, -0.5442103, -0.2733743, 0.0008661837, -2.162424, -0.26861, -0.003587833, 0.00231156, -0.2479757, 0.001146378, 590.46, 3.578568, 0
NKF1, 71008957, 0.12, 0.48, 337.57, -0.0120265, -0.06243675, 0.01457926, 0, 0, 0, -0.04112349, 0.05, 0.07, 0
NKF2, 71008957, -1, 0, 0, 0, 0, 0, 0, 0, 0, 0, 0, 0, 0
NKF3, 71008957, 0, 0, 0, -0.03, -0.11, 0.02, 0, 0, 0, 0, 0
NKF4, 71008957, 0, 0, 0, 0, 0, 5.146226E-06, 0, 0, 0, 19, 229, 0, 0
NKF5, 71008957, 0, 0, 0, 0, 0.17, 0.13, 0, 0.19, 0.5, 2.549296E-05, 0.000549042, 0.000836918
NKQ1, 71008957, 0.9808749, -0.001436402, 0.008381022, -0.1944532
AHR2, 71009002, 0.19, 0.52, 337.85, -0.42, 0, 0, 0.981379, 0.002540357, 0.004180273, -0.1920191
MOTB, 71009009, 1, 1, 0, 1
RCIN, 71009013, 0, 0, 0, 0, 0, 0, 0, 0, 0, 0, 0, 0, 0, 0
RCOU, 71009018, 1221, 1229, 1221, 1225, 0, 0, 0, 0, 0, 0, 0, 0, 0, 0
VIBE, 71009027, 0.06599917, 0.05179637, 0.06072887, 0, 0, 0
CTRL, 71009033, 0.001635156, 0.001846755, 0.005360005, 0.002731335, 0.007131122
PRX, 71009065, 1, 0, 0, 0, 0, 0, 0, 0, 0, 0, 0, 0
IMU, 71009072, -0.003858559, -0.003416156, -0.004181002, 0.1574229, 0.00668702, -9.856158, 0, 0, 38.66237, 1, 1, 1000, 1000
IMU, 71048829, -0.002505252, -0.008770051, 0.01298819, 0.2568443, -0.0271728, -9.755306, 0, 0, 38.66443, 1, 1, 1000, 1000
RFND, 71058669, 0.2, 25, 0, 0
IMU, 71088826, 0.004062021, -0.004919054, -0.0325467, 0.07431102, 0.06248173, -9.833336, 0, 0, 38.66615, 1, 1, 1000, 1000
MAG, 71108795, 174, 157, 551, 0, 0, 0, 0, 0, 0, 1, 71108786
RFND, 71108827, 0.2, 25, 0, 0
BARO, 71108855, -0.4182065, 983.3259, 37.42, 0.2030986, 71108, 0, 35
CTUN, 71108886, 0, 0, 0, 0.311533, 0.04153687, 0.04153687, -0.41, 0, 0.19, 0, 0, -1
ATT, 71108954, 0, 0.1, 0, 0.44, 337.53, 337.54, 0, 1
RATE, 71108960, -0.4931788, -0.1507775, 0.0003255628, -1.979836, -0.1564766, -0.004639232, 0.00189621, 0.729843, 0.00197111, 572.3264, 1.578617, 0
NKF1, 71108968, 0.1, 0.44, 337.53, -0.01092558, -0.06587264, 0.01413152, 0, 0, 0, -0.04153687, 0.05, 0.07, 0
NKF2, 71108968, -1, 0, 0, 0, 0, 0, 0, 0, 0, 0, 0, 0, 0
NKF3, 71108968, 0, 0, 0, -0.03, -0.12, 0.02, 0, 0, 0, 0, 0
NKF4, 71108968, 0, 0, 0, 0, 0, 5.702046E-06, 0, 0, 0, 19, 229, 0, 0
NKF5, 71108968, 0, 0, 0, 0, 0.18, 0.13, 0, 0.19, 0.5, 2.188816E-05, 0.0004622545, 0.0009631503
NKQ1, 71108968, 0.9808165, -0.001613923, 0.008059582, -0.1947603
AHR2, 71109012, 0.18, 0.48, 337.82, -0.41, 0, 0, 0.9813222, 0.002380205, 0.003852865, -0.1923185
MOTB, 71109019, 1, 1, 0, 1
RCIN, 71109023, 0, 0, 0, 0, 0, 0, 0, 0, 0, 0, 0, 0, 0, 0
RCOU, 71109029, 1223, 1232, 1221, 1228, 0, 0, 0, 0, 0, 0, 0, 0, 0, 0
VIBE, 71109037, 0.09012897, 0.07724572, 0.0702486, 0, 0, 0
CTRL, 71109044, 0.001459101, 0.00157737, 0.004923139, 0.00226156, 0.00589708
PRX, 71109076, 1, 0, 0, 0, 0, 0, 0, 0, 0, 0, 0, 0
IMU, 71128832, -0.004491705, -0.004826006, 0.00505623, 0.1755194, 0.08554612, -9.807497, 0, 0, 38.66708, 1, 1, 1000, 1000
RFND, 71158673, 0.2, 25, 0, 0
IMU, 71168821, -0.001760032, 0.003523199, -0.01941273, 0.1465939, 0.05764478, -9.815629, 0, 0, 38.66815, 1, 1, 1000, 1000
MAG, 71208686, 180, 152, 547, 0, 0, 0, 0, 0, 0, 1, 71208678
RFND, 71208716, 0.2, 25, 0, 0
BARO, 71208798, -0.3503892, 983.3185, 37.42, 0.01196316, 71208, 0, 35
CTUN, 71208812, 0, 0, 0, 0.311533, 0.04150243, 0.04150243, -0.35, 0, 0.19, 0, 0, -1
