FMT, 128, 89, FMT, BBnNZ, Type,Length,Name,Format,Columns
FMT, 129, 31, PARM, QNf, TimeUS,Name,Value
FMT, 130, 46, GPS, QBIHBcLLefffB, TimeUS,Status,GMS,GWk,NSats,HDop,Lat,Lng,Alt,Spd,GCrs,VZ,U
FMT, 131, 46, GPS2, QBIHBcLLefffB, TimeUS,Status,GMS,GWk,NSats,HDop,Lat,Lng,Alt,Spd,GCrs,VZ,U
FMT, 132, 46, GPSB, QBIHBcLLefffB, TimeUS,Status,GMS,GWk,NSats,HDop,Lat,Lng,Alt,Spd,GCrs,VZ,U
FMT, 193, 24, GPA, QCCCCBI, TimeUS,VDop,HAcc,VAcc,SAcc,VV,SMS
FMT, 194, 24, GPA2, QCCCCBI, TimeUS,VDop,HAcc,VAcc,SAcc,VV,SMS
FMT, 195, 24, GPAB, QCCCCBI, TimeUS,VDop,HAcc,VAcc,SAcc,VV,SMS
FMT, 133, 53, IMU, QffffffIIfBBHH, TimeUS,GyrX,GyrY,GyrZ,AccX,AccY,AccZ,EG,EA,T,GH,AH,GHz,AHz
FMT, 134, 75, MSG, QZ, TimeUS,Message
FMT, 135, 39, RCIN, QHHHHHHHHHHHHHH, TimeUS,C1,C2,C3,C4,C5,C6,C7,C8,C9,C10,C11,C12,C13,C14
FMT, 136, 39, RCOU, QHHHHHHHHHHHHHH, TimeUS,C1,C2,C3,C4,C5,C6,C7,C8,C9,C10,C11,C12,C13,C14
FMT, 137, 15, RSSI, Qf, TimeUS,RXRSSI
FMT, 139, 37, BARO, QffcfIff, TimeUS,Alt,Press,Temp,CRt,SMS,Offset,GndTemp
FMT, 140, 22, POWR, QffHB, TimeUS,Vcc,VServo,Flags,Safety
FMT, 143, 45, CMD, QHHHfffffff, TimeUS,CTot,CNum,CId,Prm1,Prm2,Prm3,Prm4,Lat,Lng,Alt
FMT, 144, 20, RAD, QBBBBBHH, TimeUS,RSSI,RemRSSI,TxBuf,Noise,RemNoise,RxErrors,Fixed
FMT, 146, 43, CAM, QIHLLeeeccC, TimeUS,GPSTime,GPSWeek,Lat,Lng,Alt,RelAlt,GPSAlt,Roll,Pitch,Yaw
FMT, 232, 43, TRIG, QIHLLeeeccC, TimeUS,GPSTime,GPSWeek,Lat,Lng,Alt,RelAlt,GPSAlt,Roll,Pitch,Yaw
FMT, 162, 30, ARSP, QffcffB, TimeUS,Airspeed,DiffPress,Temp,RawPress,Offset,U
FMT, 164, 45, CURR, QfffcHHHHHHHHHH, TimeUS,Volt,Curr,CurrTot,Temp,V1,V2,V3,V4,V5,V6,V7,V8,V9,V10
FMT, 165, 45, CUR2, QfffcHHHHHHHHHH, TimeUS,Volt,Curr,CurrTot,Temp,V1,V2,V3,V4,V5,V6,V7,V8,V9,V10
FMT, 163, 27, ATT, QccccCCCC, TimeUS,DesRoll,Roll,DesPitch,Pitch,DesYaw,Yaw,ErrRP,ErrYaw
FMT, 166, 34, MAG, QhhhhhhhhhBI, TimeUS,MagX,MagY,MagZ,OfsX,OfsY,OfsZ,MOfsX,MOfsY,MOfsZ,Health,S
FMT, 169, 14, MODE, QMBB, TimeUS,Mode,ModeNum,Rsn
FMT, 196, 17, RFND, QCBCB, TimeUS,Dist1,Orient1,Dist2,Orient2
FMT, 223, 33, DMS, IIIIIBBBBBBBBBB, TimeMS,N,Dp,RT,RS,Er,Fa,Fmn,Fmx,Pa,Pmn,Pmx,Sa,Smn,Smx
FMT, 240, 41, BCN, QBBfffffff, TimeUS,Health,Cnt,D0,D1,D2,D3,PosX,PosY,PosZ
FMT, 138, 53, IMU2, QffffffIIfBBHH, TimeUS,GyrX,GyrY,GyrZ,AccX,AccY,AccZ,EG,EA,T,GH,AH,GHz,AHz
FMT, 147, 53, IMU3, QffffffIIfBBHH, TimeUS,GyrX,GyrY,GyrZ,AccX,AccY,AccZ,EG,EA,T,GH,AH,GHz,AHz
FMT, 141, 45, AHR2, QccCfLLffff, TimeUS,Roll,Pitch,Yaw,Alt,Lat,Lng,Q1,Q2,Q3,Q4
FMT, 180, 31, POS, QLLfff, TimeUS,Lat,Lng,Alt,RelHomeAlt,RelOriginAlt
FMT, 142, 45, SIM, QccCfLLffff, TimeUS,Roll,Pitch,Yaw,Alt,Lat,Lng,Q1,Q2,Q3,Q4
FMT, 198, 51, NKF1, QccCfffffffccc, TimeUS,Roll,Pitch,Yaw,VN,VE,VD,dPD,PN,PE,PD,GX,GY,GZ
FMT, 199, 35, NKF2, QbccccchhhhhhB, TimeUS,AZbias,GSX,GSY,GSZ,VWN,VWE,MN,ME,MD,MX,MY,MZ,MI
FMT, 200, 33, NKF3, Qcccccchhhcc, TimeUS,IVN,IVE,IVD,IPN,IPE,IPD,IMX,IMY,IMZ,IYAW,IVT
FMT, 201, 35, NKF4, QcccccfbbHBHHb, TimeUS,SV,SP,SH,SM,SVT,errRP,OFN,OFE,FS,TS,SS,GPS,PI
FMT, 202, 40, NKF5, QBhhhcccCCfff, TimeUS,NI,FIX,FIY,AFI,HAGL,offset,RI,rng,Herr,eAng,eVel,ePos
FMT, 203, 51, NKF6, QccCfffffffccc, TimeUS,Roll,Pitch,Yaw,VN,VE,VD,dPD,PN,PE,PD,GX,GY,GZ
FMT, 204, 35, NKF7, QbccccchhhhhhB, TimeUS,AZbias,GSX,GSY,GSZ,VWN,VWE,MN,ME,MD,MX,MY,MZ,MI
FMT, 205, 33, NKF8, Qcccccchhhcc, TimeUS,IVN,IVE,IVD,IPN,IPE,IPD,IMX,IMY,IMZ,IYAW,IVT
FMT, 206, 35, NKF9, QcccccfbbHBHHb, TimeUS,SV,SP,SH,SM,SVT,errRP,OFN,OFE,FS,TS,SS,GPS,PI
FMT, 207, 36, NKF0, QBccCCcccccccc, TimeUS,ID,rng,innov,SIV,TR,BPN,BPE,BPD,OFH,OFL,OFN,OFE,OFD
FMT, 208, 27, NKQ1, Qffff, TimeUS,Q1,Q2,Q3,Q4
FMT, 209, 27, NKQ2, Qffff, TimeUS,Q1,Q2,Q3,Q4
FMT, 210, 51, XKF1, QccCfffffffccc, TimeUS,Roll,Pitch,Yaw,VN,VE,VD,dPD,PN,PE,PD,GX,GY,GZ
FMT, 211, 34, XKF2, QccccchhhhhhB, TimeUS,AX,AY,AZ,VWN,VWE,MN,ME,MD,MX,MY,MZ,MI
FMT, 212, 33, XKF3, Qcccccchhhcc, TimeUS,IVN,IVE,IVD,IPN,IPE,IPD,IMX,IMY,IMZ,IYAW,IVT
FMT, 213, 35, XKF4, QcccccfbbHBHHb, TimeUS,SV,SP,SH,SM,SVT,errRP,OFN,OFE,FS,TS,SS,GPS,PI
FMT, 214, 40, XKF5, QBhhhcccCCfff, TimeUS,NI,FIX,FIY,AFI,HAGL,offset,RI,rng,Herr,eAng,eVel,ePos
FMT, 215, 51, XKF6, QccCfffffffccc, TimeUS,Roll,Pitch,Yaw,VN,VE,VD,dPD,PN,PE,PD,GX,GY,GZ
FMT, 216, 34, XKF7, QccccchhhhhhB, TimeUS,AX,AY,AZ,VWN,VWE,MN,ME,MD,MX,MY,MZ,MI
FMT, 217, 33, XKF8, Qcccccchhhcc, TimeUS,IVN,IVE,IVD,IPN,IPE,IPD,IMX,IMY,IMZ,IYAW,IVT
FMT, 218, 35, XKF9, QcccccfbbHBHHb, TimeUS,SV,SP,SH,SM,SVT,errRP,OFN,OFE,FS,TS,SS,GPS,PI
FMT, 219, 36, XKF0, QBccCCcccccccc, TimeUS,ID,rng,innov,SIV,TR,BPN,BPE,BPD,OFH,OFL,OFN,OFE,OFD
FMT, 220, 27, XKQ1, Qffff, TimeUS,Q1,Q2,Q3,Q4
FMT, 221, 27, XKQ2, Qffff, TimeUS,Q1,Q2,Q3,Q4
FMT, 222, 35, XKFD, Qffffff, TimeUS,IX,IY,IZ,IVX,IVY,IVZ
FMT, 148, 34, TERR, QBLLHffHH, TimeUS,Status,Lat,Lng,Spacing,TerrH,CHeight,Pending,Loaded
FMT, 149, 18, UBX1, QBHBBH, TimeUS,Instance,noisePerMS,jamInd,aPower,agcCnt
FMT, 150, 16, UBX2, QBbBbB, TimeUS,Instance,ofsI,magI,ofsQ,magQ
FMT, 151, 18, UBY1, QBHBBH, TimeUS,Instance,noisePerMS,jamInd,aPower,agcCnt
FMT, 152, 16, UBY2, QBbBbB, TimeUS,Instance,ofsI,magI,ofsQ,magQ
FMT, 170, 42, GRAW, QIHBBddfBbB, TimeUS,WkMS,Week,numSV,sv,cpMes,prMes,doMes,mesQI,cno,lli
FMT, 171, 24, GRXH, QdHbBB, TimeUS,rcvTime,week,leapS,numMeas,recStat
FMT, 172, 41, GRXS, QddfBBBHBBBBB, TimeUS,prMes,cpMes,doMes,gnss,sv,freq,lock,cno,prD,cpD,doD,trk
FMT, 173, 63, SBFE, QIHBBdddfffff, TimeUS,TOW,WN,Mode,Err,Lat,Lng,Height,Undul,Vn,Ve,Vu,COG
FMT, 153, 19, ESC1, Qcccc, TimeUS,RPM,Volt,Curr,Temp
FMT, 154, 19, ESC2, Qcccc, TimeUS,RPM,Volt,Curr,Temp
FMT, 155, 19, ESC3, Qcccc, TimeUS,RPM,Volt,Curr,Temp
FMT, 156, 19, ESC4, Qcccc, TimeUS,RPM,Volt,Curr,Temp
FMT, 157, 19, ESC5, Qcccc, TimeUS,RPM,Volt,Curr,Temp
FMT, 158, 19, ESC6, Qcccc, TimeUS,RPM,Volt,Curr,Temp
FMT, 159, 19, ESC7, Qcccc, TimeUS,RPM,Volt,Curr,Temp
FMT, 160, 19, ESC8, Qcccc, TimeUS,RPM,Volt,Curr,Temp
FMT, 167, 34, MAG2, QhhhhhhhhhBI, TimeUS,MagX,MagY,MagZ,OfsX,OfsY,OfsZ,MOfsX,MOfsY,MOfsZ,Health,S
FMT, 168, 34, MAG3, QhhhhhhhhhBI, TimeUS,MagX,MagY,MagZ,OfsX,OfsY,OfsZ,MOfsX,MOfsY,MOfsZ,Health,S
FMT, 174, 31, ACC1, QQfff, TimeUS,SampleUS,AccX,AccY,AccZ
FMT, 175, 31, ACC2, QQfff, TimeUS,SampleUS,AccX,AccY,AccZ
FMT, 176, 31, ACC3, QQfff, TimeUS,SampleUS,AccX,AccY,AccZ
FMT, 177, 31, GYR1, QQfff, TimeUS,SampleUS,GyrX,GyrY,GyrZ
FMT, 178, 31, GYR2, QQfff, TimeUS,SampleUS,GyrX,GyrY,GyrZ
FMT, 179, 31, GYR3, QQfff, TimeUS,SampleUS,GyrX,GyrY,GyrZ
FMT, 181, 35, PIDR, Qffffff, TimeUS,Des,P,I,D,FF,AFF
FMT, 182, 35, PIDP, Qffffff, TimeUS,Des,P,I,D,FF,AFF
FMT, 183, 35, PIDY, Qffffff, TimeUS,Des,P,I,D,FF,AFF
FMT, 184, 35, PIDA, Qffffff, TimeUS,Des,P,I,D,FF,AFF
FMT, 185, 35, PIDS, Qffffff, TimeUS,Des,P,I,D,FF,AFF
FMT, 186, 35, PIDL, Qffffff, TimeUS,Des,P,I,D,FF,AFF
FMT, 161, 37, BAR2, QffcfIff, TimeUS,Alt,Press,Temp,CRt,SMS,Offset,GndTemp
FMT, 197, 37, BAR3, QffcfIff, TimeUS,Alt,Press,Temp,CRt,SMS,Offset,GndTemp
FMT, 187, 35, VIBE, QfffIII, TimeUS,VibeX,VibeY,VibeZ,Clip0,Clip1,Clip2
FMT, 188, 47, IMT, Qfffffffff, TimeUS,DelT,DelvT,DelaT,DelAX,DelAY,DelAZ,DelVX,DelVY,DelVZ
FMT, 189, 47, IMT2, Qfffffffff, TimeUS,DelT,DelvT,DelaT,DelAX,DelAY,DelAZ,DelVX,DelVY,DelVZ
FMT, 190, 47, IMT3, Qfffffffff, TimeUS,DelT,DelvT,DelaT,DelAX,DelAY,DelAZ,DelVX,DelVY,DelVZ
FMT, 191, 24, ORGN, QBLLe, TimeUS,Type,Lat,Lng,Alt
FMT, 192, 19, RPM, Qff, TimeUS,rpm1,rpm2
FMT, 233, 47, GMB1, Iffffffffff, TimeMS,dt,dax,day,daz,dvx,dvy,dvz,jx,jy,jz
FMT, 234, 44, GMB2, IBfffffffff, TimeMS,es,ex,ey,ez,rx,ry,rz,tx,ty,tz
FMT, 235, 13, GMB3, Ihhh, TimeMS,rl_torque_cmd,el_torque_cmd,az_torque_cmd
FMT, 236, 59, RATE, Qffffffffffff, TimeUS,RDes,R,ROut,PDes,P,POut,YDes,Y,YOut,ADes,A,AOut
FMT, 237, 23, RALY, QBBLLh, TimeUS,Tot,Seq,Lat,Lng,Alt
FMT, 238, 43, VISO, Qffffffff, TimeUS,dt,AngDX,AngDY,AngDZ,PosDX,PosDY,PosDZ,conf
FMT, 224, 23, SBPH, QIII, TimeUS,CrcError,LastInject,IARhyp
FMT, 229, 80, SBR1, QHHBZ, TimeUS,msg_type,sender_id,msg_len,d1
FMT, 230, 205, SBR2, QHZZZ, TimeUS,msg_type,d2,d3,d4
FMT, 25, 41, ATUN, QBBfffffff, TimeUS,Axis,TuneStep,Targ,Min,Max,RP,RD,SP,ddt
FMT, 26, 19, ATDE, Qff, TimeUS,Angle,Rate
FMT, 31, 22, PTUN, QBfHHH, TimeUS,Param,TunVal,CtrlIn,TunLo,TunHi
FMT, 12, 28, OF, QBffff, TimeUS,Qual,flowX,flowY,bodyX,bodyY
FMT, 5, 51, NTUN, Qffffffffff, TimeUS,DPosX,DPosY,PosX,PosY,DVelX,DVelY,VelX,VelY,DAccX,DAccY
FMT, 4, 51, CTUN, Qffffffeccfhh, TimeUS,ThI,ABst,ThO,ThH,DAlt,Alt,BAlt,DSAlt,SAlt,TAlt,DCRt,CRt
FMT, 6, 32, PM, QHHIhBHII, TimeUS,NLon,NLoop,MaxT,PMT,I2CErr,INSErr,LogDrop,Mem
FMT, 30, 27, MOTB, Qffff, TimeUS,LiftMax,BatVolt,BatRes,ThLimit
FMT, 13, 12, EV, QB, TimeUS,Id
FMT, 20, 14, D16, QBh, TimeUS,Id,Value
FMT, 21, 14, DU16, QBH, TimeUS,Id,Value
FMT, 22, 16, D32, QBi, TimeUS,Id,Value
FMT, 23, 16, DU32, QBI, TimeUS,Id,Value
FMT, 24, 16, DFLT, QBf, TimeUS,Id,Value
FMT, 19, 13, ERR, QBB, TimeUS,Subsys,ECode
FMT, 32, 19, HELI, Qff, TimeUS,DRRPM,ERRPM
FMT, 33, 29, PL, QBBffff, TimeUS,Heal,TAcq,pX,pY,vX,vY
FMT, 34, 36, GUID, QBffffff, TimeUS,Type,pX,pY,pZ,vX,vY,vZ
FMT, 35, 32, THRO, QBffffbbbb, TimeUS,Stage,Vel,VelZ,Acc,AccEfZ,Throw,AttOk,HgtOk,PosOk
FMT, 36, 56, PRX, QBfffffffffff, TimeUS,Health,D0,D45,D90,D135,D180,D225,D270,D315,DUp,CAn,CDis
MODE, 21924077, 100, 100, 1
FMT, 254, 47, NKT1, QIffffffff, TimeUS,Cnt,IMUMin,IMUMax,EKFMin,EKFMax,AngMin,AngMax,VelMin,VelM
FMT, 253, 31, CTRL, Qfffff, TimeUS,RMSRollP,RMSRollD,RMSPitchP,RMSPitchD,RMSYaw
RFND, 22004821, 0.2, 25, 0, 0
MSG, 22043043, APM:Copter V3.5.7 (791a96c7)
MSG, 22043048, New mission
MSG, 22043058, Frame: QUAD
MODE, 22043062, 100, 100, 1
MAG, 22055544, 220, 165, 572, 0, 0, 0, 0, 0, 0, 1, 22055535
RFND, 22055650, 0.2, 25, 0, 0
BARO, 22055686, 0.0141286, 983.3245, 39.06, -0.2984906, 22055, 0, 35
CTUN, 22055701, 0, 0, 0, 0.3082991, 0.0786453, 0.0786453, 0.01, 0, 0.19, 0, 0, 0
ATT, 22055805, 0, 0.15, 0, 0.62, 358.73, 358.74, 0, 1
RATE, 22055812, -0.7122838, -0.05884375, -0.001196605, -2.797968, 0.04252401, -0.007101978, 0.005786967, -0.1196342, 0.0004332786, -397.2534, 2.021313, 0
NKF1, 22055820, 0.15, 0.62, 358.73, 0.006957122, -0.004887598, -0.009808727, 0, 0, 0, -0.0786453, -0.01, 0.06, 0
NKF2, 22055820, 0, 0, 0, 0, 0, 0, 0, 0, 0, 0, 0, 0, 0
NKF3, 22055820, 0, 0, 0, 0, 0, 0, 0, 0, 0, 0, 0
NKF4, 22055820, 0, 0, 0, 0, 0, 2.044996E-05, 0, 0, 0, 19, 229, 0, 0
NKF5, 22055820, 0, 0, 0, 0, 0.2, 0.13, 0, 0.19, 0.5, 1.217723E-05, 0.0008758097, 0.001014999
NKQ1, 22055820, 0.9998932, -0.002612789, 0.009202437, -0.01104446
AHR2, 22055865, 0.16, 0.7, 358.5, 0.01, 0, 0, 0.9998952, 0.001490129, 0.006156374, -0.0130189
MOTB, 22055962, 1, 1, 0, 1
RCIN, 22055967, 0, 0, 0, 0, 0, 0, 0, 0, 0, 0, 0, 0, 0, 0
RCOU, 22055973, 1101, 1101, 1101, 1101, 0, 0, 0, 0, 0, 0, 0, 0, 0, 0
VIBE, 22055981, 0.03141188, 0.0210017, 0.03500489, 0, 0, 0
CTRL, 22055988, 0.00168951, 0.0001672669, 0.006595723, 0.0003828936, 0.0003999104
PRX, 22056020, 1, 0, 0, 0, 0, 0, 0, 0, 0, 0, 0, 0
IMU, 22056027, -0.001227782, 0.001837376, -0.002087124, 0.1998899, 0.04398305, -9.823647, 0, 0, 40.18076, 1, 1, 1000, 1000
IMU, 22095502, -0.0008885417, 0.001235027, -0.002266575, 0.1907751, 0.04740966, -9.796185, 0, 0, 40.18187, 1, 1, 1000, 1000
RFND, 22105343, 0.2, 25, 0, 0
IMU, 22135545, 0.001159874, 0.0006859089, -0.002844013, 0.1657922, 0.05123259, -9.811437, 0, 0, 40.18189, 1, 1, 1000, 1000
MAG, 22155307, 216, 166, 572, 0, 0, 0, 0, 0, 0, 1, 22155299
RFND, 22155453, 0.2, 25, 0, 0
BARO, 22155491, -0.04521151, 983.3308, 39.06, -0.5652719, 22155, 0, 35
CTUN, 22155505, 0, 0, 0, 0.3082991, 0.0786966, 0.0786966, -0.04, 0, 0.19, 0, 0, 0
ATT, 22155723, 0, 0.16, 0, 0.61, 358.71, 358.72, 0, 1
RATE, 22155730, -0.7206823, 0.03400752, -0.001739973, -2.784445, -0.06188916, -0.006335533, 0.006916868, -0.1355949, 0.0004339589, -392.2066, 1.454926, 0
NKF1, 22155737, 0.16, 0.61, 358.71, 0.006832096, -0.005017394, -0.009684114, 0, 0, 0, -0.0786966, -0.01, 0.06, 0
NKF2, 22155737, 0, 0, 0, 0, 0, 0, 0, 0, 0, 0, 0, 0, 0
NKF3, 22155737, 0, 0, 0, 0, 0, 0, 0, 0, 0, 0, 0
NKF4, 22155737, 0, 0, 0, 0, 0, 1.476153E-05, 0, 0, 0, 19, 229, 0, 0
NKF5, 22155737, 0, 0, 0, 0, 0.2, 0.13, 0, 0.19, 0.5, 3.000227E-06, 0.0009086134, 0.001230309
NKQ1, 22155737, 0.9998923, -0.002595439, 0.009176063, -0.01116314
AHR2, 22155784, 0.16, 0.7, 358.49, -0.04, 0, 0, 0.9998935, 0.001498164, 0.006172536, -0.01313801
MOTB, 22155792, 1, 1, 0, 1
RCIN, 22155796, 0, 0, 0, 0, 0, 0, 0, 0, 0, 0, 0, 0, 0, 0
RCOU, 22155802, 1101, 1101, 1101, 1101, 0, 0, 0, 0, 0, 0, 0, 0, 0, 0
VIBE, 22155810, 0.02506457, 0.02277427, 0.031108, 0, 0, 0
CTRL, 22155817, 0.001697494, 0.0001656164, 0.00657635, 0.000329265, 0.0004095139
PRX, 22155849, 1, 0, 0, 0, 0, 0, 0, 0, 0, 0, 0, 0
IMU, 22175499, 0.0005245677, 0.0006576802, -0.001675335, 0.1606304, 0.0164913, -9.830499, 0, 0, 40.18236, 1, 1, 1000, 1000
RFND, 22205259, 0.2, 25, 0, 0
IMU, 22215734, -0.001135596, 0.001736535, -0.001573576, 0.1977215, 0.06191808, -9.789278, 0, 0, 40.18309, 1, 1, 1000, 1000
MAG, 22255438, 210, 166, 572, 0, 0, 0, 0, 0, 0, 1, 22255429
RFND, 22255472, 0.2, 25, 0, 0
BARO, 22255508, -0.09607446, 983.3362, 39.06, -0.6358493, 22255, 0, 35
CTUN, 22255520, 0, 0, 0, 0.3082991, 0.07892963, 0.07892963, -0.09, 0, 0.19, 0, 0, 1
ATT, 22255693, 0, 0.16, 0, 0.61, 358.7, 358.71, 0, 1
RATE, 22255699, -0.7196109, 0.03976306, -0.001987715, -2.776165, -0.01324719, -0.006698955, 0.005103922, -0.1020183, 0.0003177672, -434.0379, 2.500534, 0
NKF1, 22255707, 0.16, 0.61, 358.7, 0.00743992, -0.005106607, -0.01071698, 0, 0, 0, -0.07892963, -0.01, 0.06, 0
NKF2, 22255707, 0, 0, 0, 0, 0, 0, 0, 0, 0, 0, 0, 0, 0
NKF3, 22255707, 0, 0, 0, 0, 0, 0, 0, 0, 0, 0, 0
NKF4, 22255707, 0, 0, 0, 0, 0, 9.58403E-06, 0, 0, 0, 19, 229, 0, 0
NKF5, 22255707, 0, 0, 0, 0, 0.2, 0.13, 0, 0.19, 0.5, 1.330894E-05, 0.001038822, 0.001728609
NKQ1, 22255707, 0.9998916, -0.002597321, 0.009161966, -0.01123519
AHR2, 22255755, 0.16, 0.71, 358.48, -0.09, 0, 0, 0.9998925, 0.001488454, 0.006199204, -0.0132104
MOTB, 22255762, 1, 1, 0, 1
RCIN, 22255766, 0, 0, 0, 0, 0, 0, 0, 0, 0, 0, 0, 0, 0, 0
RCOU, 22255772, 1101, 1101, 1101, 1101, 0, 0, 0, 0, 0, 0, 0, 0, 0, 0
VIBE, 22255781, 0.02227593, 0.02433396, 0.0377451, 0, 0, 0
CTRL, 22255788, 0.00169763, 0.0001660351, 0.006553871, 0.0002899222, 0.0003959687
PRX, 22255819, 1, 0, 0, 0, 0, 0, 0, 0, 0, 0, 0, 0
IMU, 22255825, 0.0004922845, 0.0008690578, -0.001779666, 0.1894256, 0.07459684, -9.828594, 0, 0, 40.18299, 1, 1, 1000, 1000
IMU, 22295521, -8.252167E-05, 0.0005786915, -0.002094493, 0.1954003, 0.03605244, -9.810919, 0, 0, 40.1836, 1, 1, 1000, 1000
RFND, 22305261, 0.2, 25, 0, 0
IMU, 22335526, 0.0004176931, 0.001528068, -0.002266753, 0.1749732, 0.02677741, -9.774782, 0, 0, 40.18362, 1, 1, 1000, 1000
MAG, 22355440, 216, 169, 572, 0, 0, 0, 0, 0, 0, 1, 22355431
RFND, 22355476, 0.2, 25, 0, 0
BARO, 22355511, -0.02825719, 983.329, 39.06, -0.5200011, 22355, 0, 35
CTUN, 22355525, 0, 0, 0, 0.3082991, 0.07912882, 0.07912882, -0.02, 0, 0.19, 0, 0, 1
ATT, 22355698, 0, 0.16, 0, 0.61, 358.69, 358.7, 0, 1
RATE, 22355705, -0.7247704, 0.0116295, -0.001725657, -2.763365, -0.01929129, -0.006427183, 0.005267117, -0.1199358, 0.0003444099, -458.289, 1.677608, 0
NKF1, 22355713, 0.16, 0.61, 358.69, 0.007794174, -0.006627974, -0.01131578, 0, 0, 0, -0.07912882, -0.01, 0.06, 0
NKF2, 22355713, 0, 0, 0, 0, 0, 0, 0, 0, 0, 0, 0, 0, 0
NKF3, 22355713, 0, 0, 0, 0, 0, 0, 0, 0, 0, 0, 0
NKF4, 22355713, 0, 0, 0, 0, 0, 6.419632E-06, 0, 0, 0, 19, 229, 0, 0
NKF5, 22355713, 0, 0, 0, 0, 0.2, 0.13, 0, 0.19, 0.5, 2.269423E-05, 0.0009214089, 0.001200738
NKQ1, 22355713, 0.9998909, -0.002586741, 0.00913601, -0.01132366
AHR2, 22355760, 0.16, 0.71, 358.47, -0.02, 0, 0, 0.9998912, 0.001493861, 0.006213411, -0.01329912
MOTB, 22355767, 1, 1, 0, 1
RCIN, 22355771, 0, 0, 0, 0, 0, 0, 0, 0, 0, 0, 0, 0, 0, 0
RCOU, 22355777, 1101, 1101, 1101, 1101, 0, 0, 0, 0, 0, 0, 0, 0, 0, 0
VIBE, 22355786, 0.02255995, 0.02695075, 0.04506533, 0, 0, 0
CTRL, 22355792, 0.001714413, 0.0001540683, 0.006519926, 0.0002656144, 0.0003725644
PRX, 22355823, 1, 0, 0, 0, 0, 0, 0, 0, 0, 0, 0, 0
IMU, 22375508, 0.0002591283, 0.001646049, -0.001123997, 0.1963065, 0.04873367, -9.811984, 0, 0, 40.18375, 1, 1, 1000, 1000
RFND, 22405308, 0.2, 25, 0, 0
IMU, 22415817, 0.0005162755, 0.0001950363, -0.001896642, 0.1683448, 0.05948947, -9.793804, 0, 0, 40.18487, 1, 1, 1000, 1000
MAG, 22455465, 214, 167, 570, 0, 0, 0, 0, 0, 0, 1, 22455456
RFND, 22455498, 0.2, 25, 0, 0
BARO, 22455534, -0.1243317, 983.3396, 39.06, -0.3394619, 22455, 0, 35
CTUN, 22455620, 0, 0, 0, 0.3082991, 0.07940312, 0.07940312, -0.12, 0, 0.19, 0, 0, 1
DU32, 22455662, 7, 50390488
ATT, 22455846, 0, 0.16, 0, 0.61, 358.68, 358.69, 0, 1
RATE, 22455853, -0.7400266, 0.05933352, -0.00177576, -2.756443, -0.02841247, -0.006259107, 0.006157804, -0.1681104, 0.0003757836, -438.3564, -1.602268, 0
NKF1, 22455860, 0.16, 0.61, 358.68, 0.0083582, -0.00686665, -0.01082361, 0, 0, 0, -0.07940312, -0.01, 0.06, 0
NKF2, 22455860, 0, 0, 0, 0, 0, 0, 0, 0, 0, 0, 0, 0, 0
NKF3, 22455860, 0, 0, 0, 0, 0, 0, 0, 0, 0, 0, 0
NKF4, 22455860, 0, 0, 0, 0, 0, 4.352099E-06, 0, 0, 0, 19, 229, 0, 0
NKF5, 22455860, 0, 0, 0, 0, 0.2, 0.13, 0, 0.19, 0.5, 2.966649E-05, 0.001012106, 0.001623653
NKQ1, 22455860, 0.9998899, -0.002555415, 0.00912217, -0.01142493
AHR2, 22455902, 0.16, 0.71, 358.46, -0.12, 0, 0, 0.9998896, 0.001525847, 0.006238281, -0.01340069
MOTB, 22455909, 1, 1, 0, 1
RCIN, 22455913, 0, 0, 0, 0, 0, 0, 0, 0, 0, 0, 0, 0, 0, 0
RCOU, 22455919, 1101, 1101, 1101, 1101, 0, 0, 0, 0, 0, 0, 0, 0, 0, 0
VIBE, 22455928, 0.02533603, 0.02592604, 0.04093095, 0, 0, 0
CTRL, 22455933, 0.001749016, 0.000162774, 0.006509286, 0.0002393341, 0.0003614459
PRX, 22455964, 1, 0, 0, 0, 0, 0, 0, 0, 0, 0, 0, 0
IMU, 22455971, 0.0008331788, 0.0006079629, -0.002933189, 0.1720557, 0.04089615, -9.788119, 0, 0, 40.18654, 1, 1, 1000, 1000
IMU, 22495528, -0.001884749, 0.00148604, -0.002932143, 0.1882873, 0.06285329, -9.789492, 0, 0, 40.18813, 1, 1, 1000, 1000
RFND, 22505751, 0.2, 25, 0, 0
IMU, 22535502, -0.0005311323, 0.001843998, -0.001924556, 0.1979272, 0.0692205, -9.806778, 0, 0, 40.18894, 1, 1, 1000, 1000
MAG, 22555453, 213, 169, 567, 0, 0, 0, 0, 0, 0, 1, 22555445
RFND, 22555486, 0.2, 25, 0, 0
BARO, 22555522, -0.1582403, 983.3434, 39.06, -0.2065308, 22555, 0, 35
CTUN, 22555536, 0, 0, 0, 0.3082991, 0.07962754, 0.07962754, -0.15, 0, 0.19, 0, 0, 1
ATT, 22555707, 0, 0.16, 0, 0.61, 358.67, 358.68, 0, 1
RATE, 22555713, -0.7273734, -0.005345703, -0.001698169, -2.76555, -0.01989055, -0.006257972, 0.004452598, -0.1225789, 0.0004103055, -414.5217, -1.782608, 0
NKF1, 22555721, 0.16, 0.61, 358.67, 0.009295546, -0.006353881, -0.0102351, 0, 0, 0, -0.07962754, -0.01, 0.06, 0
NKF2, 22555721, 0, 0, 0, 0, 0, 0, 0, 0, 0, 0, 0, 0, 0
NKF3, 22555721, 0, 0, 0, 0, 0, 0, 0, 0, 0, 0, 0
NKF4, 22555721, 0, 0, 0, 0, 0, 2.953818E-06, 0, 0, 0, 19, 229, 0, 0
NKF5, 22555721, 0, 0, 0, 0, 0.2, 0.13, 0, 0.19, 0.5, 3.433972E-05, 0.0009134082, 0.001197257
NKQ1, 22555721, 0.9998884, -0.002579774, 0.009140131, -0.01154019
AHR2, 22555768, 0.16, 0.72, 358.45, -0.15, 0, 0, 0.9998877, 0.001501478, 0.006295315, -0.01351606
MOTB, 22555775, 1, 1, 0, 1
RCIN, 22555779, 0, 0, 0, 0, 0, 0, 0, 0, 0, 0, 0, 0, 0, 0
RCOU, 22555785, 1101, 1101, 1101, 1101, 0, 0, 0, 0, 0, 0, 0, 0, 0, 0
VIBE, 22555793, 0.03006457, 0.02466066, 0.03641611, 0, 0, 0
CTRL, 22555800, 0.001729708, 0.0001626629, 0.006523321, 0.0002376482, 0.0003884484
PRX, 22555831, 1, 0, 0, 0, 0, 0, 0, 0, 0, 0, 0, 0
IMU, 22575528, -0.0007340899, -0.0009868738, -0.001173228, 0.1749151, 0.05694953, -9.795506, 0, 0, 40.18985, 1, 1, 1000, 1000
RFND, 22605394, 0.2, 25, 0, 0
IMU, 22615639, -0.0001589875, 0.001039476, -0.002152492, 0.1789108, 0.03634004, -9.816034, 0, 0, 40.19106, 1, 1, 1000, 1000
MAG, 22655458, 216, 169, 566, 0, 0, 0, 0, 0, 0, 1, 22655449
RFND, 22655491, 0.2, 25, 0, 0
BARO, 22655527, -0.1582403, 983.3434, 39.06, -0.2393031, 22655, 0, 35
CTUN, 22655603, 0, 0, 0, 0.3082991, 0.07970047, 0.07970047, -0.15, 0, 0.19, 0, 0, 0
ATT, 22655709, 0, 0.16, 0, 0.61, 358.66, 358.67, 0, 1
RATE, 22655715, -0.7291499, 0.0731691, -0.002107028, -2.752143, 0.00400107, -0.006675397, 0.007205794, -0.1765167, 0.0004105163, -389.7415, 0.8020401, 0
NKF1, 22655722, 0.16, 0.61, 358.66, 0.009356619, -0.007395256, -0.009623247, 0, 0, 0, -0.07970047, -0.01, 0.06, 0
NKF2, 22655722, 0, 0, 0, 0, 0, 0, 0, 0, 0, 0, 0, 0, 0
NKF3, 22655722, 0, 0, 0, 0, 0, 0, 0, 0, 0, 0, 0
NKF4, 22655722, 0, 0, 0, 0, 0, 2.045419E-06, 0, 0, 0, 19, 229, 0, 0
NKF5, 22655722, 0, 0, 0, 0, 0.2, 0.13, 0, 0.19, 0.5, 3.700413E-05, 0.0009668458, 0.001532676
NKQ1, 22655722, 0.9998872, -0.002574384, 0.00911452, -0.011653
AHR2, 22655768, 0.16, 0.72, 358.43, -0.15, 0, 0, 0.9998861, 0.001502876, 0.00630928, -0.01362895
MOTB, 22655774, 1, 1, 0, 1
RCIN, 22655779, 0, 0, 0, 0, 0, 0, 0, 0, 0, 0, 0, 0, 0, 0
RCOU, 22655785, 1101, 1101, 1101, 1101, 0, 0, 0, 0, 0, 0, 0, 0, 0, 0
VIBE, 22655793, 0.02555563, 0.02319397, 0.040312, 0, 0, 0
CTRL, 22655800, 0.001724549, 0.0001518955, 0.006488059, 0.000226583, 0.0003880712
PRX, 22655830, 1, 0, 0, 0, 0, 0, 0, 0, 0, 0, 0, 0
IMU, 22655837, 0.001074214, 0.001175954, -0.003079908, 0.1816426, 0.04825524, -9.812019, 0, 0, 40.19154, 1, 1, 1000, 1000
IMU, 22695801, -0.0002969268, 0.002363247, -0.001872911, 0.1718134, 0.06749389, -9.801479, 0, 0, 40.19141, 1, 1, 1000, 1000
RFND, 22705303, 0.2, 25, 0, 0
IMU, 22735511, -0.0001816135, 0.001723981, -0.001736404, 0.1761638, 0.04046439, -9.79965, 0, 0, 40.19129, 1, 1, 1000, 1000
MAG, 22755428, 211, 164, 567, 0, 0, 0, 0, 0, 0, 1, 22755420
RFND, 22755457, 0.2, 25, 0, 0
BARO, 22755495, -0.1299831, 983.3401, 39.06, -0.307297, 22755, 0, 35
CTUN, 22755508, 0, 0, 0, 0.3082991, 0.07978448, 0.07978448, -0.12, 0, 0.19, 0, 0, 0
ATT, 22755694, 0, 0.16, 0, 0.61, 358.65, 358.66, 0, 1
RATE, 22755700, -0.7295271, -0.007865308, -0.001626996, -2.756362, 0.04057703, -0.006528535, 0.006099803, -0.09375165, 0.0003557427, -350.1986, -0.535965, 0
NKF1, 22755708, 0.16, 0.61, 358.65, 0.009109654, -0.007286868, -0.008646879, 0, 0, 0, -0.07978448, -0.01, 0.06, 0
NKF2, 22755708, 0, 0, 0, 0, 0, 0, 0, 0, 0, 0, 0, 0, 0
NKF3, 22755708, 0, 0, 0, 0, 0, 0, 0, 0, 0, 0, 0
NKF4, 22755708, 0, 0, 0, 0, 0, 1.450541E-06, 0, 0, 0, 19, 229, 0, 0
NKF5, 22755708, 0, 0, 0, 0, 0.2, 0.13, 0, 0.19, 0.5, 3.841215E-05, 0.0008772858, 0.00116709
NKQ1, 22755708, 0.9998862, -0.002574139, 0.009124506, -0.01174193
AHR2, 22755754, 0.16, 0.73, 358.42, -0.12, 0, 0, 0.9998845, 0.001499804, 0.006357768, -0.01371805
MOTB, 22755760, 1, 1, 0, 1
RCIN, 22755765, 0, 0, 0, 0, 0, 0, 0, 0, 0, 0, 0, 0, 0, 0
RCOU, 22755771, 1101, 1101, 1101, 1101, 0, 0, 0, 0, 0, 0, 0, 0, 0, 0
VIBE, 22755779, 0.0245683, 0.02181062, 0.0333125, 0, 0, 0
CTRL, 22755786, 0.001734698, 0.000160818, 0.006499157, 0.0002203046, 0.0003935185
PRX, 22755817, 1, 0, 0, 0, 0, 0, 0, 0, 0, 0, 0, 0
IMU, 22775672, -0.0005238301, -0.0006406555, -0.002635173, 0.1930415, 0.06113382, -9.808969, 0, 0, 40.19162, 1, 1, 1000, 1000
RFND, 22805366, 0.2, 25, 0, 0
IMU, 22815518, -0.0006574813, 0.001414841, -0.002640083, 0.1756045, 0.04969079, -9.811568, 0, 0, 40.19106, 1, 1, 1000, 1000
MAG, 22855425, 216, 166, 574, 0, 0, 0, 0, 0, 0, 1, 22855416
RFND, 22855456, 0.2, 25, 0, 0
BARO, 22855494, -0.1299831, 983.3405, 39.07, -0.1907361, 22855, 0, 35
CTUN, 22855507, 0, 0, 0, 0.3082991, 0.07962335, 0.07962335, -0.12, 0, 0.19, 0, 0, 0
ATT, 22855676, 0, 0.16, 0, 0.61, 358.63, 358.65, 0, 1
RATE, 22855683, -0.7258384, -0.01236277, -0.001552824, -2.748692, 0.01440789, -0.006510767, 0.006068119, -0.08443417, 0.0003402119, -347.0126, 1.001644, 0
NKF1, 22855691, 0.16, 0.61, 358.64, 0.00932015, -0.007994088, -0.008568212, 0, 0, 0, -0.07962335, -0.01, 0.06, 0
NKF2, 22855691, 0, 0, 0, 0, 0, 0, 0, 0, 0, 0, 0, 0, 0
NKF3, 22855691, 0, 0, 0, 0, 0, 0, 0, 0, 0, 0, 0
NKF4, 22855691, 0, 0, 0, 0, 0, 1.084493E-06, 0, 0, 0, 19, 229, 0, 0
NKF5, 22855691, 0, 0, 0, 0, 0.2, 0.13, 0, 0.19, 0.5, 3.863523E-05, 0.0008943914, 0.001386226
NKQ1, 22855691, 0.9998851, -0.002581284, 0.009108171, -0.01184031
AHR2, 22855735, 0.16, 0.73, 358.41, -0.12, 0, 0, 0.9998831, 0.001490353, 0.006375301, -0.01381644
MOTB, 22855742, 1, 1, 0, 1
RCIN, 22855746, 0, 0, 0, 0, 0, 0, 0, 0, 0, 0, 0, 0, 0, 0
RCOU, 22855752, 1101, 1101, 1101, 1101, 0, 0, 0, 0, 0, 0, 0, 0, 0, 0
VIBE, 22855760, 0.02230104, 0.02400359, 0.03484422, 0, 0, 0
CTRL, 22855767, 0.001728219, 0.0001589628, 0.006482331, 0.0002276549, 0.0003885682
PRX, 22855798, 1, 0, 0, 0, 0, 0, 0, 0, 0, 0, 0, 0
IMU, 22855805, -0.0004189065, 0.001359062, -0.001472768, 0.1715391, 0.03546675, -9.814333, 0, 0, 40.19097, 1, 1, 1000, 1000
IMU, 22895538, -0.001005245, 0.001002666, -0.001231405, 0.1876765, 0.05295797, -9.804861, 0, 0, 40.19096, 1, 1, 1000, 1000
RFND, 22905348, 0.2, 25, 0, 0
IMU, 22935756, 0.0003939015, 0.0007389177, -0.001350236, 0.1853954, 0.06645185, -9.807659, 0, 0, 40.19018, 1, 1, 1000, 1000
MAG, 22956224, 212, 166, 567, 0, 0, 0, 0, 0, 0, 1, 22955852
RFND, 22956266, 0.2, 25, 0, 0
BARO, 22956524, -0.1525889, 983.3427, 39.07, -0.001701435, 22956, 0, 35
CTUN, 22956596, 0, 0, 0, 0.3082991, 0.07955, 0.07955, -0.15, 0, 0.19, 0, 0, 0
ATT, 22956704, 0, 0.15, 0, 0.6, 358.62, 358.63, 0, 1
RATE, 22956710, -0.7114946, -0.01285077, -0.001568329, -2.739441, -0.03239232, -0.006288288, 0.002558096, -0.1280075, 0.0003846646, -308.5704, -0.6670952, 0
NKF1, 22956718, 0.15, 0.6, 358.62, 0.00989441, -0.007497717, -0.007619023, 0, 0, 0, -0.07955, -0.01, 0.06, 0
NKF2, 22956718, 0, 0, 0, 0, 0, 0, 0, 0, 0, 0, 0, 0, 0
NKF3, 22956718, 0, 0, 0, 0, 0, 0, 0, 0, 0, 0, 0
NKF4, 22956718, 0, 0, 0, 0, 0, 8.540225E-07, 0, 0, 0, 19, 229, 0, 0
NKF5, 22956718, 0, 0, 0, 0, 0.2, 0.13, 0, 0.19, 0.5, 3.821029E-05, 0.0009989296, 0.001839366
NKQ1, 22956718, 0.999884, -0.002607348, 0.009091147, -0.01194145
AHR2, 22956766, 0.15, 0.73, 358.4, -0.15, 0, 0, 0.9998817, 0.001461714, 0.006391768, -0.01391749
MOTB, 22956773, 1, 1, 0, 1
RCIN, 22956777, 0, 0, 0, 0, 0, 0, 0, 0, 0, 0, 0, 0, 0, 0
RCOU, 22956782, 1101, 1101, 1101, 1101, 0, 0, 0, 0, 0, 0, 0, 0, 0, 0
VIBE, 22956792, 0.02325294, 0.02159277, 0.03470397, 0, 0, 0
CTRL, 22956799, 0.001696736, 0.0001747343, 0.006461454, 0.0002005242, 0.0003831738
PRX, 22956831, 1, 0, 0, 0, 0, 0, 0, 0, 0, 0, 0, 0
IMU, 22977806, -7.710417E-05, 0.001791804, -0.001458809, 0.1823892, 0.05051301, -9.818016, 0, 0, 40.19051, 1, 1, 1000, 1000
RFND, 23007241, 0.2, 25, 0, 0
IMU, 23017389, -6.944354E-06, 0.001528921, -0.001867567, 0.1736259, 0.04558849, -9.785467, 0, 0, 40.19015, 1, 1, 1000, 1000
MAG, 23057362, 217, 171, 574, 0, 0, 0, 0, 0, 0, 1, 23057353
RFND, 23057397, 0.2, 25, 0, 0
BARO, 23057432, -0.231709, 983.3516, 39.07, 0.01775459, 23057, 0, 35
CTUN, 23057444, 0, 0, 0, 0.3082991, 0.07929339, 0.07929339, -0.23, 0, 0.19, 0, 0, 0
ATT, 23057624, 0, 0.15, 0, 0.6, 358.61, 358.62, 0, 1
RATE, 23057631, -0.7150061, -0.02419059, -0.001426828, -2.741422, -0.008026432, -0.006498768, 0.003760612, -0.09231724, 0.0003628925, -270.2332, -2.020359, 0
NKF1, 23057639, 0.15, 0.6, 358.61, 0.009361186, -0.008419818, -0.006672425, 0, 0, 0, -0.07929339, -0.01, 0.06, 0
NKF2, 23057639, 0, 0, 0, 0, 0, 0, 0, 0, 0, 0, 0, 0, 0
NKF3, 23057639, 0, 0, 0, 0, 0, 0, 0, 0, 0, 0, 0
NKF4, 23057639, 0, 0, 0, 0, 0, 7.393012E-07, 0, 0, 0, 19, 229, 0, 0
NKF5, 23057639, 0, 0, 0, 0, 0.2, 0.13, 0, 0.19, 0.5, 3.789052E-05, 0.0008120992, 0.001203563
NKQ1, 23057639, 0.9998829, -0.002600202, 0.009095944, -0.01203594
AHR2, 23057683, 0.15, 0.73, 358.39, -0.23, 0, 0, 0.9998801, 0.001465213, 0.006428425, -0.01401215
MOTB, 23057691, 1, 1, 0, 1
RCIN, 23057696, 0, 0, 0, 0, 0, 0, 0, 0, 0, 0, 0, 0, 0, 0
RCOU, 23057701, 1101, 1101, 1101, 1101, 0, 0, 0, 0, 0, 0, 0, 0, 0, 0
VIBE, 23057710, 0.02257546, 0.02025799, 0.03751365, 0, 0, 0
CTRL, 23057716, 0.001706763, 0.0001615186, 0.006465284, 0.0001962294, 0.0003773502
PRX, 23057748, 1, 0, 0, 0, 0, 0, 0, 0, 0, 0, 0, 0
IMU, 23057754, -0.0006253023, 0.0009670218, -0.00161036, 0.175654, 0.0414398, -9.784067, 0, 0, 40.19033, 1, 1, 1000, 1000
IMU, 23097426, 0.0009439712, 0.001241971, -0.001615817, 0.1790483, 0.06561051, -9.79975, 0, 0, 40.1903, 1, 1, 999, 999
RFND, 23107280, 0.2, 25, 0, 0
IMU, 23137439, 0.001280575, 0.001198695, -0.001719143, 0.207205, 0.04569144, -9.807832, 0, 0, 40.1904, 1, 1, 999, 999
MAG, 23157525, 214, 164, 573, 0, 0, 0, 0, 0, 0, 1, 23157517
RFND, 23157651, 0.2, 25, 0, 0
BARO, 23157689, -0.231709, 983.3511, 39.07, -0.1494075, 23157, 0, 35
CTUN, 23157703, 0, 0, 0, 0.3082991, 0.0789618, 0.0789618, -0.23, 0, 0.19, 0, 0, 0
ATT, 23157805, 0, 0.16, 0, 0.61, 358.6, 358.61, 0, 1
RATE, 23157811, -0.7232354, -0.03613871, -0.001316015, -2.752263, -0.01485376, -0.006493382, 0.004458845, -0.09351989, 0.0003412167, -242.9183, -0.2092361, 0
NKF1, 23157818, 0.16, 0.61, 358.6, 0.01022276, -0.008516897, -0.005997981, 0, 0, 0, -0.0789618, -0.01, 0.06, 0
NKF2, 23157818, 0, 0, 0, 0, 0, 0, 0, 0, 0, 0, 0, 0, 0
NKF3, 23157818, 0, 0, 0, 0, 0, 0, 0, 0, 0, 0, 0
NKF4, 23157818, 0, 0, 0, 0, 0, 6.910208E-07, 0, 0, 0, 19, 229, 0, 0
NKF5, 23157818, 0, 0, 0, 0, 0.2, 0.13, 0, 0.19, 0.5, 3.703517E-05, 0.0008657016, 0.00151304
NKQ1, 23157818, 0.9998816, -0.002583095, 0.009117316, -0.0121201
AHR2, 23157865, 0.15, 0.74, 358.38, -0.23, 0, 0, 0.9998786, 0.001478651, 0.006481271, -0.01409659
MOTB, 23157872, 1, 1, 0, 1
RCIN, 23157877, 0, 0, 0, 0, 0, 0, 0, 0, 0, 0, 0, 0, 0, 0
RCOU, 23157882, 1101, 1101, 1101, 1101, 0, 0, 0, 0, 0, 0, 0, 0, 0, 0
VIBE, 23157891, 0.0247478, 0.0232744, 0.03497406, 0, 0, 0
CTRL, 23157897, 0.00172802, 0.0001788275, 0.006484839, 0.0001918784, 0.000363912
PRX, 23157927, 1, 0, 0, 0, 0, 0, 0, 0, 0, 0, 0, 0
IMU, 23177441, -0.0004675129, 0.001241181, -0.002459858, 0.1773436, 0.04776484, -9.80051, 0, 0, 40.18954, 1, 1, 999, 999
RFND, 23207737, 0.2, 25, 0, 0
IMU, 23217719, -0.0005732874, 0.0001274659, -0.002405712, 0.1854538, 0.04973987, -9.801382, 0, 0, 40.18913, 1, 1, 999, 999
MAG, 23257720, 217, 169, 569, 0, 0, 0, 0, 0, 0, 1, 23257711
RFND, 23257750, 0.2, 25, 0, 0
BARO, 23257787, -0.2204061, 983.3499, 39.07, -0.3032601, 23257, 0, 35
CTUN, 23257800, 0, 0, 0, 0.3082991, 0.07864023, 0.07864023, -0.22, 0, 0.19, 0, 0, 0
ATT, 23257902, 0, 0.15, 0, 0.6, 358.59, 358.6, 0, 1
RATE, 23257908, -0.7174766, 0.005080663, -0.001864665, -2.730628, -0.07589883, -0.006098014, 0.004514061, -0.1214702, 0.0003668402, -206.8382, -0.7331848, 0
NKF1, 23257916, 0.15, 0.6, 358.59, 0.01043343, -0.008839378, -0.005107117, 0, 0, 0, -0.07864023, -0.01, 0.06, 0
NKF2, 23257916, 0, 0, 0, 0, 0, 0, 0, 0, 0, 0, 0, 0, 0
NKF3, 23257916, 0, 0, 0, 0, 0, 0, 0, 0, 0, 0, 0
NKF4, 23257916, 0, 0, 0, 0, 0, 6.926376E-07, 0, 0, 0, 19, 229, 0, 0
NKF5, 23257916, 0, 0, 0, 0, 0.2, 0.13, 0, 0.19, 0.5, 3.681233E-05, 0.0007382649, 0.001028849
NKQ1, 23257916, 0.9998808, -0.002593366, 0.009075339, -0.01222248
AHR2, 23257961, 0.15, 0.74, 358.37, -0.22, 0, 0, 0.9998772, 0.001463403, 0.006473959, -0.01419888
MOTB, 23257967, 1, 1, 0, 1
RCIN, 23257971, 0, 0, 0, 0, 0, 0, 0, 0, 0, 0, 0, 0, 0, 0
RCOU, 23257977, 1101, 1101, 1101, 1101, 0, 0, 0, 0, 0, 0, 0, 0, 0, 0
VIBE, 23257986, 0.0244434, 0.02216702, 0.03701583, 0, 0, 0
CTRL, 23257992, 0.001704478, 0.0001632364, 0.006447377, 0.0001713173, 0.0003609557
PRX, 23258023, 1, 0, 0, 0, 0, 0, 0, 0, 0, 0, 0, 0
IMU, 23258030, -0.0001143777, -0.0002181903, -0.002119184, 0.1753772, 0.0482859, -9.796971, 0, 0, 40.18917, 1, 1, 999, 999
IMU, 23297385, 0.0002736415, 0.0004759081, -0.002452199, 0.1919703, 0.05311532, -9.815364, 0, 0, 40.18917, 1, 1, 999, 999
RFND, 23307287, 0.2, 25, 0, 0
IMU, 23337819, -6.346991E-07, 0.001161332, -0.002169365, 0.1870252, 0.05012427, -9.789924, 0, 0, 40.18923, 1, 1, 999, 999
MAG, 23357304, 215, 165, 568, 0, 0, 0, 0, 0, 0, 1, 23357295
RFND, 23357334, 0.2, 25, 0, 0
BARO, 23357370, -0.1130288, 983.3381, 39.07, -0.230196, 23357, 0, 35
CTUN, 23357383, 0, 0, 0, 0.3082991, 0.07806302, 0.07806302, -0.11, 0, 0.19, 0, 0, 0
ATT, 23357486, 0, 0.15, 0, 0.6, 358.58, 358.59, 0, 1
RATE, 23357492, -0.7129672, -0.01287091, -0.001615565, -2.72745, 0.04030336, -0.006665789, 0.005819406, -0.1424134, 0.0003966291, -150.554, -1.239586, 0
NKF1, 23357500, 0.15, 0.6, 358.58, 0.0112262, -0.009184837, -0.003717382, 0, 0, 0, -0.07806302, -0.01, 0.06, 0
NKF2, 23357500, 0, 0, 0, 0, 0, 0, 0, 0, 0, 0, 0, 0, 0
NKF3, 23357500, 0, 0, 0, 0, -0.01, 0, 0, 0, 0, 0, 0
NKF4, 23357500, 0, 0, 0, 0, 0, 7.521534E-07, 0, 0, 0, 19, 229, 0, 0
NKF5, 23357500, 0, 0, 0, 0, 0.2, 0.13, 0, 0.19, 0.5, 3.587697E-05, 0.0007496841, 0.001203822
NKQ1, 23357500, 0.9998794, -0.002600899, 0.009068645, -0.01234295
AHR2, 23357630, 0.15, 0.74, 358.36, -0.11, 0, 0, 0.9998753, 0.001451365, 0.006500801, -0.01431942
MOTB, 23357641, 1, 1, 0, 1
RCIN, 23357645, 0, 0, 0, 0, 0, 0, 0, 0, 0, 0, 0, 0, 0, 0
RCOU, 23357651, 1101, 1101, 1101, 1101, 0, 0, 0, 0, 0, 0, 0, 0, 0, 0
VIBE, 23357660, 0.02292153, 0.02130515, 0.03634871, 0, 0, 0
CTRL, 23357666, 0.00170146, 0.0001708204, 0.006430132, 0.0001830099, 0.0003749249
PRX, 23357697, 1, 0, 0, 0, 0, 0, 0, 0, 0, 0, 0, 0
IMU, 23377354, 8.04929E-05, 0.0006319293, -0.002666459, 0.1643472, 0.03842172, -9.821757, 0, 0, 40.18931, 1, 1, 999, 999
RFND, 23407241, 0.2, 25, 0, 0
IMU, 23418125, -0.000460238, 0.001287453, -0.001099778, 0.1957295, 0.07458881, -9.788647, 0, 0, 40.18916, 1, 1, 999, 999
MAG, 23457262, 214, 172, 566, 0, 0, 0, 0, 0, 0, 1, 23457254
RFND, 23457292, 0.2, 25, 0, 0
BARO, 23457328, -0.1695432, 983.3448, 39.07, 0.05466607, 23457, 0, 35
CTUN, 23457341, 0, 0, 0, 0.3082991, 0.07762944, 0.07762944, -0.16, 0, 0.19, 0, 0, 0
DU32, 23457378, 7, 50390488
ATT, 23457514, 0, 0.15, 0, 0.6, 358.57, 358.58, 0, 1
RATE, 23457520, -0.7076171, -0.03209174, -0.001567799, -2.727389, -0.05309594, -0.005845527, 0.005299354, -0.1085271, 0.0003723649, -141.531, 1.67923, 0
NKF1, 23457528, 0.15, 0.6, 358.57, 0.01126894, -0.00956447, -0.003494591, 0, 0, 0, -0.07762944, -0.01, 0.06, 0
NKF2, 23457528, 0, 0, 0, 0, 0, 0, 0, 0, 0, 0, 0, 0, 0
NKF3, 23457528, 0, 0, 0, 0, -0.01, 0, 0, 0, 0, 0, 0
NKF4, 23457528, 0, 0, 0, 0, 0, 8.114432E-07, 0, 0, 0, 19, 229, 0, 0
NKF5, 23457528, 0, 0, 0, 0, 0.2, 0.13, 0, 0.19, 0.5, 3.561899E-05, 0.0006800243, 0.0008981045
NKQ1, 23457528, 0.9998782, -0.002611244, 0.009068655, -0.01243573
AHR2, 23457663, 0.15, 0.75, 358.34, -0.16, 0, 0, 0.9998738, 0.001438369, 0.006534564, -0.01441229
MOTB, 23457671, 1, 1, 0, 1
RCIN, 23457676, 0, 0, 0, 0, 0, 0, 0, 0, 0, 0, 0, 0, 0, 0
RCOU, 23457681, 1101, 1101, 1101, 1101, 0, 0, 0, 0, 0, 0, 0, 0, 0, 0
VIBE, 23457690, 0.02369207, 0.0244957, 0.03582425, 0, 0, 0
CTRL, 23457696, 0.001688282, 0.0001488908, 0.006438852, 0.0001742048, 0.0003799241
PRX, 23457727, 1, 0, 0, 0, 0, 0, 0, 0, 0, 0, 0, 0
IMU, 23457734, -0.0007634814, 0.0001810655, -0.001893295, 0.1588555, 0.03418485, -9.821534, 0, 0, 40.19031, 1, 1, 999, 999
IMU, 23497385, -0.0009925277, 0.001145987, -0.001613244, 0.1576931, 0.04296627, -9.795218, 0, 0, 40.19118, 1, 1, 999, 999
RFND, 23507229, 0.2, 25, 0, 0
IMU, 23537957, -0.0005889737, 0.00227112, -0.002185592, 0.220471, 0.06819955, -9.815912, 0, 0, 40.19183, 1, 1, 999, 999
MAG, 23557316, 217, 167, 565, 0, 0, 0, 0, 0, 0, 1, 23557308
RFND, 23557346, 0.2, 25, 0, 0
BARO, 23557382, -0.1751946, 983.345, 39.07, 0.2560926, 23557, 0, 35
CTUN, 23557395, 0, 0, 0, 0.3082991, 0.07696025, 0.07696025, -0.17, 0, 0.19, 0, 0, 0
ATT, 23557494, 0, 0.15, 0, 0.6, 358.55, 358.57, 0, 1
RATE, 23557501, -0.6912595, -0.04127471, -0.001519441, -2.735933, 0.04914293, -0.006240497, 0.006190393, -0.1371976, 0.000366773, -121.876, -0.04434586, 0
NKF1, 23557508, 0.15, 0.6, 358.56, 0.01203949, -0.009316251, -0.003009284, 0, 0, 0, -0.07696025, -0.01, 0.06, 0
NKF2, 23557508, 0, 0, 0, 0, 0, 0, 0, 0, 0, 0, 0, 0, 0
NKF3, 23557508, 0, 0, 0, 0.01, -0.01, 0, 0, 0, 0, 0, 0
NKF4, 23557508, 0, 0, 0, 0, 0, 9.431511E-07, 0, 0, 0, 19, 229, 0, 0
NKF5, 23557508, 0, 0, 0, 0, 0.2, 0.13, 0, 0.19, 0.5, 3.479716E-05, 0.000660775, 0.0009554973
NKQ1, 23557508, 0.9998767, -0.002641035, 0.009086454, -0.01253769
AHR2, 23557639, 0.15, 0.75, 358.33, -0.17, 0, 0, 0.999872, 0.001406062, 0.006585019, -0.01451431
MOTB, 23557647, 1, 1, 0, 1
RCIN, 23557652, 0, 0, 0, 0, 0, 0, 0, 0, 0, 0, 0, 0, 0, 0
RCOU, 23557657, 1101, 1101, 1101, 1101, 0, 0, 0, 0, 0, 0, 0, 0, 0, 0
VIBE, 23557666, 0.02871631, 0.02471707, 0.03647114, 0, 0, 0
CTRL, 23557672, 0.001652232, 0.0001338985, 0.006450615, 0.0002336751, 0.0003731171
PRX, 23557703, 1, 0, 0, 0, 0, 0, 0, 0, 0, 0, 0, 0
IMU, 23577347, 0.000327117, 0.0008816607, -0.002594084, 0.2057762, 0.07399355, -9.810793, 0, 0, 40.19275, 1, 1, 999, 999
RFND, 23607442, 0.2, 25, 0, 0
IMU, 23617394, 0.0008560733, 0.0009395439, -0.003511888, 0.1723368, 0.04744669, -9.832738, 0, 0, 40.19402, 1, 1, 999, 999
MAG, 23657277, 217, 168, 573, 0, 0, 0, 0, 0, 0, 1, 23657269
RFND, 23657307, 0.2, 25, 0, 0
BARO, 23657345, -0.2204061, 983.35, 39.07, 0.1536485, 23657, 0, 35
CTUN, 23657358, 0, 0, 0, 0.3082991, 0.0764654, 0.0764654, -0.22, 0, 0.19, 0, 0, 0
ATT, 23657510, 0, 0.15, 0, 0.6, 358.54, 358.55, 0, 1
RATE, 23657516, -0.7036757, -0.002163674, -0.001598648, -2.732766, 0.03408951, -0.006834752, 0.005023262, -0.1318721, 0.0005189762, -143.7092, -0.6817818, 0
NKF1, 23657523, 0.15, 0.6, 358.54, 0.0119163, -0.00983135, -0.003548375, 0, 0, 0, -0.0764654, -0.01, 0.06, 0
NKF2, 23657523, 0, 0, 0, 0, 0, 0, 0, 0, 0, 0, 0, 0, 0
NKF3, 23657523, 0, 0, 0, 0.01, -0.01, 0, 0, 0, 0, 0, 0
NKF4, 23657523, 0, 0, 0, 0, 0, 1.064491E-06, 0, 0, 0, 19, 229, 0, 0
NKF5, 23657523, 0, 0, 0, 0, 0.2, 0.13, 0, 0.19, 0.5, 3.377357E-05, 0.0007012942, 0.001184509
NKQ1, 23657523, 0.9998751, -0.002615543, 0.009081647, -0.01267733
AHR2, 23657658, 0.15, 0.75, 358.32, -0.22, 0, 0, 0.9998698, 0.001429962, 0.006607507, -0.0146542
MOTB, 23657666, 1, 1, 0, 1
RCIN, 23657671, 0, 0, 0, 0, 0, 0, 0, 0, 0, 0, 0, 0, 0, 0
RCOU, 23657677, 1101, 1101, 1101, 1101, 0, 0, 0, 0, 0, 0, 0, 0, 0, 0
VIBE, 23657685, 0.02407014, 0.02475284, 0.03822272, 0, 0, 0
CTRL, 23657692, 0.001675728, 0.0001311615, 0.006437389, 0.0002220243, 0.000403533
PRX, 23657723, 1, 0, 0, 0, 0, 0, 0, 0, 0, 0, 0, 0
IMU, 23657730, -0.0002415238, 0.001703409, -0.002300776, 0.163836, 0.03943131, -9.797907, 0, 0, 40.19505, 1, 1, 999, 999
IMU, 23697376, -0.0008681723, 0.002289225, -0.001211453, 0.195731, 0.04434071, -9.811233, 0, 0, 40.19662, 1, 1, 999, 999
RFND, 23707273, 0.2, 25, 0, 0
IMU, 23737412, -2.890452E-05, 0.001100012, -0.002083136, 0.178042, 0.06662835, -9.79899, 0, 0, 40.19856, 1, 1, 999, 999
MAG, 23757295, 212, 168, 572, 0, 0, 0, 0, 0, 0, 1, 23757287
RFND, 23757325, 0.2, 25, 0, 0
BARO, 23757362, -0.2260576, 983.351, 39.08, -0.09536803, 23757, 0, 35
CTUN, 23757375, 0, 0, 0, 0.3082991, 0.07593009, 0.07593009, -0.22, 0, 0.19, 0, 0, 0
ATT, 23757475, 0, 0.15, 0, 0.6, 358.53, 358.54, 0, 1
RATE, 23757481, -0.6891311, -0.01105918, -0.00147238, -2.736469, -0.004210024, -0.006514794, 0.005872491, -0.1316043, 0.0003716951, -113.3229, -1.185513, 0
NKF1, 23757488, 0.15, 0.6, 358.53, 0.01276956, -0.009551841, -0.002798096, 0, 0, 0, -0.07593009, -0.01, 0.06, 0
NKF2, 23757488, 0, 0, 0, 0, 0, 0, 0, 0, 0, 0, 0, 0, 0
NKF3, 23757488, 0, 0, 0, 0.01, -0.01, 0, 0, 0, 0, 0, 0
NKF4, 23757488, 0, 0, 0, 0, 0, 1.233507E-06, 0, 0, 0, 19, 229, 0, 0
NKF5, 23757488, 0, 0, 0, 0, 0.2, 0.13, 0, 0.19, 0.5, 3.395196E-05, 0.0005986673, 0.0007732331
NKQ1, 23757488, 0.9998738, -0.002643407, 0.009087255, -0.01276913
AHR2, 23757532, 0.14, 0.76, 358.31, -0.22, 0, 0, 0.9998683, 0.001399939, 0.006641258, -0.01474604
MOTB, 23757618, 1, 1, 0, 1
RCIN, 23757624, 0, 0, 0, 0, 0, 0, 0, 0, 0, 0, 0, 0, 0, 0
RCOU, 23757630, 1101, 1101, 1101, 1101, 0, 0, 0, 0, 0, 0, 0, 0, 0, 0
VIBE, 23757639, 0.02654874, 0.0247666, 0.04891246, 0, 0, 0
CTRL, 23757645, 0.001643944, 0.0001333146, 0.006445809, 0.0002041579, 0.0004079156
PRX, 23757676, 1, 0, 0, 0, 0, 0, 0, 0, 0, 0, 0, 0
IMU, 23777368, -0.0004755942, 0.003125464, -0.002516203, 0.1643111, 0.003271342, -9.826192, 0, 0, 40.20052, 1, 1, 999, 999
RFND, 23807502, 0.2, 25, 0, 0
IMU, 23817490, -0.0005999139, 0.000666452, -0.002543015, 0.2379254, 0.09874083, -9.768877, 0, 0, 40.20281, 1, 1, 999, 999
MAG, 23857330, 217, 165, 569, 0, 0, 0, 0, 0, 0, 1, 23857322
RFND, 23857360, 0.2, 25, 0, 0
BARO, 23857397, -0.1978004, 983.3476, 39.08, -0.213695, 23857, 0, 35
CTUN, 23857411, 0, 0, 0, 0.3082991, 0.07536589, 0.07536589, -0.19, 0, 0.19, 0, 0, 0
ATT, 23857510, 0, 0.15, 0, 0.6, 358.52, 358.53, 0, 1
RATE, 23857516, -0.6788288, -0.02230741, -0.001581812, -2.740489, -0.1916436, -0.004830447, 0.006625148, -0.1462105, 0.0003592581, -44.90113, -1.466942, 0
NKF1, 23857523, 0.15, 0.6, 358.52, 0.01366175, -0.0096357, -0.00110867, 0, 0, 0, -0.07536589, -0.01, 0.06, 0
NKF2, 23857523, 0, 0, 0, 0, 0, 0, 0, 0, 0, 0, 0, 0, 0
NKF3, 23857523, 0, 0, 0, 0.01, -0.01, 0, 0, 0, 0, 0, 0
NKF4, 23857523, 0, 0, 0, 0, 0, 1.409772E-06, 0, 0, 0, 19, 229, 0, 0
NKF5, 23857523, 0, 0, 0, 0, 0.2, 0.13, 0, 0.19, 0.5, 3.286475E-05, 0.0005980381, 0.000858127
NKQ1, 23857523, 0.9998723, -0.002661723, 0.00909665, -0.01287407
AHR2, 23858081, 0.14, 0.76, 358.29, -0.19, 0, 0, 0.9998664, 0.001375195, 0.006681995, -0.01485112
MOTB, 23858090, 1, 1, 0, 1
RCIN, 23858095, 0, 0, 0, 0, 0, 0, 0, 0, 0, 0, 0, 0, 0, 0
RCOU, 23858101, 1101, 1101, 1101, 1101, 0, 0, 0, 0, 0, 0, 0, 0, 0, 0
VIBE, 23858110, 0.0705034, 0.04219531, 0.1158207, 0, 0, 0
CTRL, 23858116, 0.001621692, 0.0001374566, 0.00649053, 0.0004268579, 0.0004006853
PRX, 23858147, 1, 0, 0, 0, 0, 0, 0, 0, 0, 0, 0, 0
IMU, 23858156, -0.0005933442, -0.002236039, -0.002551053, 0.1904377, 0.05921096, -9.789507, 0, 0, 40.20477, 1, 1, 999, 999
IMU, 23898454, -0.000304834, 0.002141783, -0.001596114, 0.1236904, 0.05009069, -9.796312, 0, 0, 40.20627, 1, 1, 999, 999
RFND, 23907261, 0.2, 25, 0, 0
EV, 23926898, 57
IMU, 23937419, -0.0002511343, 0.003614456, -0.002758107, 0.2281368, 0.03994637, -9.794601, 0, 0, 40.2072, 1, 1, 999, 999
MAG, 23957270, 210, 164, 566, 0, 0, 0, 0, 0, 0, 1, 23957261
RFND, 23957300, 0.2, 25, 0, 0
BARO, 23957337, -0.2769205, 983.3564, 39.08, -0.166011, 23957, 0, 35
CTUN, 23957350, 0, 0, 0, 0.3082991, 0.07473514, 0.07473514, -0.27, 0, 0.19, 0, 0, 0
ATT, 23957453, 0, 0.15, 0, 0.6, 358.5, 358.52, 0, 1
RATE, 23957459, -0.6765031, -0.01358871, -0.001641428, -2.730918, -0.03388567, -0.005727775, 0.003588064, -0.09007006, 0.0003894724, -19.27255, -0.8654594, 0
NKF1, 23957467, 0.15, 0.6, 358.51, 0.01358961, -0.01075287, -0.0004758654, 0, 0, 0, -0.07473514, -0.01, 0.06, 0
NKF2, 23957467, 0, 0, 0, 0, 0, 0, 0, 0, 0, 0, 0, 0, 0
NKF3, 23957467, 0, 0, 0, 0.01, -0.01, 0, 0, 0, 0, 0, 0
NKF4, 23957467, 0, 0, 0, 0, 0, 1.61243E-06, 0, 0, 0, 19, 229, 0, 0
NKF5, 23957467, 0, 0, 0, 0, 0.2, 0.13, 0, 0.19, 0.5, 3.328598E-05, 0.0005682933, 0.0007255173
NKQ1, 23957467, 0.9998711, -0.002666668, 0.009079115, -0.01296841
AHR2, 23957512, 0.14, 0.76, 358.28, -0.27, 0, 0, 0.999865, 0.001364623, 0.006695473, -0.01494555
MOTB, 23957519, 1, 1, 0, 1
RCIN, 23957523, 0, 0, 0, 0, 0, 0, 0, 0, 0, 0, 0, 0, 0, 0
RCOU, 23957529, 1107, 1107, 1107, 1107, 0, 0, 0, 0, 0, 0, 0, 0, 0, 0
VIBE, 23957538, 0.0553966, 0.0325654, 0.06828555, 0, 0, 0
CTRL, 23957638, 0.00161493, 0.0001383186, 0.006460172, 0.000619429, 0.000394201
PRX, 23957670, 1, 0, 0, 0, 0, 0, 0, 0, 0, 0, 0, 0
IMU, 23977418, 0.0007464528, -0.0009627116, -0.002858895, 0.1588267, 0.0691579, -9.815164, 0, 0, 40.20779, 1, 1, 999, 999
RFND, 24007313, 0.2, 25, 0, 0
IMU, 24017385, 0.0004583929, -0.0007705612, -0.004158471, 0.1981198, 0.04172119, -9.829935, 0, 0, 40.20798, 1, 1, 999, 999
MAG, 24057279, 211, 169, 570, 0, 0, 0, 0, 0, 0, 1, 24057271
RFND, 24057309, 0.2, 25, 0, 0
BARO, 24057346, -0.2995263, 983.3586, 39.08, -0.1324556, 24057, 0, 35
CTUN, 24057359, 0, 0, 0, 0.3082991, 0.07405905, 0.07405905, -0.29, 0, 0.19, 0, 0, 0
ATT, 24057460, 0, 0.15, 0, 0.6, 358.49, 358.5, 0, 1
RATE, 24057466, -0.6938857, -0.01356732, -0.001253264, -2.725098, -0.01543572, -0.00571726, 0.003667606, -0.03382282, 0.0004374765, -34.34883, 0.5777359, 0
NKF1, 24057474, 0.15, 0.6, 358.49, 0.0127593, -0.0114827, -0.0008481192, 0, 0, 0, -0.07405905, -0.01, 0.06, 0
NKF2, 24057474, 0, 0, 0, 0, 0, 0, 0, 0, 0, 0, 0, 0, 0
NKF3, 24057474, 0, 0, 0, 0.01, -0.01, 0, 0, 0, 0, 0, 0
NKF4, 24057474, 0, 0, 0, 0, 0, 1.85324E-06, 0, 0, 0, 19, 229, 0, 0
NKF5, 24057474, 0, 0, 0, 0, 0.2, 0.13, 0, 0.19, 0.5, 3.211089E-05, 0.0005403176, 0.0006760653
NKQ1, 24057474, 0.9998697, -0.002633185, 0.009067697, -0.01309689
AHR2, 24057517, 0.14, 0.77, 358.27, -0.29, 0, 0, 0.9998628, 0.001398201, 0.006712747, -0.01507432
MOTB, 24057524, 1, 1, 0, 1
RCIN, 24057528, 0, 0, 0, 0, 0, 0, 0, 0, 0, 0, 0, 0, 0, 0
RCOU, 24057534, 1131, 1131, 1131, 1131, 0, 0, 0, 0, 0, 0, 0, 0, 0, 0
VIBE, 24057629, 0.03967829, 0.02709471, 0.04940687, 0, 0, 0
CTRL, 24057636, 0.00165069, 0.0001727672, 0.006440526, 0.0005737429, 0.0004121659
PRX, 24057667, 1, 0, 0, 0, 0, 0, 0, 0, 0, 0, 0, 0
IMU, 24057674, -0.0004410757, 0.0008396279, -0.0005895483, 0.1412601, 0.03904238, -9.810997, 0, 0, 40.20791, 1, 1, 999, 999
IMU, 24097881, -0.001214278, 0.003856585, -0.00182601, 0.1920731, 0.04892051, -9.815729, 0, 0, 40.20794, 1, 1, 1000, 1000
RFND, 24107258, 0.2, 25, 0, 0
IMU, 24137504, -0.0002122771, 0.0008660731, -0.0001799527, 0.1942131, 0.05595542, -9.785669, 0, 0, 40.20802, 1, 1, 1000, 1000
MAG, 24157277, 219, 165, 572, 0, 0, 0, 0, 0, 0, 1, 24157269
RFND, 24157307, 0.2, 25, 0, 0
BARO, 24157344, -0.3051777, 983.3591, 39.09, -0.2189933, 24157, 0, 35
CTUN, 24157357, 0, 0, 0, 0.3082991, 0.07351217, 0.07351217, -0.3, 0, 0.19, 0, 0, 0
ATT, 24157458, 0, 0.15, 0, 0.6, 358.48, 358.49, 0, 1
RATE, 24157465, -0.6912756, -0.0009900897, -0.001671067, -2.737377, 0.09971388, -0.007026407, 0.003672469, -0.04534335, 0.0002603243, -0.2472568, -1.359653, 0
NKF1, 24157472, 0.15, 0.6, 358.48, 0.01352171, -0.01147931, -6.105107E-06, 0, 0, 0, -0.07351217, -0.01, 0.06, 0
NKF2, 24157472, 0, 0, 0, 0, 0, 0, 0, 0, 0, 0, 0, 0, 0
NKF3, 24157472, 0, 0, 0, 0.01, -0.01, 0, 0, 0, 0, 0, 0
NKF4, 24157472, 0, 0, 0, 0, 0, 2.082935E-06, 0, 0, 0, 19, 229, 0, 0
NKF5, 24157472, 0, 0, 0, 0, 0.2, 0.13, 0, 0.19, 0.5, 3.274302E-05, 0.0005591578, 0.0007831909
NKQ1, 24157472, 0.9998686, -0.002637263, 0.009091006, -0.0131639
AHR2, 24157517, 0.14, 0.77, 358.26, -0.3, 0, 0, 0.9998615, 0.001394274, 0.006764283, -0.01514159
MOTB, 24157524, 1, 1, 0, 1
RCIN, 24157529, 0, 0, 0, 0, 0, 0, 0, 0, 0, 0, 0, 0, 0, 0
RCOU, 24157534, 1155, 1155, 1155, 1155, 0, 0, 0, 0, 0, 0, 0, 0, 0, 0
VIBE, 24157632, 0.03039415, 0.02419433, 0.04084847, 0, 0, 0
CTRL, 24157639, 0.001638888, 0.0001780509, 0.006445548, 0.0005508876, 0.0003954208
PRX, 24157670, 1, 0, 0, 0, 0, 0, 0, 0, 0, 0, 0, 0
IMU, 24177876, 0.0001357966, -0.001041121, -0.002582394, 0.1874205, 0.05758514, -9.792384, 0, 0, 40.20794, 1, 1, 1000, 1000
RFND, 24207264, 0.2, 25, 0, 0
IMU, 24217847, 0.0005017702, -0.000839996, -0.00343416, 0.2499263, 0.09074691, -9.801043, 0, 0, 40.20803, 1, 1, 1000, 1000
MAG, 24257291, 215, 168, 572, 0, 0, 0, 0, 0, 0, 1, 24257283
RFND, 24257321, 0.2, 25, 0, 0
BARO, 24257359, -0.412555, 983.3713, 39.09, -0.3178935, 24257, 0, 35
CTUN, 24257372, 0, 0, 0, 0.3082991, 0.07278156, 0.07278156, -0.41, 0, 0.19, 0, 0, 0
ATT, 24257475, 0, 0.15, 0, 0.6, 358.47, 358.48, 0, 1
RATE, 24257482, -0.7058612, 0.05688249, -0.001498098, -2.720565, 0.0748935, -0.006777331, 0.003731817, -0.156056, 0.0004845868, 22.74015, 2.745056, 0
NKF1, 24257489, 0.15, 0.6, 358.47, 0.01667507, -0.01053211, 0.0005614853, 0, 0, 0, -0.07278156, -0.01, 0.06, 0
NKF2, 24257489, 0, 0, 0, 0, 0, 0, 0, 0, 0, 0, 0, 0, 0
NKF3, 24257489, 0, 0, 0, 0.01, -0.01, 0, 0, 0, 0, 0, 0
NKF4, 24257489, 0, 0, 0, 0, 0, 2.405149E-06, 0, 0, 0, 19, 229, 0, 0
NKF5, 24257489, 0, 0, 0, 0, 0.2, 0.13, 0, 0.19, 0.5, 3.141137E-05, 0.0005193736, 0.0006599966
NKQ1, 24257489, 0.999867, -0.00260544, 0.009059226, -0.01331195
AHR2, 24257533, 0.15, 0.77, 358.24, -0.41, 0, 0, 0.9998593, 0.001422695, 0.006753331, -0.01528986
MOTB, 24257611, 1, 1, 0, 1
RCIN, 24257619, 0, 0, 0, 0, 0, 0, 0, 0, 0, 0, 0, 0, 0, 0
RCOU, 24257624, 1179, 1179, 1179, 1179, 0, 0, 0, 0, 0, 0, 0, 0, 0, 0
VIBE, 24257633, 0.04132133, 0.03247643, 0.04789959, 0, 0, 0
CTRL, 24257639, 0.001683111, 0.0001763153, 0.006415173, 0.0004951035, 0.0003982651
PRX, 24257669, 1, 0, 0, 0, 0, 0, 0, 0, 0, 0, 0, 0
IMU, 24257676, 0.0007881987, 0.002416342, -0.002722957, 0.1645577, 0.0449149, -9.832255, 0, 0, 40.20798, 1, 1, 1000, 1000
IMU, 24297359, -0.0005821364, 0.002121039, -0.0008145792, 0.1234085, -0.0218314, -9.878775, 0, 0, 40.20793, 1, 1, 1000, 1000
RFND, 24307257, 0.2, 25, 0, 0
IMU, 24337421, -0.000786698, 0.001509818, -0.002805004, 0.1925255, 0.05731037, -9.804368, 0, 0, 40.20802, 1, 1, 1000, 1000
MAG, 24358400, 214, 165, 568, 0, 0, 0, 0, 0, 0, 1, 24358391
RFND, 24358430, 0.2, 25, 0, 0
BARO, 24358466, -0.4012522, 983.3695, 39.09, -0.3672524, 24358, 0, 35
CTUN, 24358479, 0, 0, 0, 0.3082991, 0.07228836, 0.07228836, -0.4, 0, 0.19, 0, 0, 0
ATT, 24358646, 0, 0.15, 0, 0.6, 358.46, 358.47, 0, 1
RATE, 24358653, -0.6897802, -0.1270152, -0.001003737, -2.729048, 0.08726263, -0.006493981, 0.003649409, -0.02073198, 0.0003459052, -6.074896, -2.962399, 0
NKF1, 24358660, 0.15, 0.6, 358.46, 0.01440508, -0.01242333, -0.0001499974, 0, 0, 0, -0.07228836, -0.01, 0.06, 0
NKF2, 24358660, 0, 0, 0, 0, 0, 0, 0, 0, 0, 0, 0, 0, 0
NKF3, 24358660, 0, 0, 0, 0.02, -0.02, 0, 0, 0, 0, 0, 0
NKF4, 24358660, 0, 0, 0, 0, 0, 2.65187E-06, 0, 0, 0, 19, 229, 0, 0
NKF5, 24358660, 0, 0, 0, 0, 0.2, 0.13, 0, 0.19, 0.5, 3.001749E-05, 0.0005319382, 0.0006991939
NKQ1, 24358660, 0.9998659, -0.002638905, 0.009075697, -0.01337901
AHR2, 24358705, 0.14, 0.78, 358.24, -0.4, 0, 0, 0.9998581, 0.001386937, 0.006790925, -0.01535701
MOTB, 24358712, 1, 1, 0, 1
RCIN, 24358716, 0, 0, 0, 0, 0, 0, 0, 0, 0, 0, 0, 0, 0, 0
RCOU, 24358722, 1203, 1203, 1203, 1203, 0, 0, 0, 0, 0, 0, 0, 0, 0, 0
VIBE, 24358731, 0.04499359, 0.05972081, 0.0514062, 0, 0, 0
CTRL, 24358738, 0.001662992, 0.0001946852, 0.006440168, 0.0004474738, 0.0004043636
PRX, 24358769, 1, 0, 0, 0, 0, 0, 0, 0, 0, 0, 0, 0
IMU, 24377442, -0.0006246378, -0.0007005941, -0.003070506, 0.2307959, 0.1050039, -9.781668, 0, 0, 40.20792, 1, 1, 1000, 1000
RFND, 24407298, 0.2, 25, 0, 0
IMU, 24417661, -0.001640892, 0.002765683, -0.001144512, 0.1527148, 0.04434964, -9.787577, 0, 0, 40.20796, 1, 1, 1000, 1000
MAG, 24457297, 216, 171, 570, 0, 0, 0, 0, 0, 0, 1, 24457288
RFND, 24457327, 0.2, 25, 0, 0
BARO, 24457363, -0.4069036, 983.3703, 39.09, -0.3969792, 24457, 0, 35
CTUN, 24457376, 0, 0, 0, 0.3082991, 0.07166135, 0.07166135, -0.4, 0, 0.19, 0, 0, 0
DU32, 24457413, 7, 33613272
ATT, 24457626, 0, 0.15, 0, 0.6, 358.44, 358.45, 0, 1
RATE, 24457633, -0.6942861, 0.03584101, -0.001836529, -2.719168, -0.05143205, -0.006083613, 0.003666135, -0.1172191, 0.0004265977, 12.01199, 1.081944, 0
NKF1, 24457641, 0.15, 0.6, 358.44, 0.01788669, -0.01267625, 0.0002965925, 0, 0, 0, -0.07166135, -0.01, 0.06, 0
NKF2, 24457641, 0, 0, 0, 0, 0, 0, 0, 0, 0, 0, 0, 0, 0
NKF3, 24457641, 0, 0, 0, 0.02, -0.02, 0, 0, 0, 0, 0, 0
NKF4, 24457641, 0, 0, 0, 0, 0, 3.061265E-06, 0, 0, 0, 19, 229, 0, 0
NKF5, 24457641, 0, 0, 0, 0, 0.2, 0.13, 0, 0.19, 0.5, 3.069799E-05, 0.000526231, 0.0007729807
NKQ1, 24457641, 0.9998644, -0.002627166, 0.009056828, -0.01350444
AHR2, 24457685, 0.14, 0.78, 358.22, -0.4, 0, 0, 0.9998561, 0.001401174, 0.006799475, -0.01548262
MOTB, 24457693, 1, 1, 0, 1
RCIN, 24457697, 0, 0, 0, 0, 0, 0, 0, 0, 0, 0, 0, 0, 0, 0
RCOU, 24457703, 1225, 1232, 1221, 1234, 0, 0, 0, 0, 0, 0, 0, 0, 0, 0
VIBE, 24457712, 0.1456085, 0.1236969, 0.09499892, 0, 0, 0
CTRL, 24457718, 0.00164485, 0.0002850025, 0.006416752, 0.0004596213, 0.0003900029
PRX, 24457749, 1, 0, 0, 0, 0, 0, 0, 0, 0, 0, 0, 0
IMU, 24457756, 0.0004206202, 0.0002115675, -0.002045172, 0.2138739, 0.006558266, -9.814971, 0, 0, 40.20788, 1, 1, 1000, 1000
IMU, 24497353, 0.001508777, 0.0001653882, -0.003014993, 0.2021051, 0.04074101, -9.799858, 0, 0, 40.20734, 1, 1, 1000, 1000
RFND, 24507421, 0.2, 25, 0, 0
IMU, 24537357, -0.000194896, -0.001451975, -0.002061395, 0.1818822, 0.1526025, -9.796203, 0, 0, 40.20745, 1, 1, 1000, 1000
MAG, 24557315, 213, 167, 568, 0, 0, 0, 0, 0, 0, 1, 24557306
RFND, 24557345, 0.2, 25, 0, 0
BARO, 24557383, -0.4408123, 983.3738, 39.09, -0.3348074, 24557, 0, 35
CTUN, 24557397, 0, 0, 0, 0.3082991, 0.07108113, 0.07108113, -0.44, 0, 0.19, 0, 0, 0
ATT, 24557506, 0, 0.15, 0, 0.6, 358.43, 358.44, 0, 1
RATE, 24557512, -0.6938131, -0.0318964, -0.0006913671, -2.722205, -0.03438566, -0.006920869, 0.003669989, -0.1346123, 0.0004641118, 27.57555, -4.49934, 0
NKF1, 24557519, 0.15, 0.6, 358.43, 0.01804513, -0.01411292, 0.0006808777, 0, 0, 0, -0.07108113, -0.01, 0.06, 0
NKF2, 24557519, 0, 0, 0, 0, 0, 0, 0, 0, 0, 0, 0, 0, 0
NKF3, 24557519, 0, 0, 0, 0.02, -0.02, 0, 0, 0, 0, 0, 0
NKF4, 24557519, 0, 0, 0, 0, 0, 3.419023E-06, 0, 0, 0, 19, 229, 0, 0
NKF5, 24557519, 0, 0, 0, 0, 0.2, 0.13, 0, 0.19, 0.5, 2.91677E-05, 0.0005329191, 0.0007825359
NKQ1, 24557519, 0.9998624, -0.002626495, 0.009062652, -0.01364161
AHR2, 24557643, 0.14, 0.78, 358.21, -0.44, 0, 0, 0.9998537, 0.001403896, 0.006831521, -0.01562001
MOTB, 24557650, 1, 1, 0, 1
RCIN, 24557654, 0, 0, 0, 0, 0, 0, 0, 0, 0, 0, 0, 0, 0, 0
RCOU, 24557660, 1223, 1234, 1221, 1234, 0, 0, 0, 0, 0, 0, 0, 0, 0, 0
VIBE, 24557669, 0.7499359, 0.6348325, 0.5893945, 0, 0, 0
CTRL, 24557675, 0.001666124, 0.0004846877, 0.006403815, 0.0004725825, 0.0004163548
PRX, 24557707, 1, 0, 0, 0, 0, 0, 0, 0, 0, 0, 0, 0
IMU, 24577392, 0.000910359, -0.0003759691, -0.002406168, 0.1455813, 0.06846815, -9.817045, 0, 0, 40.20743, 1, 1, 1000, 1000
RFND, 24607284, 0.2, 25, 0, 0
IMU, 24617431, -0.003571683, 0.007575019, -0.0008532072, 0.3290695, 0.02238256, -9.809805, 0, 0, 40.20757, 1, 1, 1000, 1000
MAG, 24657302, 214, 165, 565, 0, 0, 0, 0, 0, 0, 1, 24657293
RFND, 24657332, 0.2, 25, 0, 0
BARO, 24657368, -0.4521151, 983.3752, 39.1, -0.2083968, 24657, 0, 35
CTUN, 24657380, 0, 0, 0, 0.3082991, 0.07058325, 0.07058325, -0.45, 0, 0.19, 0, 0, 0
ATT, 24657480, 0, 0.14, 0, 0.61, 358.41, 358.42, 0, 1
RATE, 24657486, -0.6470122, 0.5954047, -0.007978231, -2.774031, -0.3292892, -0.001551006, 0.003500081, -0.3565835, 0.0004755678, 23.3704, 3.62072, 0
NKF1, 24657494, 0.14, 0.61, 358.41, 0.01873444, -0.01289777, 0.0005770469, 0, 0, 0, -0.07058325, -0.01, 0.06, 0
NKF2, 24657494, 0, 0, 0, 0, 0, 0, 0, 0, 0, 0, 0, 0, 0
NKF3, 24657494, 0, 0, 0, 0.02, -0.02, 0, 0, 0, 0, 0, 0
NKF4, 24657494, 0, 0, 0, 0, 0, 3.825186E-06, 0, 0, 0, 19, 229, 0, 0
NKF5, 24657494, 0, 0, 0, 0, 0.2, 0.13, 0, 0.19, 0.5, 2.995493E-05, 0.0005512864, 0.0009467492
NKQ1, 24657494, 0.9998594, -0.002709867, 0.009163621, -0.0137867
AHR2, 24657625, 0.13, 0.79, 358.19, -0.45, 0, 0, 0.9998507, 0.001312249, 0.006948147, -0.01576535
MOTB, 24657638, 1, 1, 0, 1
RCIN, 24657642, 0, 0, 0, 0, 0, 0, 0, 0, 0, 0, 0, 0, 0, 0
RCOU, 24657648, 1235, 1224, 1221, 1237, 0, 0, 0, 0, 0, 0, 0, 0, 0, 0
VIBE, 24657657, 0.8812106, 0.7090777, 0.4488043, 0, 0, 0
CTRL, 24657663, 0.001739219, 0.001755361, 0.006606354, 0.0009946708, 0.0004200473
PRX, 24657696, 1, 0, 0, 0, 0, 0, 0, 0, 0, 0, 0, 0
IMU, 24657702, 0.0101865, -0.00463817, -0.006222923, 0.3096725, -0.003743419, -9.838697, 0, 0, 40.20767, 1, 1, 1000, 1000
IMU, 24697350, 0.0009346809, -0.001211724, -0.001851378, 0.3473666, 0.1152749, -9.798203, 0, 0, 40.20777, 1, 1, 1000, 1000
RFND, 24707533, 0.2, 25, 0, 0
IMU, 24737378, 0.001041285, 0.0004807093, 0.002684862, 0.2844601, 0.1364931, -9.783499, 0, 0, 40.20822, 1, 1, 1000, 1000
MAG, 24757268, 213, 166, 570, 0, 0, 0, 0, 0, 0, 1, 24757259
RFND, 24757298, 0.2, 25, 0, 0
BARO, 24757335, -0.4408123, 983.3739, 39.1, -0.1539591, 24757, 0, 35
CTUN, 24757347, 0, 0, 0, 0.3082991, 0.0700666, 0.0700666, -0.44, 0, 0.19, 0, 0, 0
ATT, 24757452, 0, 0.14, 0, 0.61, 358.4, 358.41, 0, 1
RATE, 24757459, -0.6290371, 0.273477, -0.003574213, -2.753783, -0.1158368, -0.005608713, 0.00336911, -0.1442647, 0.00026363, 77.46636, 2.488327, 0
NKF1, 24757466, 0.14, 0.61, 358.4, 0.02059653, -0.01056936, 0.001912749, 0, 0, 0, -0.0700666, -0.01, 0.06, 0
NKF2, 24757466, 0, 0, 0, 0, 0, 0, 0, 0, 0, 0, 0, 0, 0
NKF3, 24757466, 0, 0, 0, 0.02, -0.02, 0, 0, 0, 0, 0, 0
NKF4, 24757466, 0, 0, 0, 0, 0, 4.27369E-06, 0, 0, 0, 19, 229, 0, 0
NKF5, 24757466, 0, 0, 0, 0, 0.2, 0.13, 0, 0.19, 0.5, 2.834783E-05, 0.0005625655, 0.000961153
NKQ1, 24757466, 0.9998584, -0.002748666, 0.009127558, -0.01386245
AHR2, 24757510, 0.13, 0.79, 358.18, -0.44, 0, 0, 0.9998497, 0.001267668, 0.00692819, -0.01584103
MOTB, 24757516, 1, 1, 0, 1
RCIN, 24757520, 0, 0, 0, 0, 0, 0, 0, 0, 0, 0, 0, 0, 0, 0
RCOU, 24757526, 1227, 1231, 1221, 1237, 0, 0, 0, 0, 0, 0, 0, 0, 0, 0
VIBE, 24757535, 1.133461, 0.8587513, 0.3654269, 0, 0, 0
CTRL, 24757639, 0.001675274, 0.00155273, 0.006535002, 0.00105725, 0.0004484665
PRX, 24757671, 1, 0, 0, 0, 0, 0, 0, 0, 0, 0, 0, 0
IMU, 24777388, -0.002720255, 0.001560797, -0.003572606, 0.2004616, -0.02998617, -9.801691, 0, 0, 40.20908, 1, 1, 1000, 1000
RFND, 24807291, 0.2, 25, 0, 0
IMU, 24817512, 0.002323218, 0.0008828443, -0.002508035, 0.2132964, 0.0789227, -9.839151, 0, 0, 40.21021, 1, 1, 1000, 1000
MAG, 24857283, 215, 167, 570, 0, 0, 0, 0, 0, 0, 1, 24857274
RFND, 24857313, 0.2, 25, 0, 0
BARO, 24857350, -0.4408123, 983.3744, 39.11, -0.1290474, 24857, 0, 35
CTUN, 24857363, 0, 0, 0, 0.3082991, 0.06955503, 0.06955503, -0.44, 0, 0.19, 0, 0, 0
ATT, 24857516, 0, 0.14, 0, 0.61, 358.39, 358.4, 0, 1
RATE, 24857523, -0.6329831, -0.1331122, 0.0001903148, -2.760072, 0.04086511, -0.006919993, 0.003393107, -0.104217, 0.0004197911, 37.03199, -2.292442, 0
NKF1, 24857531, 0.14, 0.61, 358.39, 0.01691339, -0.01741104, 0.0009143702, 0, 0, 0, -0.06955503, -0.01, 0.06, 0
NKF2, 24857531, 0, 0, 0, 0, 0, 0, 0, 0, 0, 0, 0, 0, 0
NKF3, 24857531, 0, 0, 0, 0.02, -0.02, 0, 0, 0, 0, 0, 0
NKF4, 24857531, 0, 0, 0, 0, 0, 4.712616E-06, 0, 0, 0, 19, 229, 0, 0
NKF5, 24857531, 0, 0, 0, 0, 0.2, 0.13, 0, 0.19, 0.5, 2.929695E-05, 0.0005755101, 0.001120165
NKQ1, 24857531, 0.9998566, -0.002740936, 0.009138367, -0.01399112
AHR2, 24857666, 0.13, 0.8, 358.17, -0.44, 0, 0, 0.9998474, 0.001315606, 0.006961674, -0.01596977
MOTB, 24857674, 1, 1, 0, 1
RCIN, 24857678, 0, 0, 0, 0, 0, 0, 0, 0, 0, 0, 0, 0, 0, 0
RCOU, 24857684, 1221, 1233, 1221, 1232, 0, 0, 0, 0, 0, 0, 0, 0, 0, 0
VIBE, 24857693, 0.7447929, 1.061795, 0.4478912, 0, 0, 0
CTRL, 24857699, 0.00164971, 0.001386728, 0.006516106, 0.0008906331, 0.0004328824
PRX, 24857731, 1, 0, 0, 0, 0, 0, 0, 0, 0, 0, 0, 0
IMU, 24857738, -0.002528935, 0.001822024, -0.001818363, 0.1888991, 0.0240783, -9.781624, 0, 0, 40.21123, 1, 1, 1000, 1000
IMU, 24897435, 0.002891858, 0.0002135193, -0.002382413, 0.2043584, 0.06240023, -9.837026, 0, 0, 40.21221, 1, 1, 1000, 1000
RFND, 24907287, 0.2, 25, 0, 0
IMU, 24937421, -0.001695628, 0.002435607, -0.002044425, 0.1600115, 0.004094148, -9.78059, 0, 0, 40.21324, 1, 1, 1000, 1000
MAG, 24957353, 215, 171, 575, 0, 0, 0, 0, 0, 0, 1, 24957344
RFND, 24957383, 0.2, 25, 0, 0
BARO, 24957420, -0.4690695, 983.377, 39.11, -0.06361407, 24957, 0, 35
CTUN, 24957432, 0, 0, 0, 0.3082991, 0.06908552, 0.06908552, -0.46, 0, 0.19, 0, 0, 0
ATT, 24957538, 0, 0.13, 0, 0.61, 358.38, 358.39, 0, 1
RATE, 24957990, -0.6110719, -0.04373571, -0.0009453653, -2.765005, -0.01786769, -0.006388205, 0.003282401, -0.06466224, 0.0003972098, 105.6509, -2.052021, 0
NKF1, 24958000, 0.13, 0.61, 358.38, 0.01763222, -0.01548892, 0.002608663, 0, 0, 0, -0.06908552, -0.01, 0.06, 0
NKF2, 24958000, 0, 0, 0, 0, 0, 0, 0, 0, 0, 0, 0, 0, 0
NKF3, 24958000, 0, 0, 0, 0.02, -0.02, 0, 0, 0, 0, 0, 0
NKF4, 24958000, 0, 0, 0, 0, 0, 5.276866E-06, 0, 0, 0, 19, 229, 0, 0
NKF5, 24958000, 0, 0, 0, 0, 0.2, 0.13, 0, 0.19, 0.5, 2.767205E-05, 0.0005987638, 0.001166994
NKQ1, 24958000, 0.999855, -0.00278289, 0.00915026, -0.01409039
AHR2, 24958049, 0.13, 0.8, 358.15, -0.46, 0, 0, 0.9998456, 0.001310506, 0.006996121, -0.0160689
MOTB, 24958057, 1, 1, 0, 1
RCIN, 24958061, 0, 0, 0, 0, 0, 0, 0, 0, 0, 0, 0, 0, 0, 0
RCOU, 24958067, 1223, 1232, 1221, 1233, 0, 0, 0, 0, 0, 0, 0, 0, 0, 0
VIBE, 24958076, 0.5423934, 1.158258, 0.5235644, 0, 0, 0
CTRL, 24958084, 0.001614254, 0.001233638, 0.006522804, 0.000744962, 0.0004253656
PRX, 24958115, 1, 0, 0, 0, 0, 0, 0, 0, 0, 0, 0, 0
IMU, 24978982, 0.0007002205, 0.0008595633, -0.001243791, 0.1894369, 0.1163973, -9.765791, 0, 0, 40.21423, 1, 1, 1000, 1000
RFND, 25007309, 0.2, 25, 0, 0
IMU, 25017859, -0.001092219, 0.001216405, -0.00244559, 0.1252614, -0.02697238, -9.869045, 0, 0, 40.21487, 1, 1, 1000, 1000
MAG, 25057385, 218, 169, 576, 0, 0, 0, 0, 0, 0, 1, 25057376
RFND, 25057415, 0.2, 25, 0, 0
BARO, 25057452, -0.5707954, 983.3881, 39.12, -0.06887694, 25057, 0, 35
CTUN, 25057465, 0, 0, 0, 0.3082991, 0.06871449, 0.06871449, -0.57, 0, 0.19, 0, 0, 0
ATT, 25057653, 0, 0.13, 0, 0.61, 358.37, 358.38, 0, 1
