FMT, 128, 89, FMT, BBnNZ, Type,Length,Name,Format,Columns
FMT, 129, 31, PARM, QNf, TimeUS,Name,Value
FMT, 130, 46, GPS, QBIHBcLLefffB, TimeUS,Status,GMS,GWk,NSats,HDop,Lat,Lng,Alt,Spd,GCrs,VZ,U
FMT, 131, 46, GPS2, QBIHBcLLefffB, TimeUS,Status,GMS,GWk,NSats,HDop,Lat,Lng,Alt,Spd,GCrs,VZ,U
FMT, 132, 46, GPSB, QBIHBcLLefffB, TimeUS,Status,GMS,GWk,NSats,HDop,Lat,Lng,Alt,Spd,GCrs,VZ,U
FMT, 193, 24, GPA, QCCCCBI, TimeUS,VDop,HAcc,VAcc,SAcc,VV,SMS
FMT, 194, 24, GPA2, QCCCCBI, TimeUS,VDop,HAcc,VAcc,SAcc,VV,SMS
FMT, 195, 24, GPAB, QCCCCBI, TimeUS,VDop,HAcc,VAcc,SAcc,VV,SMS
FMT, 133, 53, IMU, QffffffIIfBBHH, TimeUS,GyrX,GyrY,GyrZ,AccX,AccY,AccZ,EG,EA,T,GH,AH,GHz,AHz
FMT, 134, 75, MSG, QZ, TimeUS,Message
FMT, 135, 39, RCIN, QHHHHHHHHHHHHHH, TimeUS,C1,C2,C3,C4,C5,C6,C7,C8,C9,C10,C11,C12,C13,C14
FMT, 136, 39, RCOU, QHHHHHHHHHHHHHH, TimeUS,C1,C2,C3,C4,C5,C6,C7,C8,C9,C10,C11,C12,C13,C14
FMT, 137, 15, RSSI, Qf, TimeUS,RXRSSI
FMT, 139, 37, BARO, QffcfIff, TimeUS,Alt,Press,Temp,CRt,SMS,Offset,GndTemp
FMT, 140, 22, POWR, QffHB, TimeUS,Vcc,VServo,Flags,Safety
FMT, 143, 45, CMD, QHHHfffffff, TimeUS,CTot,CNum,CId,Prm1,Prm2,Prm3,Prm4,Lat,Lng,Alt
FMT, 144, 20, RAD, QBBBBBHH, TimeUS,RSSI,RemRSSI,TxBuf,Noise,RemNoise,RxErrors,Fixed
FMT, 146, 43, CAM, QIHLLeeeccC, TimeUS,GPSTime,GPSWeek,Lat,Lng,Alt,RelAlt,GPSAlt,Roll,Pitch,Yaw
FMT, 232, 43, TRIG, QIHLLeeeccC, TimeUS,GPSTime,GPSWeek,Lat,Lng,Alt,RelAlt,GPSAlt,Roll,Pitch,Yaw
FMT, 162, 30, ARSP, QffcffB, TimeUS,Airspeed,DiffPress,Temp,RawPress,Offset,U
FMT, 164, 45, CURR, QfffcHHHHHHHHHH, TimeUS,Volt,Curr,CurrTot,Temp,V1,V2,V3,V4,V5,V6,V7,V8,V9,V10
FMT, 165, 45, CUR2, QfffcHHHHHHHHHH, TimeUS,Volt,Curr,CurrTot,Temp,V1,V2,V3,V4,V5,V6,V7,V8,V9,V10
FMT, 163, 27, ATT, QccccCCCC, TimeUS,DesRoll,Roll,DesPitch,Pitch,DesYaw,Yaw,ErrRP,ErrYaw
FMT, 166, 34, MAG, QhhhhhhhhhBI, TimeUS,MagX,MagY,MagZ,OfsX,OfsY,OfsZ,MOfsX,MOfsY,MOfsZ,Health,S
FMT, 169, 14, MODE, QMBB, TimeUS,Mode,ModeNum,Rsn
FMT, 196, 17, RFND, QCBCB, TimeUS,Dist1,Orient1,Dist2,Orient2
FMT, 223, 33, DMS, IIIIIBBBBBBBBBB, TimeMS,N,Dp,RT,RS,Er,Fa,Fmn,Fmx,Pa,Pmn,Pmx,Sa,Smn,Smx
FMT, 240, 41, BCN, QBBfffffff, TimeUS,Health,Cnt,D0,D1,D2,D3,PosX,PosY,PosZ
FMT, 138, 53, IMU2, QffffffIIfBBHH, TimeUS,GyrX,GyrY,GyrZ,AccX,AccY,AccZ,EG,EA,T,GH,AH,GHz,AHz
FMT, 147, 53, IMU3, QffffffIIfBBHH, TimeUS,GyrX,GyrY,GyrZ,AccX,AccY,AccZ,EG,EA,T,GH,AH,GHz,AHz
FMT, 141, 45, AHR2, QccCfLLffff, TimeUS,Roll,Pitch,Yaw,Alt,Lat,Lng,Q1,Q2,Q3,Q4
FMT, 180, 31, POS, QLLfff, TimeUS,Lat,Lng,Alt,RelHomeAlt,RelOriginAlt
FMT, 142, 45, SIM, QccCfLLffff, TimeUS,Roll,Pitch,Yaw,Alt,Lat,Lng,Q1,Q2,Q3,Q4
FMT, 198, 51, NKF1, QccCfffffffccc, TimeUS,Roll,Pitch,Yaw,VN,VE,VD,dPD,PN,PE,PD,GX,GY,GZ
FMT, 199, 35, NKF2, QbccccchhhhhhB, TimeUS,AZbias,GSX,GSY,GSZ,VWN,VWE,MN,ME,MD,MX,MY,MZ,MI
FMT, 200, 33, NKF3, Qcccccchhhcc, TimeUS,IVN,IVE,IVD,IPN,IPE,IPD,IMX,IMY,IMZ,IYAW,IVT
FMT, 201, 35, NKF4, QcccccfbbHBHHb, TimeUS,SV,SP,SH,SM,SVT,errRP,OFN,OFE,FS,TS,SS,GPS,PI
FMT, 202, 40, NKF5, QBhhhcccCCfff, TimeUS,NI,FIX,FIY,AFI,HAGL,offset,RI,rng,Herr,eAng,eVel,ePos
FMT, 203, 51, NKF6, QccCfffffffccc, TimeUS,Roll,Pitch,Yaw,VN,VE,VD,dPD,PN,PE,PD,GX,GY,GZ
FMT, 204, 35, NKF7, QbccccchhhhhhB, TimeUS,AZbias,GSX,GSY,GSZ,VWN,VWE,MN,ME,MD,MX,MY,MZ,MI
FMT, 205, 33, NKF8, Qcccccchhhcc, TimeUS,IVN,IVE,IVD,IPN,IPE,IPD,IMX,IMY,IMZ,IYAW,IVT
FMT, 206, 35, NKF9, QcccccfbbHBHHb, TimeUS,SV,SP,SH,SM,SVT,errRP,OFN,OFE,FS,TS,SS,GPS,PI
FMT, 207, 36, NKF0, QBccCCcccccccc, TimeUS,ID,rng,innov,SIV,TR,BPN,BPE,BPD,OFH,OFL,OFN,OFE,OFD
FMT, 208, 27, NKQ1, Qffff, TimeUS,Q1,Q2,Q3,Q4
FMT, 209, 27, NKQ2, Qffff, TimeUS,Q1,Q2,Q3,Q4
FMT, 210, 51, XKF1, QccCfffffffccc, TimeUS,Roll,Pitch,Yaw,VN,VE,VD,dPD,PN,PE,PD,GX,GY,GZ
FMT, 211, 34, XKF2, QccccchhhhhhB, TimeUS,AX,AY,AZ,VWN,VWE,MN,ME,MD,MX,MY,MZ,MI
FMT, 212, 33, XKF3, Qcccccchhhcc, TimeUS,IVN,IVE,IVD,IPN,IPE,IPD,IMX,IMY,IMZ,IYAW,IVT
FMT, 213, 35, XKF4, QcccccfbbHBHHb, TimeUS,SV,SP,SH,SM,SVT,errRP,OFN,OFE,FS,TS,SS,GPS,PI
FMT, 214, 40, XKF5, QBhhhcccCCfff, TimeUS,NI,FIX,FIY,AFI,HAGL,offset,RI,rng,Herr,eAng,eVel,ePos
FMT, 215, 51, XKF6, QccCfffffffccc, TimeUS,Roll,Pitch,Yaw,VN,VE,VD,dPD,PN,PE,PD,GX,GY,GZ
FMT, 216, 34, XKF7, QccccchhhhhhB, TimeUS,AX,AY,AZ,VWN,VWE,MN,ME,MD,MX,MY,MZ,MI
FMT, 217, 33, XKF8, Qcccccchhhcc, TimeUS,IVN,IVE,IVD,IPN,IPE,IPD,IMX,IMY,IMZ,IYAW,IVT
FMT, 218, 35, XKF9, QcccccfbbHBHHb, TimeUS,SV,SP,SH,SM,SVT,errRP,OFN,OFE,FS,TS,SS,GPS,PI
FMT, 219, 36, XKF0, QBccCCcccccccc, TimeUS,ID,rng,innov,SIV,TR,BPN,BPE,BPD,OFH,OFL,OFN,OFE,OFD
FMT, 220, 27, XKQ1, Qffff, TimeUS,Q1,Q2,Q3,Q4
FMT, 221, 27, XKQ2, Qffff, TimeUS,Q1,Q2,Q3,Q4
FMT, 222, 35, XKFD, Qffffff, TimeUS,IX,IY,IZ,IVX,IVY,IVZ
FMT, 148, 34, TERR, QBLLHffHH, TimeUS,Status,Lat,Lng,Spacing,TerrH,CHeight,Pending,Loaded
FMT, 149, 18, UBX1, QBHBBH, TimeUS,Instance,noisePerMS,jamInd,aPower,agcCnt
FMT, 150, 16, UBX2, QBbBbB, TimeUS,Instance,ofsI,magI,ofsQ,magQ
FMT, 151, 18, UBY1, QBHBBH, TimeUS,Instance,noisePerMS,jamInd,aPower,agcCnt
FMT, 152, 16, UBY2, QBbBbB, TimeUS,Instance,ofsI,magI,ofsQ,magQ
FMT, 170, 42, GRAW, QIHBBddfBbB, TimeUS,WkMS,Week,numSV,sv,cpMes,prMes,doMes,mesQI,cno,lli
FMT, 171, 24, GRXH, QdHbBB, TimeUS,rcvTime,week,leapS,numMeas,recStat
FMT, 172, 41, GRXS, QddfBBBHBBBBB, TimeUS,prMes,cpMes,doMes,gnss,sv,freq,lock,cno,prD,cpD,doD,trk
FMT, 173, 63, SBFE, QIHBBdddfffff, TimeUS,TOW,WN,Mode,Err,Lat,Lng,Height,Undul,Vn,Ve,Vu,COG
FMT, 153, 19, ESC1, Qcccc, TimeUS,RPM,Volt,Curr,Temp
FMT, 154, 19, ESC2, Qcccc, TimeUS,RPM,Volt,Curr,Temp
FMT, 155, 19, ESC3, Qcccc, TimeUS,RPM,Volt,Curr,Temp
FMT, 156, 19, ESC4, Qcccc, TimeUS,RPM,Volt,Curr,Temp
FMT, 157, 19, ESC5, Qcccc, TimeUS,RPM,Volt,Curr,Temp
FMT, 158, 19, ESC6, Qcccc, TimeUS,RPM,Volt,Curr,Temp
FMT, 159, 19, ESC7, Qcccc, TimeUS,RPM,Volt,Curr,Temp
FMT, 160, 19, ESC8, Qcccc, TimeUS,RPM,Volt,Curr,Temp
FMT, 167, 34, MAG2, QhhhhhhhhhBI, TimeUS,MagX,MagY,MagZ,OfsX,OfsY,OfsZ,MOfsX,MOfsY,MOfsZ,Health,S
FMT, 168, 34, MAG3, QhhhhhhhhhBI, TimeUS,MagX,MagY,MagZ,OfsX,OfsY,OfsZ,MOfsX,MOfsY,MOfsZ,Health,S
FMT, 174, 31, ACC1, QQfff, TimeUS,SampleUS,AccX,AccY,AccZ
FMT, 175, 31, ACC2, QQfff, TimeUS,SampleUS,AccX,AccY,AccZ
FMT, 176, 31, ACC3, QQfff, TimeUS,SampleUS,AccX,AccY,AccZ
FMT, 177, 31, GYR1, QQfff, TimeUS,SampleUS,GyrX,GyrY,GyrZ
FMT, 178, 31, GYR2, QQfff, TimeUS,SampleUS,GyrX,GyrY,GyrZ
FMT, 179, 31, GYR3, QQfff, TimeUS,SampleUS,GyrX,GyrY,GyrZ
FMT, 181, 35, PIDR, Qffffff, TimeUS,Des,P,I,D,FF,AFF
FMT, 182, 35, PIDP, Qffffff, TimeUS,Des,P,I,D,FF,AFF
FMT, 183, 35, PIDY, Qffffff, TimeUS,Des,P,I,D,FF,AFF
FMT, 184, 35, PIDA, Qffffff, TimeUS,Des,P,I,D,FF,AFF
FMT, 185, 35, PIDS, Qffffff, TimeUS,Des,P,I,D,FF,AFF
FMT, 186, 35, PIDL, Qffffff, TimeUS,Des,P,I,D,FF,AFF
FMT, 161, 37, BAR2, QffcfIff, TimeUS,Alt,Press,Temp,CRt,SMS,Offset,GndTemp
FMT, 197, 37, BAR3, QffcfIff, TimeUS,Alt,Press,Temp,CRt,SMS,Offset,GndTemp
FMT, 187, 35, VIBE, QfffIII, TimeUS,VibeX,VibeY,VibeZ,Clip0,Clip1,Clip2
FMT, 188, 47, IMT, Qfffffffff, TimeUS,DelT,DelvT,DelaT,DelAX,DelAY,DelAZ,DelVX,DelVY,DelVZ
FMT, 189, 47, IMT2, Qfffffffff, TimeUS,DelT,DelvT,DelaT,DelAX,DelAY,DelAZ,DelVX,DelVY,DelVZ
FMT, 190, 47, IMT3, Qfffffffff, TimeUS,DelT,DelvT,DelaT,DelAX,DelAY,DelAZ,DelVX,DelVY,DelVZ
FMT, 191, 24, ORGN, QBLLe, TimeUS,Type,Lat,Lng,Alt
FMT, 192, 19, RPM, Qff, TimeUS,rpm1,rpm2
FMT, 233, 47, GMB1, Iffffffffff, TimeMS,dt,dax,day,daz,dvx,dvy,dvz,jx,jy,jz
FMT, 234, 44, GMB2, IBfffffffff, TimeMS,es,ex,ey,ez,rx,ry,rz,tx,ty,tz
FMT, 235, 13, GMB3, Ihhh, TimeMS,rl_torque_cmd,el_torque_cmd,az_torque_cmd
FMT, 236, 59, RATE, Qffffffffffff, TimeUS,RDes,R,ROut,PDes,P,POut,YDes,Y,YOut,ADes,A,AOut
FMT, 237, 23, RALY, QBBLLh, TimeUS,Tot,Seq,Lat,Lng,Alt
FMT, 238, 43, VISO, Qffffffff, TimeUS,dt,AngDX,AngDY,AngDZ,PosDX,PosDY,PosDZ,conf
FMT, 224, 23, SBPH, QIII, TimeUS,CrcError,LastInject,IARhyp
FMT, 229, 80, SBR1, QHHBZ, TimeUS,msg_type,sender_id,msg_len,d1
FMT, 230, 205, SBR2, QHZZZ, TimeUS,msg_type,d2,d3,d4
FMT, 25, 41, ATUN, QBBfffffff, TimeUS,Axis,TuneStep,Targ,Min,Max,RP,RD,SP,ddt
FMT, 26, 19, ATDE, Qff, TimeUS,Angle,Rate
FMT, 31, 22, PTUN, QBfHHH, TimeUS,Param,TunVal,CtrlIn,TunLo,TunHi
FMT, 12, 28, OF, QBffff, TimeUS,Qual,flowX,flowY,bodyX,bodyY
FMT, 5, 51, NTUN, Qffffffffff, TimeUS,DPosX,DPosY,PosX,PosY,DVelX,DVelY,VelX,VelY,DAccX,DAccY
FMT, 4, 51, CTUN, Qffffffeccfhh, TimeUS,ThI,ABst,ThO,ThH,DAlt,Alt,BAlt,DSAlt,SAlt,TAlt,DCRt,CRt
FMT, 6, 32, PM, QHHIhBHII, TimeUS,NLon,NLoop,MaxT,PMT,I2CErr,INSErr,LogDrop,Mem
FMT, 30, 27, MOTB, Qffff, TimeUS,LiftMax,BatVolt,BatRes,ThLimit
FMT, 13, 12, EV, QB, TimeUS,Id
FMT, 20, 14, D16, QBh, TimeUS,Id,Value
FMT, 21, 14, DU16, QBH, TimeUS,Id,Value
FMT, 22, 16, D32, QBi, TimeUS,Id,Value
FMT, 23, 16, DU32, QBI, TimeUS,Id,Value
FMT, 24, 16, DFLT, QBf, TimeUS,Id,Value
FMT, 19, 13, ERR, QBB, TimeUS,Subsys,ECode
FMT, 32, 19, HELI, Qff, TimeUS,DRRPM,ERRPM
FMT, 33, 29, PL, QBBffff, TimeUS,Heal,TAcq,pX,pY,vX,vY
FMT, 34, 36, GUID, QBffffff, TimeUS,Type,pX,pY,pZ,vX,vY,vZ
FMT, 35, 32, THRO, QBffffbbbb, TimeUS,Stage,Vel,VelZ,Acc,AccEfZ,Throw,AttOk,HgtOk,PosOk
FMT, 36, 56, PRX, QBfffffffffff, TimeUS,Health,D0,D45,D90,D135,D180,D225,D270,D315,DUp,CAn,CDis
MODE, 10450638, 100, 100, 1
RFND, 10496565, 0.2, 25, 0, 0
MAG, 10546412, 227, 175, 611, 0, 0, 0, 0, 0, 0, 1, 10546403
RFND, 10546445, 0.2, 25, 0, 0
BARO, 10546483, -0.3616921, 983.421, 41.03, 0.217351, 10546, 0, 35
CTUN, 10546496, 0, 0, 0, 0.3045363, 0.07777689, 0.07777689, -0.36, 0, 0.19, 0, 0, 0
ATT, 10546597, 0, 0.06, 0, 0.67, 0.92, 0.93, 0, 1
RATE, 10546603, -0.2888235, 0.3154638, -0.001470061, -3.052182, -0.09510371, -0.007934664, -0.007252341, -0.04098226, 0.0001134334, -309.4645, -0.3329277, 0
NKF1, 10546611, 0.06, 0.67, 0.93, 0.006578481, -0.002778149, -0.007641098, 0, 0, 0, -0.07777689, 0, 0, 0
NKF2, 10546611, 0, 0, 0, 0, 0, 0, 0, 0, 0, 0, 0, 0, 0
NKF3, 10546611, 0, 0, 0, 0, 0, 0, 0, 0, 0, 0, 0
NKF4, 10546611, 0, 0, 0, 0, 0, 6.405586E-05, 0, 0, 0, 19, 229, 0, 0
NKF5, 10546611, 0, 0, 0, 0, 0.2, 0.13, 0, 0.19, 0.5, 0.0001852698, 0.002649594, 0.006055383
NKQ1, 10546611, 0.9999139, -0.003614939, 0.009637571, 0.008156958
FMT, 254, 47, NKT1, QIffffffff, TimeUS,Cnt,IMUMin,IMUMax,EKFMin,EKFMax,AngMin,AngMax,VelMin,VelM
NKT1, 10546611, 380, 0.0025, 0.0025, 0.009958429, 0.01004719, 0.003000239, 0.01399966, 0.003000237, 0.01399965
AHR2, 10546714, 0.07, 0.7, 0.94, -0.36, 0, 0, 0.9999471, 0.0006083045, 0.006166858, 0.008210017
MOTB, 10546721, 1, 1, 0, 1
RCIN, 10546726, 0, 0, 0, 0, 0, 0, 0, 0, 0, 0, 0, 0, 0, 0
RCOU, 10546731, 1101, 1101, 1101, 1101, 0, 0, 0, 0, 0, 0, 0, 0, 0, 0
VIBE, 10546740, 0.09100665, 0.07755936, 0.09004048, 0, 0, 0
FMT, 253, 31, CTRL, Qfffff, TimeUS,RMSRollP,RMSRollD,RMSPitchP,RMSPitchD,RMSYaw
CTRL, 10546746, 0.00115237, 0.001348901, 0.007235658, 0.002061059, 0.002070318
PRX, 10546919, 2, 0.47, 0, 0.25, 0, 3.6, 0, 3.6, 0, 0, 90, 0.25
IMU, 10546928, 0.005440222, -0.001724555, -0.0007169649, 0.2036722, 0.08603108, -9.791831, 0, 0, 42.08723, 1, 1, 1000, 1000
MSG, 10606870, APM:Copter V3.5.7 (791a96c7)
MSG, 10606875, New mission
MSG, 10606886, Frame: QUAD
MODE, 10606891, 100, 100, 1
IMU, 10628743, -0.01132476, 0.003981415, -0.01410577, 0.4509209, 0.01851305, -9.955596, 0, 0, 42.0872, 1, 1, 1000, 1000
MAG, 10649030, 233, 180, 610, 0, 0, 0, 0, 0, 0, 1, 10648913
RFND, 10649068, 0.2, 25, 0, 0
BARO, 10649106, -0.3899493, 983.4243, 41.03, 0.1237746, 10649, 0, 35
CTUN, 10649120, 0, 0, 0, 0.3045363, 0.07737803, 0.07737803, -0.38, 0, 0.19, 0, 0, 0
ATT, 10649225, 0, 0.05, 0, 0.66, 0.89, 0.88, 0, 1
RATE, 10649232, -0.2347889, 0.2359599, -0.009343801, -3.00323, -0.2671098, 0.003228582, 0.01223765, -1.826182, 0.001400722, -293.4967, -21.3232, 0
NKF1, 10649239, 0.05, 0.66, 0.88, 0.009302832, -0.0004925737, -0.007246833, 0, 0, 0, -0.07737803, 0, 0, 0
NKF2, 10649239, 0, 0, 0, 0, 0, 0, 0, 0, 0, 0, 0, 0, 0
NKF3, 10649239, 0, 0, 0, 0, 0, 0, 0, 0, 0, 0, 0
NKF4, 10649239, 0, 0, 0, 0, 0, 5.579795E-05, 0, 0, 0, 19, 229, 0, 0
NKF5, 10649239, 0, 0, 0, 0, 0.2, 0.13, 0, 0.19, 0.5, 0.0001535973, 0.002902331, 0.006386751
NKQ1, 10649239, 0.9999174, -0.00367525, 0.009540386, 0.007800405
AHR2, 10649285, 0.06, 0.69, 0.9, -0.38, 0, 0, 0.9999506, 0.0005269204, 0.006067106, 0.007854015
MOTB, 10649292, 1, 1, 0, 1
RCIN, 10649296, 0, 0, 0, 0, 0, 0, 0, 0, 0, 0, 0, 0, 0, 0
RCOU, 10649301, 1101, 1101, 1101, 1101, 0, 0, 0, 0, 0, 0, 0, 0, 0, 0
VIBE, 10649310, 0.2013569, 0.2374165, 0.2683751, 0, 0, 0
CTRL, 10649317, 0.001371769, 0.002185747, 0.007452125, 0.002901864, 0.001723083
PRX, 10649349, 2, 0.47, 0, 0.25, 0, 3.6, 0, 3.6, 0, 0, 90, 0.25
IMU, 10668656, 0.03064791, -0.04422694, -0.004600452, -0.01592035, -0.0452637, -9.868919, 0, 0, 42.0872, 1, 1, 1000, 1000
RFND, 10698619, 0.2, 25, 0, 0
IMU, 10708651, 0.01393403, -0.002854934, -0.005206504, 0.09757453, 0.1356362, -9.776141, 0, 0, 42.0872, 1, 1, 1000, 1000
MAG, 10748528, 232, 178, 617, 0, 0, 0, 0, 0, 0, 1, 10748519
RFND, 10748561, 0.2, 25, 0, 0
BARO, 10748599, -0.322132, 983.4171, 41.02, -0.2282039, 10748, 0, 35
CTUN, 10748612, 0, 0, 0, 0.3045363, 0.07685436, 0.07685436, -0.32, 0, 0.19, 0, 0, 0
DU32, 10748650, 7, 50389208
ATT, 10748786, 0, 0.05, 0, 0.65, 0.88, 0.88, 0, 1
RATE, 10748792, -0.2508495, -0.7875626, 0.0004142632, -2.960615, 1.077025, -0.01069165, 0.0001109947, 0.1723641, 0.0006013038, -219.5771, -7.178307, 0
NKF1, 10748800, 0.05, 0.65, 0.88, 0.002556913, -0.004340869, -0.005421657, 0, 0, 0, -0.07685436, 0, 0, 0
NKF2, 10748800, 0, 0, 0, 0, 0, 0, 0, 0, 0, 0, 0, 0, 0
NKF3, 10748800, 0, 0, 0, 0, 0, 0, 0, 0, 0, 0, 0
NKF4, 10748800, 0, 0, 0, 0, 0, 3.727378E-05, 0, 0, 0, 19, 229, 0, 0
NKF5, 10748800, 0, 0, 0, 0, 0.2, 0.13, 0, 0.19, 0.5, 0.0001145025, 0.002166205, 0.005527838
NKQ1, 10748800, 0.9999185, -0.003688026, 0.009462117, 0.00775159
AHR2, 10748844, 0.06, 0.68, 0.89, -0.32, 0, 0, 0.9999516, 0.0005180903, 0.005968645, 0.007805614
MOTB, 10748851, 1, 1, 0, 1
RCIN, 10748856, 0, 0, 0, 0, 0, 0, 0, 0, 0, 0, 0, 0, 0, 0
RCOU, 10748861, 1101, 1101, 1101, 1101, 0, 0, 0, 0, 0, 0, 0, 0, 0, 0
VIBE, 10748870, 0.1919401, 0.1976367, 0.1966576, 0, 0, 0
CTRL, 10748876, 0.001971154, 0.003818735, 0.007303909, 0.004577283, 0.001591665
PRX, 10748907, 2, 0.47, 0, 0.25, 0, 3.6, 0, 3.6, 0, 0, 90, 0.25
IMU, 10748914, -0.01381113, 0.0187331, 0.003006635, 0.05887607, 0.1691431, -9.726008, 0, 0, 42.0872, 1, 1, 1000, 1000
IMU, 10789266, -0.01366265, 0.005773719, -0.0003686287, 0.2778139, 0.03621892, -9.753772, 0, 0, 42.0872, 1, 1, 1000, 1000
RFND, 10798638, 0.2, 25, 0, 0
IMU, 10829123, 0.007669422, -0.0144107, -0.001205006, 0.3063049, 0.002961183, -9.782606, 0, 0, 42.08722, 1, 1, 1000, 1000
MAG, 10848803, 230, 180, 609, 0, 0, 0, 0, 0, 0, 1, 10848795
RFND, 10848838, 0.2, 25, 0, 0
BARO, 10848875, -0.2825719, 983.4125, 41.03, -0.2918617, 10848, 0, 35
CTUN, 10848888, 0, 0, 0, 0.3045363, 0.07616101, 0.07616101, -0.28, 0, 0.19, 0, 0, 0
ATT, 10849127, 0, 0.05, 0, 0.65, 0.88, 0.88, 0, 1
RATE, 10849133, -0.2394693, -0.7434056, 0.00205197, -2.954854, 0.7289345, -0.01135324, 0.002846126, 0.1958449, 0.0001143184, -231.4955, 0.3746986, 0
NKF1, 10849141, 0.05, 0.65, 0.88, 0.004282629, -0.004555968, -0.005715937, 0, 0, 0, -0.07616101, 0, 0, 0
NKF2, 10849141, 0, 0, 0, 0, 0, 0, 0, 0, 0, 0, 0, 0, 0
NKF3, 10849141, 0, 0, 0, 0, 0, 0, 0, 0, 0, 0, 0
NKF4, 10849141, 0, 0, 0, 0, 0, 2.49211E-05, 0, 0, 0, 19, 229, 0, 0
NKF5, 10849141, 0, 0, 0, 0, 0.2, 0.13, 0, 0.19, 0.5, 7.828501E-05, 0.002363137, 0.005703477
NKQ1, 10849141, 0.9999185, -0.003710448, 0.009450409, 0.007740113
AHR2, 10849182, 0.06, 0.68, 0.89, -0.28, 0, 0, 0.9999518, 0.0005010968, 0.005939516, 0.007794326
MOTB, 10849189, 1, 1, 0, 1
RCIN, 10849193, 0, 0, 0, 0, 0, 0, 0, 0, 0, 0, 0, 0, 0, 0
RCOU, 10849199, 1101, 1101, 1101, 1101, 0, 0, 0, 0, 0, 0, 0, 0, 0, 0
VIBE, 10849208, 0.1626102, 0.1376729, 0.123315, 0, 0, 0
CTRL, 10849215, 0.001944126, 0.003899472, 0.007205677, 0.004358596, 0.001316917
PRX, 10849248, 2, 0.47, 0, 0.24, 0, 3.6, 0, 3.6, 0, 0, 90, 0.24
IMU, 10868846, 0.01625825, -0.00493451, -0.001762888, 0.1742129, 0.0875338, -9.780708, 0, 0, 42.08718, 1, 1, 1000, 1000
RFND, 10898815, 0.2, 25, 0, 0
IMU, 10908918, -0.001353228, 0.009550365, -0.0009496541, 0.1298657, 0.1369488, -9.782122, 0, 0, 42.08722, 1, 1, 1000, 1000
MAG, 10948754, 225, 176, 610, 0, 0, 0, 0, 0, 0, 1, 10948745
RFND, 10948783, 0.2, 25, 0, 0
BARO, 10948822, -0.2260576, 983.4066, 41.02, 0.02965665, 10948, 0, 35
CTUN, 10948835, 0, 0, 0, 0.3045363, 0.07550397, 0.07550397, -0.22, 0, 0.19, 0, 0, 0
ATT, 10948963, 0, 0.05, 0, 0.65, 0.87, 0.87, 0, 1
RATE, 10948970, -0.2493102, -0.6566345, 0.002251274, -2.966098, 0.4181691, -0.01003007, 0.003975526, -0.1462287, 7.750958E-05, -184.3809, 0.2337456, 0
NKF1, 10948978, 0.05, 0.65, 0.87, 0.004598225, -0.005350389, -0.004552615, 0, 0, 0, -0.07550397, 0, 0, 0
NKF2, 10948978, 0, 0, 0, 0, 0, 0, 0, 0, 0, 0, 0, 0, 0
NKF3, 10948978, 0, 0, 0, 0, 0, 0, 0, 0, 0, 0, 0
NKF4, 10948978, 0, 0, 0, 0, 0, 1.696528E-05, 0, 0, 0, 19, 229, 0, 0
NKF5, 10948978, 0, 0, 0, 0, 0.2, 0.13, 0, 0.19, 0.5, 5.00699E-05, 0.001725094, 0.004874289
NKQ1, 10948978, 0.9999187, -0.003683726, 0.009470911, 0.007711906
AHR2, 10949022, 0.06, 0.68, 0.89, -0.22, 0, 0, 0.999952, 0.0005344377, 0.005945137, 0.00776598
MOTB, 10949030, 1, 1, 0, 1
RCIN, 10949035, 0, 0, 0, 0, 0, 0, 0, 0, 0, 0, 0, 0, 0, 0
RCOU, 10949041, 1101, 1101, 1101, 1101, 0, 0, 0, 0, 0, 0, 0, 0, 0, 0
VIBE, 10949049, 0.1146323, 0.1048525, 0.08272883, 0, 0, 0
CTRL, 10949056, 0.001841522, 0.003690826, 0.007166992, 0.003799074, 0.001077709
PRX, 10949088, 2, 0.48, 0, 0.25, 0, 3.6, 0, 3.6, 0, 0, 90, 0.25
IMU, 10949095, -0.01152613, 0.007233828, -0.002553862, 0.1641273, 0.1011757, -9.799038, 0, 0, 42.08718, 1, 1, 1000, 1000
IMU, 10988840, -0.008506484, -0.000617837, -0.000775779, 0.2611796, 0.02093528, -9.821252, 0, 0, 42.08718, 1, 1, 999, 999
RFND, 10998783, 0.2, 25, 0, 0
IMU, 11029126, 0.008678822, -0.006788291, -0.002849429, 0.1473509, 0.04253943, -9.790939, 0, 0, 42.08722, 1, 1, 999, 999
MAG, 11048846, 223, 174, 607, 0, 0, 0, 0, 0, 0, 1, 11048837
RFND, 11048876, 0.2, 25, 0, 0
BARO, 11048914, -0.2769205, 983.412, 41.02, 0.3302908, 11048, 0, 35
CTUN, 11048951, 0, 0, 0, 0.3045363, 0.07462051, 0.07462051, -0.27, 0, 0.19, 0, 0, 0
ATT, 11049137, 0, 0.05, 0, 0.66, 0.87, 0.87, 0, 1
RATE, 11049144, -0.2525396, -0.5572789, 0.002735911, -2.975171, 0.1216258, -0.009182628, -0.001517829, -0.2182524, 0.0003553464, -137.8166, -1.205635, 0
NKF1, 11049153, 0.05, 0.66, 0.87, 0.004954445, -0.005593849, -0.003402879, 0, 0, 0, -0.07462051, 0, 0, 0
NKF2, 11049153, 0, 0, 0, 0, 0, 0, 0, 0, 0, 0, 0, 0, 0
NKF3, 11049153, 0, 0, 0, 0, 0, 0, 0, 0, 0, 0, 0
NKF4, 11049153, 0, 0, 0, 0, 0, 1.175816E-05, 0, 0, 0, 19, 229, 0, 0
NKF5, 11049153, 0, 0, 0, 0, 0.2, 0.13, 0, 0.19, 0.5, 3.53241E-05, 0.00182861, 0.004893168
NKQ1, 11049153, 0.9999191, -0.003675222, 0.009489127, 0.007635836
AHR2, 11049196, 0.06, 0.68, 0.88, -0.27, 0, 0, 0.9999526, 0.00055149, 0.005955816, 0.007689866
MOTB, 11049204, 1, 1, 0, 1
RCIN, 11049208, 0, 0, 0, 0, 0, 0, 0, 0, 0, 0, 0, 0, 0, 0
RCOU, 11049214, 1101, 1101, 1101, 1101, 0, 0, 0, 0, 0, 0, 0, 0, 0, 0
VIBE, 11049223, 0.08455805, 0.08318859, 0.06862424, 0, 0, 0
CTRL, 11049229, 0.001725567, 0.003439961, 0.007137808, 0.00325771, 0.0008870601
PRX, 11049260, 2, 0.48, 0, 0.24, 0, 3.6, 0, 3.6, 0, 0, 90, 0.24
IMU, 11068897, 0.008029514, 0.0002720071, 0.002210032, 0.1602711, 0.1024457, -9.806025, 0, 0, 42.0872, 1, 1, 999, 999
RFND, 11098851, 0.2, 25, 0, 0
IMU, 11108874, -0.002131695, 0.005086387, 0.00201087, 0.2144649, 0.08809064, -9.81037, 0, 0, 42.08718, 1, 1, 999, 999
MAG, 11148798, 229, 176, 614, 0, 0, 0, 0, 0, 0, 1, 11148790
RFND, 11148986, 0.2, 25, 0, 0
BARO, 11149093, -0.1978004, 983.4036, 41.02, 0.3427178, 11149, 0, 35
CTUN, 11149108, 0, 0, 0, 0.3045363, 0.07383901, 0.07383901, -0.19, 0, 0.19, 0, 0, 0
ATT, 11149274, 0, 0.05, 0, 0.65, 0.87, 0.87, 0, 1
RATE, 11149280, -0.2625675, -0.4774629, 0.002573842, -2.935377, 0.0739467, -0.008789508, 0.00270251, 0.004328162, 5.695669E-05, -137.9922, 1.200771, 0
NKF1, 11149288, 0.05, 0.65, 0.87, 0.00444294, -0.006835565, -0.003407215, 0, 0, 0, -0.07383901, 0, 0, 0
NKF2, 11149288, 0, 0, 0, 0, 0, 0, 0, 0, 0, 0, 0, 0, 0
NKF3, 11149288, 0, 0, 0, 0, 0, 0, 0, 0, 0, 0, 0
NKF4, 11149288, 0, 0, 0, 0, 0, 8.422469E-06, 0, 0, 0, 19, 229, 0, 0
NKF5, 11149288, 0, 0, 0, 0, 0.2, 0.13, 0, 0.19, 0.5, 3.141537E-05, 0.001890676, 0.004856648
NKQ1, 11149288, 0.9999198, -0.003660358, 0.009412173, 0.007652897
AHR2, 11149335, 0.07, 0.67, 0.88, -0.19, 0, 0, 0.9999529, 0.0005766285, 0.00587625, 0.007707238
MOTB, 11149342, 1, 1, 0, 1
RCIN, 11149347, 0, 0, 0, 0, 0, 0, 0, 0, 0, 0, 0, 0, 0, 0
RCOU, 11149352, 1101, 1101, 1101, 1101, 0, 0, 0, 0, 0, 0, 0, 0, 0, 0
VIBE, 11149361, 0.07586885, 0.06383271, 0.04758536, 0, 0, 0
CTRL, 11149367, 0.001555865, 0.003028985, 0.007012478, 0.002778527, 0.000731906
PRX, 11149398, 2, 0.48, 0, 0.24, 0, 3.6, 0, 3.6, 0, 0, 90, 0.24
IMU, 11149406, -0.008399997, 0.001225198, 7.382702E-05, 0.18116, 0.06631811, -9.8092, 0, 0, 42.08718, 1, 1, 999, 999
IMU, 11188861, -0.002183752, -0.00540478, -0.0008134243, 0.1807764, 0.03597207, -9.822878, 0, 0, 42.08718, 1, 1, 999, 999
RFND, 11199186, 0.2, 25, 0, 0
IMU, 11229085, 0.009397983, 0.001971618, 0.003683176, 0.1466899, 0.05300833, -9.787075, 0, 0, 42.0872, 1, 1, 999, 999
MAG, 11248807, 231, 182, 605, 0, 0, 0, 0, 0, 0, 1, 11248799
RFND, 11248836, 0.2, 25, 0, 0
BARO, 11248874, -0.1808461, 983.4016, 41.02, 0.2293112, 11248, 0, 35
CTUN, 11248886, 0, 0, 0, 0.3045363, 0.07303904, 0.07303904, -0.18, 0, 0.19, 0, 0, 0
ATT, 11249086, 0, 0.06, 0, 0.66, 0.86, 0.86, 0, 1
RATE, 11249094, -0.2881574, -0.1574904, 0.001378607, -2.982592, 0.1202095, -0.007582563, 0.00614363, -0.5581644, 0.0002267488, -114.1298, 2.279377, 0
NKF1, 11249102, 0.06, 0.66, 0.86, 0.004166504, -0.007225548, -0.00281802, 0, 0, 0, -0.07303904, 0, 0, 0
NKF2, 11249102, 0, 0, 0, 0, 0, 0, 0, 0, 0, 0, 0, 0, 0
NKF3, 11249102, 0, 0, 0, 0, 0, 0, 0, 0, 0, 0, 0
NKF4, 11249102, 0, 0, 0, 0, 0, 6.469118E-06, 0, 0, 0, 19, 229, 0, 0
NKF5, 11249102, 0, 0, 0, 0, 0.2, 0.13, 0, 0.19, 0.5, 3.337587E-05, 0.001348182, 0.00406005
NKQ1, 11249102, 0.9999198, -0.003597716, 0.009504586, 0.007548772
AHR2, 11249148, 0.07, 0.68, 0.87, -0.18, 0, 0, 0.9999532, 0.0006417807, 0.005960531, 0.007602527
MOTB, 11249155, 1, 1, 0, 1
RCIN, 11249160, 0, 0, 0, 0, 0, 0, 0, 0, 0, 0, 0, 0, 0, 0
RCOU, 11249165, 1101, 1101, 1101, 1101, 0, 0, 0, 0, 0, 0, 0, 0, 0, 0
VIBE, 11249174, 0.06540451, 0.06409219, 0.07140186, 0, 0, 0
CTRL, 11249181, 0.001424788, 0.00264877, 0.007078735, 0.002361354, 0.0006007992
PRX, 11249212, 2, 0.48, 0, 0.25, 0, 3.6, 0, 3.6, 0, 0, 90, 0.25
IMU, 11269494, 0.001601921, -0.0005356674, -0.001131833, 0.1969724, 0.09544157, -9.726376, 0, 0, 42.08718, 1, 1, 999, 999
RFND, 11298805, 0.2, 25, 0, 0
IMU, 11309471, -0.002343091, 0.005709278, -0.002931486, 0.2004643, 0.05420758, -9.780577, 0, 0, 42.08722, 1, 1, 999, 999
MAG, 11348764, 228, 179, 613, 0, 0, 0, 0, 0, 0, 1, 11348755
RFND, 11348794, 0.2, 25, 0, 0
BARO, 11348834, -0.1808461, 983.4014, 41.02, 0.2152414, 11348, 0, 35
CTUN, 11348847, 0, 0, 0, 0.3045363, 0.07217339, 0.07217339, -0.18, 0, 0.19, 0, 0, 0
ATT, 11349424, 0, 0.06, 0, 0.66, 0.85, 0.85, 0, 1
RATE, 11349430, -0.311718, -0.08205567, 0.0004243991, -3.006711, 0.1883481, -0.008774614, 0.002692135, -0.1550265, 0.0003808167, -29.63337, 0.06389618, 0
NKF1, 11349437, 0.06, 0.66, 0.85, 0.004758759, -0.008057455, -0.000731688, 0, 0, 0, -0.07217339, 0, 0, 0
NKF2, 11349437, 0, 0, 0, 0, 0, 0, 0, 0, 0, 0, 0, 0, 0
NKF3, 11349437, 0, 0, 0, 0, 0, 0, 0, 0, 0, 0, 0
NKF4, 11349437, 0, 0, 0, 0, 0, 5.476059E-06, 0, 0, 0, 19, 229, 0, 0
NKF5, 11349437, 0, 0, 0, 0, 0.2, 0.13, 0, 0.19, 0.5, 3.250952E-05, 0.001355716, 0.003938994
NKQ1, 11349437, 0.9999202, -0.00356068, 0.009551787, 0.007464853
AHR2, 11349482, 0.08, 0.68, 0.86, -0.18, 0, 0, 0.9999535, 0.0006773992, 0.005996923, 0.007518278
MOTB, 11349488, 1, 1, 0, 1
RCIN, 11349493, 0, 0, 0, 0, 0, 0, 0, 0, 0, 0, 0, 0, 0, 0
RCOU, 11349498, 1101, 1101, 1101, 1101, 0, 0, 0, 0, 0, 0, 0, 0, 0, 0
VIBE, 11349507, 0.06193945, 0.05027277, 0.05787046, 0, 0, 0
CTRL, 11349513, 0.001278055, 0.002216728, 0.007105741, 0.002000765, 0.0005392393
PRX, 11349692, 2, 0.47, 0, 0.25, 0, 3.6, 0, 3.6, 0, 0, 90, 0.25
IMU, 11349704, -0.001500085, 0.003220882, -0.002707467, 0.211333, 0.04365451, -9.797574, 0, 0, 42.0872, 1, 1, 999, 999
IMU, 11388842, 0.002677819, -0.003328832, -0.001637129, 0.1817267, 0.03559129, -9.823164, 0, 0, 42.08718, 1, 1, 999, 999
RFND, 11398763, 0.2, 25, 0, 0
IMU, 11429704, 0.004107952, 0.003195867, -0.003626959, 0.1870465, 0.08667299, -9.775213, 0, 0, 42.0872, 1, 1, 999, 999
MAG, 11448907, 228, 179, 611, 0, 0, 0, 0, 0, 0, 1, 11448899
RFND, 11448970, 0.2, 25, 0, 0
BARO, 11449008, -0.2147547, 983.4052, 41.01, 0.2278236, 11448, 0, 35
CTUN, 11449020, 0, 0, 0, 0.3045363, 0.07134235, 0.07134235, -0.21, 0, 0.19, 0, 0, 0
ATT, 11449198, 0, 0.07, 0, 0.67, 0.84, 0.84, 0, 1
RATE, 11449205, -0.3327512, -0.01329098, 0.0001729027, -3.046401, -0.02123951, -0.006735873, 0.003863241, -0.1626742, 0.0004091291, 4.371075, -0.5284309, 0
NKF1, 11449213, 0.07, 0.67, 0.84, 0.005207084, -0.008029603, 0.0001079278, 0, 0, 0, -0.07134235, 0, 0, 0
NKF2, 11449213, 0, 0, 0, 0, 0, 0, 0, 0, 0, 0, 0, 0, 0
NKF3, 11449213, 0, 0, 0, 0, 0, 0, 0, 0, 0, 0, 0
NKF4, 11449213, 0, 0, 0, 0, 0, 5.167166E-06, 0, 0, 0, 19, 229, 0, 0
NKF5, 11449213, 0, 0, 0, 0, 0.2, 0.13, 0, 0.19, 0.5, 3.412946E-05, 0.00097096, 0.003287529
NKQ1, 11449213, 0.9999202, -0.003519467, 0.009628604, 0.007376895
AHR2, 11449259, 0.08, 0.69, 0.85, -0.21, 0, 0, 0.9999537, 0.0007207498, 0.006067191, 0.007429876
MOTB, 11449266, 1, 1, 0, 1
RCIN, 11449271, 0, 0, 0, 0, 0, 0, 0, 0, 0, 0, 0, 0, 0, 0
RCOU, 11449276, 1101, 1101, 1101, 1101, 0, 0, 0, 0, 0, 0, 0, 0, 0, 0
VIBE, 11449285, 0.04969101, 0.0457488, 0.05680583, 0, 0, 0
CTRL, 11449291, 0.00118741, 0.001873259, 0.007210577, 0.001713982, 0.0004759235
PRX, 11449323, 2, 0.47, 0, 0.25, 0, 3.6, 0, 3.6, 0, 0, 90, 0.25
IMU, 11469385, -0.0001825098, 0.001916093, -0.000407768, 0.1958657, 0.07618643, -9.796121, 0, 0, 42.08718, 1, 1, 999, 999
RFND, 11498729, 0.2, 25, 0, 0
IMU, 11508847, -0.004228463, -0.002319067, 0.006227, 0.1815459, 0.04629012, -9.806662, 0, 0, 42.0872, 1, 1, 999, 999
MAG, 11548920, 230, 182, 611, 0, 0, 0, 0, 0, 0, 1, 11548912
RFND, 11549373, 0.2, 25, 0, 0
BARO, 11549414, -0.2769205, 983.4119, 41.01, 0.08846331, 11549, 0, 35
CTUN, 11549428, 0, 0, 0, 0.3045363, 0.07048365, 0.07048365, -0.27, 0, 0.19, 0, 0, 0
ATT, 11549659, 0, 0.07, 0, 0.66, 0.85, 0.85, 0, 1
RATE, 11549665, -0.3347542, -0.02805405, -0.0003088449, -2.991, -0.1506281, -0.006878084, 0.002087042, -0.009940406, -0.0002010409, 40.28976, -1.558018, 0
NKF1, 11549673, 0.07, 0.66, 0.85, 0.004657211, -0.009508044, 0.000994809, 0, 0, 0, -0.07048365, 0, 0, 0
NKF2, 11549673, 0, 0, 0, 0, 0, 0, 0, 0, 0, 0, 0, 0, 0
NKF3, 11549673, 0, 0, 0, 0, 0, 0, 0, 0, 0, 0, 0
NKF4, 11549673, 0, 0, 0, 0, 0, 5.590472E-06, 0, 0, 0, 19, 229, 0, 0
NKF5, 11549673, 0, 0, 0, 0, 0.2, 0.13, 0, 0.19, 0.5, 2.878813E-05, 0.0009325561, 0.003127745
NKQ1, 11549673, 0.9999205, -0.003519289, 0.009520742, 0.007474708
AHR2, 11549719, 0.08, 0.68, 0.86, -0.27, 0, 0, 0.9999537, 0.0007257577, 0.005955906, 0.00752815
MOTB, 11549726, 1, 1, 0, 1
RCIN, 11549730, 0, 0, 0, 0, 0, 0, 0, 0, 0, 0, 0, 0, 0, 0
RCOU, 11549736, 1101, 1101, 1101, 1101, 0, 0, 0, 0, 0, 0, 0, 0, 0, 0
VIBE, 11549745, 0.04436667, 0.04040663, 0.05309058, 0, 0, 0
CTRL, 11549751, 0.001092894, 0.001585093, 0.007088584, 0.001446111, 0.0004166526
PRX, 11549783, 2, 0.42, 0, 0.25, 0, 3.6, 0, 3.6, 0, 0, 90, 0.25
IMU, 11549790, -0.0005593377, -0.002696666, -0.0001752791, 0.1814205, 0.0411945, -9.782068, 0, 0, 42.0872, 1, 1, 999, 999
IMU, 11588913, 0.001243292, -0.002832806, 0.0039136, 0.181092, 0.08056007, -9.796775, 0, 0, 42.08718, 1, 1, 999, 999
RFND, 11599262, 0.2, 25, 0, 0
IMU, 11629370, 0.001334895, 0.0005462673, 0.0001174657, 0.153745, 0.05411431, -9.808064, 0, 0, 42.08718, 1, 1, 999, 999
MAG, 11648802, 228, 179, 611, 0, 0, 0, 0, 0, 0, 1, 11648794
RFND, 11648837, 0.2, 25, 0, 0
BARO, 11648874, -0.322132, 983.4169, 41.01, -0.166011, 11648, 0, 35
CTUN, 11648888, 0, 0, 0, 0.3045363, 0.069692, 0.069692, -0.32, 0, 0.19, 0, 0, 0
ATT, 11649142, 0, 0.07, 0, 0.65, 0.86, 0.86, 0, 1
RATE, 11649150, -0.3331822, 0.03126942, -0.0005279472, -2.967214, -0.1526592, -0.006265289, 0.0001519055, 0.0401382, -0.000229846, 46.86302, -0.668335, 0
NKF1, 11649159, 0.07, 0.65, 0.86, 0.003436684, -0.009894402, 0.001157111, 0, 0, 0, -0.069692, 0, 0, 0
NKF2, 11649159, 0, 0, 0, 0, 0, 0, 0, 0, 0, 0, 0, 0, 0
NKF3, 11649159, 0, 0, 0, 0, 0, 0, 0, 0, 0, 0, 0
NKF4, 11649159, 0, 0, 0, 0, 0, 6.201149E-06, 0, 0, 0, 19, 229, 0, 0
NKF5, 11649159, 0, 0, 0, 0, 0.2, 0.13, 0, 0.19, 0.5, 2.941621E-05, 0.0006850688, 0.002600958
NKQ1, 11649159, 0.9999203, -0.003523768, 0.009476609, 0.00756793
AHR2, 11649204, 0.08, 0.67, 0.87, -0.32, 0, 0, 0.9999532, 0.0007222784, 0.005909752, 0.007621573
MOTB, 11649212, 1, 1, 0, 1
RCIN, 11649216, 0, 0, 0, 0, 0, 0, 0, 0, 0, 0, 0, 0, 0, 0
RCOU, 11649222, 1101, 1101, 1101, 1101, 0, 0, 0, 0, 0, 0, 0, 0, 0, 0
VIBE, 11649231, 0.03395858, 0.03257888, 0.0397715, 0, 0, 0
CTRL, 11649237, 0.001006247, 0.001324537, 0.00703327, 0.001237064, 0.0003802708
PRX, 11649269, 2, 0.43, 0, 0.25, 0, 3.6, 0, 3.6, 0, 0, 90, 0.25
IMU, 11668832, -8.229774E-05, -0.0003838923, 0.004050583, 0.180863, 0.09025197, -9.799522, 0, 0, 42.08718, 1, 1, 999, 999
RFND, 11698891, 0.2, 25, 0, 0
IMU, 11708881, -0.0007700495, 0.0008687181, -0.0031662, 0.1853864, 0.05366196, -9.783365, 0, 0, 42.0872, 1, 1, 999, 999
MAG, 11748887, 228, 177, 612, 0, 0, 0, 0, 0, 0, 1, 11748879
RFND, 11748921, 0.2, 25, 0, 0
BARO, 11749077, -0.2825719, 983.4127, 41.01, -0.3524681, 11749, 0, 35
CTUN, 11749103, 0, 0, 0, 0.3045363, 0.06889367, 0.06889367, -0.28, 0, 0.19, 0, 0, 0
DU32, 11749144, 7, 50389208
ATT, 11749402, 0, 0.07, 0, 0.65, 0.86, 0.86, 0, 1
RATE, 11749408, -0.3393534, -0.01451948, -0.0007150156, -2.969187, -0.113523, -0.006109403, 0.001458364, 0.1133786, -6.280393E-05, 81.28505, 0.8363724, 0
NKF1, 11749417, 0.07, 0.65, 0.86, 0.003501678, -0.009305437, 0.002007038, 0, 0, 0, -0.06889367, 0, 0, 0
NKF2, 11749417, 0, 0, 0, 0, 0, 0, 0, 0, 0, 0, 0, 0, 0
NKF3, 11749417, 0, 0, 0, 0, 0, 0, 0, 0, 0, 0, 0
NKF4, 11749417, 0, 0, 0, 0, 0, 7.730539E-06, 0, 0, 0, 19, 229, 0, 0
NKF5, 11749417, 0, 0, 0, 0, 0.2, 0.13, 0, 0.19, 0.5, 2.256624E-05, 0.0005784615, 0.002384014
NKQ1, 11749417, 0.9999201, -0.003513792, 0.009480145, 0.007597383
AHR2, 11749463, 0.08, 0.67, 0.87, -0.28, 0, 0, 0.999953, 0.0007297197, 0.005911379, 0.007650959
MOTB, 11749470, 1, 1, 0, 1
RCIN, 11749474, 0, 0, 0, 0, 0, 0, 0, 0, 0, 0, 0, 0, 0, 0
RCOU, 11749480, 1101, 1101, 1101, 1101, 0, 0, 0, 0, 0, 0, 0, 0, 0, 0
VIBE, 11749489, 0.03621252, 0.0326088, 0.04513073, 0, 0, 0
CTRL, 11749495, 0.0009617812, 0.001102771, 0.007034168, 0.001021811, 0.0003388877
PRX, 11749526, 2, 0.43, 0, 0.25, 0, 3.6, 0, 3.6, 0, 0, 90, 0.25
IMU, 11749533, -0.0003255219, -0.002050676, 0.001976987, 0.187167, 0.05741889, -9.805889, 0, 0, 42.08718, 1, 1, 999, 999
IMU, 11789163, -0.0002082926, -0.0002764594, -0.001795844, 0.1855819, 0.07820636, -9.797846, 0, 0, 42.08718, 1, 1, 999, 999
RFND, 11799151, 0.2, 25, 0, 0
IMU, 11828990, 0.0002144538, -0.000593279, 0.0001101373, 0.1707209, 0.04919827, -9.790331, 0, 0, 42.08722, 1, 1, 999, 999
MAG, 11848762, 226, 175, 614, 0, 0, 0, 0, 0, 0, 1, 11848754
RFND, 11848797, 0.2, 25, 0, 0
BARO, 11848834, -0.2769205, 983.4122, 41, -0.3246407, 11848, 0, 35
CTUN, 11848846, 0, 0, 0, 0.3045363, 0.06817157, 0.06817157, -0.27, 0, 0.19, 0, 0, 0
ATT, 11849111, 0, 0.07, 0, 0.65, 0.86, 0.86, 0, 1
RATE, 11849119, -0.3382272, 0.03339691, -0.0009293124, -2.953244, -0.06457542, -0.006682892, 0.002579985, 0.0282284, 7.999725E-05, 74.36897, 3.010368, 0
NKF1, 11849127, 0.07, 0.65, 0.86, 0.003316859, -0.009637333, 0.001836271, 0, 0, 0, -0.06817157, 0, 0, 0
NKF2, 11849127, 0, 0, 0, 0, 0, 0, 0, 0, 0, 0, 0, 0, 0
NKF3, 11849127, 0, 0, 0, 0, 0, 0, 0, 0, 0, 0, 0
NKF4, 11849127, 0, 0, 0, 0, 0, 9.063019E-06, 0, 0, 0, 19, 229, 0, 0
NKF5, 11849127, 0, 0, 0, 0, 0.2, 0.13, 0, 0.19, 0.5, 1.98942E-05, 0.0004085614, 0.002093761
NKQ1, 11849127, 0.9999207, -0.003513687, 0.009447672, 0.007564696
AHR2, 11849172, 0.08, 0.67, 0.87, -0.27, 0, 0, 0.9999535, 0.0007269538, 0.005871139, 0.007618393
MOTB, 11849181, 1, 1, 0, 1
RCIN, 11849186, 0, 0, 0, 0, 0, 0, 0, 0, 0, 0, 0, 0, 0, 0
RCOU, 11849191, 1101, 1101, 1101, 1101, 0, 0, 0, 0, 0, 0, 0, 0, 0, 0
VIBE, 11849201, 0.02841361, 0.0282692, 0.03804096, 0, 0, 0
CTRL, 11849207, 0.0009062669, 0.0009044138, 0.006978812, 0.0008462663, 0.0002831091
PRX, 11849239, 2, 0.42, 0, 0.25, 0, 3.6, 0, 3.6, 0, 0, 90, 0.25
IMU, 11869172, -0.001490251, -0.0008390681, -0.0001620631, 0.1961291, 0.09653001, -9.776727, 0, 0, 42.08718, 1, 1, 999, 999
RFND, 11898672, 0.2, 25, 0, 0
IMU, 11908784, -0.001283883, -0.002175286, -0.001440565, 0.2186349, 0.06297415, -9.770922, 0, 0, 42.08718, 1, 1, 999, 999
MAG, 11948878, 226, 171, 614, 0, 0, 0, 0, 0, 0, 1, 11948869
RFND, 11948910, 0.2, 25, 0, 0
BARO, 11948984, -0.2938748, 983.4139, 41, -0.1218591, 11948, 0, 35
CTUN, 11948997, 0, 0, 0, 0.3045363, 0.06743772, 0.06743772, -0.29, 0, 0.19, 0, 0, 0
ATT, 11949259, 0, 0.07, 0, 0.65, 0.86, 0.86, 0, 1
RATE, 11949265, -0.3203654, 0.0257703, -0.0009665288, -2.941786, -0.03064995, -0.006483182, 0.002488911, -0.07511909, 5.048434E-05, 155.5676, -1.491261, 0
NKF1, 11949273, 0.07, 0.65, 0.86, 0.003538745, -0.009580168, 0.003841176, 0, 0, 0, -0.06743772, 0, 0, 0
NKF2, 11949273, 0, 0, 0, 0, 0, 0, 0, 0, 0, 0, 0, 0, 0
NKF3, 11949273, 0, 0, 0, 0, 0, 0, 0, 0, 0, 0, 0
NKF4, 11949273, 0, 0, 0, 0, 0, 1.145484E-05, 0, 0, 0, 19, 229, 0, 0
NKF5, 11949273, 0, 0, 0, 0, 0.2, 0.13, 0, 0.19, 0.5, 2.005888E-05, 0.0003260845, 0.001738936
NKQ1, 11949273, 0.9999208, -0.003545744, 0.009424682, 0.007548539
AHR2, 11949317, 0.08, 0.66, 0.87, -0.29, 0, 0, 0.9999539, 0.0006908438, 0.005835893, 0.007602441
MOTB, 11949324, 1, 1, 0, 1
RCIN, 11949329, 0, 0, 0, 0, 0, 0, 0, 0, 0, 0, 0, 0, 0, 0
RCOU, 11949334, 1101, 1101, 1101, 1101, 0, 0, 0, 0, 0, 0, 0, 0, 0, 0
VIBE, 11949343, 0.03323714, 0.02962626, 0.03657571, 0, 0, 0
CTRL, 11949349, 0.0008393422, 0.0007468947, 0.006946105, 0.0007126423, 0.0002331577
PRX, 11949380, 2, 0.4, 0, 0.25, 0, 3.6, 0, 3.6, 0, 0, 90, 0.25
IMU, 11949387, 0.000373986, -0.0006066806, -0.001313005, 0.1538406, 0.05190461, -9.783307, 0, 0, 42.08718, 1, 1, 999, 999
IMU, 11988807, 0.0007305567, 0.001989154, 8.611533E-05, 0.1919549, 0.04735697, -9.791153, 0, 0, 42.08718, 1, 1, 999, 999
RFND, 11998625, 0.2, 25, 0, 0
IMU, 12029311, 0.000791435, -0.0003056793, 0.0001192353, 0.1935021, 0.07290907, -9.774181, 0, 0, 42.08718, 1, 1, 999, 999
MAG, 12048643, 231, 180, 608, 0, 0, 0, 0, 0, 0, 1, 12048634
RFND, 12048674, 0.2, 25, 0, 0
BARO, 12048710, -0.1695432, 983.4005, 41, 0.06352556, 12048, 0, 35
CTUN, 12048721, 0, 0, 0, 0.3045363, 0.06667186, 0.06667186, -0.16, 0, 0.19, 0, 0, 0
ATT, 12048813, 0, 0.06, 0, 0.65, 0.86, 0.86, 0, 1
RATE, 12048819, -0.3125209, -0.0783563, -0.0001241195, -2.945325, -0.01648036, -0.006762358, -0.0004609194, 0.01077023, 4.4602E-05, 219.72, -3.031826, 0
NKF1, 12048827, 0.06, 0.65, 0.86, 0.004105527, -0.009849707, 0.005425185, 0, 0, 0, -0.06667186, 0, 0, 0
NKF2, 12048827, 0, 0, 0, 0, 0, 0, 0, 0, 0, 0, 0, 0, 0
NKF3, 12048827, 0, 0, 0, 0, 0, 0, 0, 0, 0, 0, 0
NKF4, 12048827, 0, 0, 0, 0, 0, 1.382136E-05, 0, 0, 0, 19, 229, 0, 0
NKF5, 12048827, 0, 0, 0, 0, 0.19, 0.13, 0, 0.19, 0.5, 2.871223E-05, 0.0002718449, 0.001464875
NKQ1, 12048827, 0.9999207, -0.003562769, 0.009433562, 0.007555016
AHR2, 12048870, 0.08, 0.66, 0.87, -0.16, 0, 0, 0.9999538, 0.0006727087, 0.005835026, 0.007608954
MOTB, 12048876, 1, 1, 0, 1
RCIN, 12048881, 0, 0, 0, 0, 0, 0, 0, 0, 0, 0, 0, 0, 0, 0
RCOU, 12048886, 1101, 1101, 1101, 1101, 0, 0, 0, 0, 0, 0, 0, 0, 0, 0
VIBE, 12048895, 0.03074312, 0.02823125, 0.03384092, 0, 0, 0
CTRL, 12048901, 0.0008126521, 0.0006347381, 0.006952208, 0.0006119945, 0.0001924475
PRX, 12048964, 2, 0.39, 0, 0.25, 0, 3.6, 0, 3.6, 0, 0, 90, 0.25
IMU, 12068884, 8.529999E-05, -0.001309354, 0.001506092, 0.2298556, 0.111706, -9.760151, 0, 0, 42.08718, 1, 1, 999, 999
RFND, 12098636, 0.2, 25, 0, 0
IMU, 12108715, -0.001812313, -0.01074559, 0.01226437, 0.2038366, 0.0481031, -9.820286, 0, 0, 42.08718, 1, 1, 999, 999
MAG, 12148709, 228, 179, 606, 0, 0, 0, 0, 0, 0, 1, 12148701
RFND, 12148743, 0.2, 25, 0, 0
BARO, 12148780, -0.2373604, 983.4077, 41.01, 0.1853697, 12148, 0, 35
CTUN, 12148792, 0, 0, 0, 0.3045363, 0.06580024, 0.06580024, -0.23, 0, 0.19, 0, 0, 0
ATT, 12148970, 0, 0.06, 0, 0.62, 0.89, 0.89, 0, 1
RATE, 12148977, -0.2957185, -0.0005973735, -0.0007947691, -2.820533, -0.07745408, -0.007370659, 0.001028996, 0.1176491, -0.0007191699, 252.9145, -0.6572723, 0
NKF1, 12148985, 0.06, 0.62, 0.89, 0.004282358, -0.00943069, 0.006244803, 0, 0, 0, -0.06580024, 0, 0, 0
NKF2, 12148985, 0, 0, 0, 0, 0, 0, 0, 0, 0, 0, 0, 0, 0
NKF3, 12148985, 0, 0, 0, 0, 0, 0, 0, 0, 0, 0, 0
NKF4, 12148985, 0, 0, 0, 0, 0, 1.671718E-05, 0, 0, 0, 19, 229, 0, 0
NKF5, 12148985, 0, 0, 0, 0, 0.19, 0.13, 0, 0.19, 0.5, 2.55652E-05, 0.0002470356, 0.001220313
NKQ1, 12148985, 0.9999207, -0.003598551, 0.009188546, 0.007832189
AHR2, 12149103, 0.07, 0.63, 0.9, -0.23, 0, 0, 0.9999531, 0.0006380895, 0.005582556, 0.007887245
MOTB, 12149111, 1, 1, 0, 1
RCIN, 12149116, 0, 0, 0, 0, 0, 0, 0, 0, 0, 0, 0, 0, 0, 0
RCOU, 12149121, 1101, 1101, 1101, 1101, 0, 0, 0, 0, 0, 0, 0, 0, 0, 0
VIBE, 12149130, 0.06227848, 0.05907789, 0.09561843, 0, 0, 0
CTRL, 12149137, 0.0007513296, 0.000559549, 0.006684189, 0.0006982695, 0.0004099011
PRX, 12149168, 2, 0.36, 0, 0.25, 0, 3.6, 0, 3.6, 0, 0, 90, 0.25
IMU, 12149175, -9.119261E-05, -0.001426569, 0.002051321, 0.1368277, 0.05585647, -9.791917, 0, 0, 42.08718, 1, 1, 999, 999
IMU, 12188710, -0.002058922, 0.001536591, -0.002749207, 0.1696834, 0.06071331, -9.790905, 0, 0, 42.08718, 1, 1, 999, 999
RFND, 12198753, 0.2, 25, 0, 0
IMU, 12228768, -0.001557334, -0.001206945, 0.00234887, 0.2004825, 0.05883629, -9.801811, 0, 0, 42.08718, 1, 1, 999, 999
MAG, 12248677, 226, 177, 616, 0, 0, 0, 0, 0, 0, 1, 12248668
RFND, 12248710, 0.2, 25, 0, 0
BARO, 12248745, -0.1695432, 983.4005, 41, 0.2721171, 12248, 0, 35
CTUN, 12248757, 0, 0, 0, 0.3045363, 0.06499636, 0.06499636, -0.16, 0, 0.19, 0, 0, 0
ATT, 12248849, 0, 0.06, 0, 0.63, 0.88, 0.88, 0, 1
RATE, 12248856, -0.2736459, 0.004611972, -0.001121142, -2.846547, 0.118325, -0.007623112, 0.001936153, -0.06383613, -7.209332E-05, 268.6082, -0.5226135, 0
NKF1, 12248863, 0.06, 0.63, 0.88, 0.004043119, -0.009903547, 0.006632301, 0, 0, 0, -0.06499636, 0, 0, 0
NKF2, 12248863, 0, 0, 0, 0, 0, 0, 0, 0, 0, 0, 0, 0, 0
NKF3, 12248863, 0, 0, 0, 0, -0.01, 0, 0, 0, 0, 0, 0
NKF4, 12248863, 0, 0, 0, 0, 0, 1.989415E-05, 0, 0, 0, 19, 229, 0, 0
NKF5, 12248863, 0, 0, 0, 0, 0.19, 0.13, 0, 0.19, 0.5, 4.401741E-05, 0.000453472, 0.001060362
NKQ1, 12248863, 0.9999205, -0.003637246, 0.009238711, 0.007766646
AHR2, 12248905, 0.07, 0.64, 0.89, -0.16, 0, 0, 0.9999534, 0.0005950052, 0.00562412, 0.007821641
MOTB, 12248913, 1, 1, 0, 1
RCIN, 12248917, 0, 0, 0, 0, 0, 0, 0, 0, 0, 0, 0, 0, 0, 0
RCOU, 12248955, 1101, 1101, 1101, 1101, 0, 0, 0, 0, 0, 0, 0, 0, 0, 0
VIBE, 12248965, 0.04512656, 0.04060449, 0.05847451, 0, 0, 0
CTRL, 12248971, 0.0006891075, 0.0004745543, 0.006710706, 0.0006226909, 0.0003772073
PRX, 12249002, 2, 0.35, 0, 0.25, 0, 3.6, 0, 3.6, 0, 0, 90, 0.25
IMU, 12269689, 0.001525825, 0.00178585, -0.0002079835, 0.2125877, 0.09784827, -9.777667, 0, 0, 42.08718, 1, 1, 999, 999
RFND, 12298878, 0.2, 25, 0, 0
IMU, 12309153, 0.0003653872, 0.00162549, -0.0003498112, 0.1671767, 0.04432797, -9.806885, 0, 0, 42.08718, 1, 1, 999, 999
MAG, 12349613, 227, 176, 612, 0, 0, 0, 0, 0, 0, 1, 12349605
RFND, 12349642, 0.2, 25, 0, 0
BARO, 12349681, -0.1864975, 983.4017, 41, 0.2525487, 12349, 0, 35
CTUN, 12349693, 0, 0, 0, 0.3045363, 0.06420582, 0.06420582, -0.18, 0, 0.19, 0, 0, 0
ATT, 12349798, 0, 0.06, 0, 0.64, 0.87, 0.87, 0, 1
RATE, 12349804, -0.279479, -0.05202401, -0.0005230581, -2.897085, 0.09113984, -0.006940344, 0.002527748, -0.1437549, 0.0002277994, 280.7468, -0.4034996, 0
NKF1, 12349812, 0.06, 0.64, 0.87, 0.004239551, -0.01012363, 0.006932021, 0, 0, 0, -0.06420582, 0, 0, 0
NKF2, 12349812, 0, 0, 0, 0, 0, 0, 0, 0, 0, 0, 0, 0, 0
NKF3, 12349812, 0, 0, 0, 0, -0.01, 0, 0, 0, 0, 0, 0
NKF4, 12349812, 0, 0, 0, 0, 0, 2.303359E-05, 0, 0, 0, 19, 229, 0, 0
NKF5, 12349812, 0, 0, 0, 0, 0.19, 0.13, 0, 0.19, 0.5, 3.637576E-05, 0.0003335928, 0.0008603606
NKQ1, 12349812, 0.9999202, -0.003624322, 0.00933684, 0.007702339
AHR2, 12349856, 0.07, 0.65, 0.88, -0.18, 0, 0, 0.9999534, 0.0006002634, 0.005713743, 0.007756853
MOTB, 12349862, 1, 1, 0, 1
RCIN, 12349866, 0, 0, 0, 0, 0, 0, 0, 0, 0, 0, 0, 0, 0, 0
RCOU, 12349872, 1101, 1101, 1101, 1101, 0, 0, 0, 0, 0, 0, 0, 0, 0, 0
VIBE, 12349881, 0.03450999, 0.03145692, 0.04401741, 0, 0, 0
CTRL, 12349887, 0.0007041325, 0.0004102923, 0.006822664, 0.0005220155, 0.0003133125
PRX, 12349919, 2, 0.34, 0, 0.25, 0, 3.6, 0, 3.6, 0, 0, 90, 0.25
IMU, 12349926, -0.000995068, 0.001512373, -0.002511183, 0.1878841, 0.07565016, -9.79334, 0, 0, 42.08718, 1, 1, 999, 999
IMU, 12388818, -0.0001169108, 0.0002158138, -0.000149121, 0.1640064, 0.05950927, -9.790547, 0, 0, 42.08718, 1, 1, 999, 999
RFND, 12399417, 0.2, 25, 0, 0
IMU, 12429076, -0.0003643003, 0.003696534, -0.006886924, 0.1950086, 0.06293064, -9.787628, 0, 0, 42.08718, 1, 1, 999, 999
MAG, 12448821, 231, 179, 613, 0, 0, 0, 0, 0, 0, 1, 12448812
RFND, 12448851, 0.2, 25, 0, 0
BARO, 12449096, -0.2430119, 983.4084, 41, 0.1444658, 12449, 0, 35
CTUN, 12449109, 0, 0, 0, 0.3045363, 0.0635488, 0.0635488, -0.24, 0, 0.19, 0, 0, 0
ATT, 12449211, 0, 0.06, 0, 0.65, 0.85, 0.86, 0, 1
RATE, 12449217, -0.2699712, -0.0707482, -0.0002700752, -2.953564, 0.1224639, -0.007104415, 0.0009014889, -0.1239644, 0.000630857, 286.1778, -0.3686905, 0
NKF1, 12449225, 0.06, 0.65, 0.86, 0.004522581, -0.009805689, 0.007066118, 0, 0, 0, -0.0635488, 0, 0, 0
NKF2, 12449225, 0, 0, 0, 0, 0, 0, 0, 0, 0, 0, 0, 0, 0
NKF3, 12449225, 0, 0, 0, 0, -0.01, 0, 0, 0, 0, 0, 0
NKF4, 12449225, 0, 0, 0, 0, 0, 2.685587E-05, 0, 0, 0, 19, 229, 0, 0
NKF5, 12449225, 0, 0, 0, 0, 0.19, 0.13, 0, 0.19, 0.5, 6.173658E-05, 0.0006964029, 0.0009578412
NKQ1, 12449225, 0.9999204, -0.003642304, 0.009448293, 0.007539849
AHR2, 12449271, 0.07, 0.66, 0.87, -0.24, 0, 0, 0.9999541, 0.0005749742, 0.005816959, 0.007593959
MOTB, 12449278, 1, 1, 0, 1
RCIN, 12449282, 0, 0, 0, 0, 0, 0, 0, 0, 0, 0, 0, 0, 0, 0
RCOU, 12449288, 1101, 1101, 1101, 1101, 0, 0, 0, 0, 0, 0, 0, 0, 0, 0
VIBE, 12449297, 0.03158359, 0.03009603, 0.03785407, 0, 0, 0
CTRL, 12449304, 0.0006753975, 0.0003418264, 0.006942403, 0.0004501413, 0.0003486197
PRX, 12449336, 2, 0.36, 0, 0.25, 0, 3.6, 0, 3.6, 0, 0, 90, 0.25
EV, 12453524, 57
IMU, 12468954, 0.001008886, 0.000814952, -0.001996434, 0.2118618, 0.09319626, -9.795261, 0, 0, 42.08718, 1, 1, 999, 999
RFND, 12498722, 0.2, 25, 0, 0
IMU, 12509173, 0.00100451, 0.001452251, -0.0005424754, 0.1716192, 0.05093321, -9.810837, 0, 0, 42.08718, 1, 1, 999, 999
MAG, 12548810, 227, 177, 606, 0, 0, 0, 0, 0, 0, 1, 12548801
RFND, 12548840, 0.2, 25, 0, 0
BARO, 12548878, -0.2769205, 983.4118, 41, -0.007230659, 12548, 0, 35
CTUN, 12548891, 0, 0, 0, 0.3045363, 0.06292176, 0.06292176, -0.27, 0, 0.19, 0, 0, 0
ATT, 12549247, 0, 0.06, 0, 0.65, 0.84, 0.84, 0, 1
RATE, 12549253, -0.2951402, -0.08297595, 0.0002565011, -2.96991, -0.1148881, -0.006056757, 0.001715464, -0.3224506, 0.0005429795, 284.462, -4.611301, 0
NKF1, 12549262, 0.06, 0.65, 0.84, 0.004628499, -0.0100752, 0.007023754, 0, 0, 0, -0.06292176, 0, 0, 0
NKF2, 12549262, 0, 0, 0, 0, 0, 0, 0, 0, 0, 0, 0, 0, 0
NKF3, 12549262, 0, 0, 0, 0, -0.01, 0, 0, 0, 0, 0, 0
NKF4, 12549262, 0, 0, 0, 0, 0, 3.001474E-05, 0, 0, 0, 19, 229, 0, 0
NKF5, 12549262, 0, 0, 0, 0, 0.19, 0.13, 0, 0.19, 0.5, 4.909468E-05, 0.0004710084, 0.0006886993
NKQ1, 12549262, 0.9999212, -0.003588159, 0.00947901, 0.007407319
AHR2, 12549305, 0.07, 0.66, 0.85, -0.27, 0, 0, 0.9999549, 0.0006236079, 0.005840689, 0.007461076
MOTB, 12549312, 1, 1, 0, 1
RCIN, 12549317, 0, 0, 0, 0, 0, 0, 0, 0, 0, 0, 0, 0, 0, 0
RCOU, 12549322, 1123, 1123, 1123, 1123, 0, 0, 0, 0, 0, 0, 0, 0, 0, 0
VIBE, 12549331, 0.03058448, 0.02939099, 0.04355201, 0, 0, 0
CTRL, 12549337, 0.0007377901, 0.0003288721, 0.007009969, 0.0003939969, 0.0003886253
PRX, 12549370, 2, 0.41, 0, 0.25, 0, 3.6, 0, 3.6, 0, 0, 90, 0.25
IMU, 12549377, -0.001542871, -0.002087604, -0.005630184, 0.1604963, 0.04663245, -9.751905, 0, 0, 42.08718, 1, 1, 999, 999
IMU, 12589324, -0.0008489446, 0.0013652, 0.0009057606, 0.1664923, 0.04547273, -9.785589, 0, 0, 42.0872, 1, 1, 999, 999
RFND, 12598864, 0.2, 25, 0, 0
IMU, 12629134, -0.0002076535, 0.002814051, 0.0005733945, 0.1818429, 0.05541753, -9.792543, 0, 0, 42.08718, 1, 1, 999, 999
MAG, 12648809, 229, 178, 613, 0, 0, 0, 0, 0, 0, 1, 12648800
RFND, 12648989, 0.2, 25, 0, 0
BARO, 12649079, -0.2430119, 983.4084, 41, -0.1865946, 12649, 0, 35
CTUN, 12649105, 0, 0, 0, 0.3045363, 0.06245266, 0.06245266, -0.24, 0, 0.19, 0, 0, 0
ATT, 12649212, 0, 0.06, 0, 0.66, 0.84, 0.84, 0, 1
RATE, 12649218, -0.2847961, -0.05732083, -0.0003307548, -2.989549, 0.0265427, -0.006859363, 0.001653166, -0.09318388, 0.0001723734, 274.9593, 1.387691, 0
NKF1, 12649226, 0.06, 0.66, 0.84, 0.00383962, -0.01053055, 0.006789118, 0, 0, 0, -0.06245266, 0, 0, 0
NKF2, 12649226, 0, 0, 0, 0, 0, 0, 0, 0, 0, 0, 0, 0, 0
NKF3, 12649226, 0, 0, 0, 0, -0.01, 0, 0, 0, 0, 0, 0
NKF4, 12649226, 0, 0, 0, 0, 0, 3.410355E-05, 0, 0, 0, 19, 229, 0, 0
NKF5, 12649226, 0, 0, 0, 0, 0.19, 0.13, 0, 0.19, 0.5, 7.787232E-05, 0.0009036496, 0.001153189
NKQ1, 12649226, 0.9999208, -0.003613536, 0.009518381, 0.007410217
AHR2, 12649271, 0.07, 0.67, 0.85, -0.24, 0, 0, 0.9999547, 0.0005908789, 0.005872341, 0.007463879
MOTB, 12649278, 1, 1, 0, 1
RCIN, 12649283, 0, 0, 0, 0, 0, 0, 0, 0, 0, 0, 0, 0, 0, 0
RCOU, 12649288, 1147, 1147, 1147, 1147, 0, 0, 0, 0, 0, 0, 0, 0, 0, 0
VIBE, 12649297, 0.0309198, 0.02592391, 0.04006023, 0, 0, 0
CTRL, 12649304, 0.0007006064, 0.0002937786, 0.007030752, 0.0004011792, 0.0003708067
PRX, 12649336, 2, 0.41, 0, 0.25, 0, 3.6, 0, 3.6, 0, 0, 90, 0.25
IMU, 12668890, -0.0008272389, -0.0001709405, 0.00183704, 0.1865932, 0.09956993, -9.769189, 0, 0, 42.08718, 1, 1, 999, 999
RFND, 12698734, 0.2, 25, 0, 0
IMU, 12709111, -0.0003069612, -0.001445563, 0.0004917452, 0.1832177, 0.06630908, -9.780597, 0, 0, 42.08718, 1, 1, 999, 999
MAG, 12748790, 228, 183, 610, 0, 0, 0, 0, 0, 0, 1, 12748781
RFND, 12748818, 0.2, 25, 0, 0
BARO, 12748856, -0.2656176, 983.4105, 41, -0.2424332, 12748, 0, 35
CTUN, 12748869, 0, 0, 0, 0.3045363, 0.06189559, 0.06189559, -0.26, 0, 0.19, 0, 0, 0
DU32, 12749109, 7, 33611992
ATT, 12749251, 0, 0.06, 0, 0.66, 0.84, 0.84, 0, 1
RATE, 12749257, -0.2938237, 0.005450733, -0.0003428041, -2.990001, -0.02671393, -0.00675273, 0.001698229, 0.01424029, 0.0001198991, 340.3988, -1.950169, 0
NKF1, 12749266, 0.06, 0.66, 0.84, 0.003257444, -0.009738676, 0.00840491, 0, 0, 0, -0.06189559, 0, 0, 0
NKF2, 12749266, 0, 0, 0, 0, 0, 0, 0, 0, 0, 0, 0, 0, 0
NKF3, 12749266, 0, 0, 0, 0, -0.01, 0, 0, 0, 0, 0, 0
NKF4, 12749266, 0, 0, 0, 0, 0, 3.722948E-05, 0, 0, 0, 19, 229, 0, 0
NKF5, 12749266, 0, 0, 0, 0, 0.19, 0.13, 0, 0.19, 0.5, 0.0001084581, 0.00160421, 0.002155549
NKQ1, 12749266, 0.9999208, -0.003598419, 0.009519132, 0.007401955
AHR2, 12749312, 0.07, 0.67, 0.85, -0.26, 0, 0, 0.9999548, 0.0005993652, 0.005865698, 0.007455525
MOTB, 12749319, 1, 1, 0, 1
RCIN, 12749323, 0, 0, 0, 0, 0, 0, 0, 0, 0, 0, 0, 0, 0, 0
RCOU, 12749329, 1171, 1171, 1171, 1171, 0, 0, 0, 0, 0, 0, 0, 0, 0, 0
VIBE, 12749338, 0.02743428, 0.02409726, 0.03574089, 0, 0, 0
CTRL, 12749344, 0.0007082821, 0.0002673228, 0.007039492, 0.0003568928, 0.0003086807
PRX, 12749374, 2, 0.39, 0, 0.25, 0, 3.6, 0, 3.6, 0, 0, 90, 0.25
IMU, 12749381, -1.774875E-05, -0.0005579157, 0.0002457721, 0.1721965, 0.05990788, -9.777984, 0, 0, 42.08718, 1, 1, 999, 999
IMU, 12789557, -0.001349337, -0.001980964, 0.0007636886, 0.186861, 0.04774446, -9.757961, 0, 0, 42.08718, 1, 1, 999, 999
RFND, 12798854, 0.2, 25, 0, 0
IMU, 12829088, 0.001392077, -0.004657605, -0.001256619, 0.01053119, 0.07944361, -10.30742, 0, 0, 42.0872, 1, 1, 999, 999
MAG, 12848811, 225, 184, 610, 0, 0, 0, 0, 0, 0, 1, 12848802
RFND, 12848985, 0.2, 25, 0, 0
BARO, 12849079, -0.3277835, 983.4172, 41, -0.1485159, 12849, 0, 35
CTUN, 12849093, 0, 0, 0, 0.3045363, 0.06134574, 0.06134574, -0.32, 0, 0.19, 0, 0, -1
ATT, 12849255, 0, 0.06, 0, 0.65, 0.84, 0.84, 0, 1
RATE, 12849262, -0.2948385, -0.03628032, -0.000405147, -2.940413, 0.4990991, -0.009871836, 0.001668455, 0.1117054, -0.0001513138, 446.2062, -31.05516, 0
NKF1, 12849270, 0.06, 0.65, 0.84, 0.0008513622, -0.0110134, 0.01101744, 0, 0, 0, -0.06134574, 0, 0, 0
NKF2, 12849270, 0, 0, 0, 0, 0, 0, 0, 0, 0, 0, 0, 0, 0
NKF3, 12849270, 0, 0, 0, 0, -0.01, 0, 0, 0, 0, 0, 0
NKF4, 12849270, 0, 0, 0, 0, 0, 4.086097E-05, 0, 0, 0, 19, 229, 0, 0
NKF5, 12849270, 0, 0, 0, 0, 0.19, 0.13, 0, 0.19, 0.5, 9.122446E-05, 0.001032603, 0.001427775
NKQ1, 12849270, 0.9999215, -0.003598348, 0.0094223, 0.007441898
AHR2, 12849316, 0.07, 0.65, 0.85, -0.32, 0, 0, 0.9999552, 0.0005871671, 0.005758189, 0.007495793
MOTB, 12849323, 1, 1, 0, 1
RCIN, 12849327, 0, 0, 0, 0, 0, 0, 0, 0, 0, 0, 0, 0, 0, 0
RCOU, 12849333, 1195, 1195, 1195, 1195, 0, 0, 0, 0, 0, 0, 0, 0, 0, 0
VIBE, 12849342, 0.106892, 0.1156106, 0.3513628, 0, 0, 0
CTRL, 12849348, 0.0006954201, 0.0002817992, 0.006911903, 0.0008334199, 0.0002573889
PRX, 12849380, 2, 0.38, 0, 0.25, 0, 3.6, 0, 3.6, 0, 0, 90, 0.25
IMU, 12868871, -0.0066879, -0.02066888, 0.00201425, 0.3687561, 0.1456333, -9.919937, 0, 0, 42.0872, 1, 1, 999, 999
RFND, 12898805, 0.2, 25, 0, 0
IMU, 12908814, -0.004570107, -0.01260311, 0.0103325, 0.05374115, 0.0686022, -9.723953, 0, 0, 42.08718, 1, 1, 999, 999
MAG, 12949541, 228, 177, 609, 0, 0, 0, 0, 0, 0, 1, 12949532
RFND, 12949596, 0.2, 25, 0, 0
BARO, 12949634, -0.1695432, 983.4, 41, -0.0830055, 12949, 0, 35
CTUN, 12949648, 0, 0, 0, 0.3045363, 0.0608064, 0.0608064, -0.16, 0, 0.19, 0, 0, 0
ATT, 12949752, 0, 0.06, 0, 0.63, 0.85, 0.85, 0, 1
RATE, 12949757, -0.2812687, -0.2191667, 0.002328281, -2.869399, 0.7095366, -0.0114392, 0.001555015, 0.09572843, 6.618418E-06, 360.5383, 3.350639, 0
NKF1, 12949765, 0.06, 0.63, 0.85, 0.002838969, -0.007724328, 0.00890218, 0, 0, 0, -0.0608064, 0, 0, 0
NKF2, 12949765, 0, 0, 0, 0, 0, 0, 0, 0, 0, 0, 0, 0, 0
NKF3, 12949765, 0, 0, 0, 0, -0.01, 0, 0, 0, 0, 0, 0
NKF4, 12949765, 0, 0, 0, 0, 0, 4.373253E-05, 0, 0, 0, 19, 229, 0, 0
NKF5, 12949765, 0, 0, 0, 0, 0.19, 0.13, 0, 0.19, 0.5, 0.0001224033, 0.00170681, 0.002490195
NKQ1, 12949765, 0.9999222, -0.003623697, 0.009286043, 0.00750936
AHR2, 12949809, 0.06, 0.64, 0.86, -0.16, 0, 0, 0.9999555, 0.0005474457, 0.005609839, 0.007563821
MOTB, 12949816, 1, 1, 0, 1
RCIN, 12949820, 0, 0, 0, 0, 0, 0, 0, 0, 0, 0, 0, 0, 0, 0
RCOU, 12949826, 1219, 1219, 1219, 1219, 0, 0, 0, 0, 0, 0, 0, 0, 0, 0
VIBE, 12949834, 0.2263964, 0.1731897, 0.2319527, 0, 0, 0
CTRL, 12949840, 0.0008231979, 0.0009420027, 0.006747019, 0.001832882, 0.0002973025
PRX, 12949872, 2, 0.36, 0, 0.25, 0, 3.6, 0, 3.6, 0, 0, 90, 0.25
IMU, 12949879, -0.003947985, 0.01228728, 0.001667788, 0.1590855, 0.008784107, -9.831478, 0, 0, 42.08718, 1, 1, 999, 999
IMU, 12988873, 0.003039844, 0.0005498968, -8.482138E-05, 0.3530664, 0.1305213, -9.791731, 0, 0, 42.08718, 1, 1, 1000, 1000
RFND, 12998747, 0.2, 25, 0, 0
IMU, 13029209, 0.006399271, 0.0003046138, -0.002773494, 0.016636, 0.07931708, -9.782771, 0, 0, 42.0872, 1, 1, 1000, 1000
MAG, 13048809, 229, 177, 609, 0, 0, 0, 0, 0, 0, 1, 13048801
RFND, 13048838, 0.2, 25, 0, 0
BARO, 13049080, -0.2091032, 983.4042, 41.01, 0.01202782, 13049, 0, 35
CTUN, 13049106, 0, 0, 0, 0.3045363, 0.06034392, 0.06034392, -0.2, 0, 0.19, 0, 0, 0
ATT, 13049299, 0, 0.07, 0, 0.63, 0.84, 0.84, 0, 1
RATE, 13049305, -0.3556672, 0.2215177, -0.001360445, -2.874951, 0.354316, -0.009873315, 0.001988354, -0.1899184, 0.00027784, 375.0468, 1.742077, 0
NKF1, 13049313, 0.07, 0.63, 0.84, 0.003666044, -0.007149289, 0.009260415, 0, 0, 0, -0.06034392, 0, 0, 0
NKF2, 13049313, 0, 0, 0, 0, 0, 0, 0, 0, 0, 0, 0, 0, 0
NKF3, 13049313, 0, 0, 0, 0, -0.01, 0, 0, 0, 0, 0, 0
NKF4, 13049313, 0, 0, 0, 0, 0, 4.646464E-05, 0, 0, 0, 19, 229, 0, 0
NKF5, 13049313, 0, 0, 0, 0, 0.19, 0.13, 0, 0.19, 0.5, 9.992343E-05, 0.001070151, 0.001624998
NKQ1, 13049313, 0.9999236, -0.003472334, 0.009296237, 0.007384191
AHR2, 13049361, 0.08, 0.64, 0.85, -0.2, 0, 0, 0.9999564, 0.0006810353, 0.005606814, 0.007437949
MOTB, 13049367, 1, 1, 0, 1
RCIN, 13049372, 0, 0, 0, 0, 0, 0, 0, 0, 0, 0, 0, 0, 0, 0
RCOU, 13049377, 1223, 1238, 1221, 1240, 0, 0, 0, 0, 0, 0, 0, 0, 0, 0
VIBE, 13049386, 0.6731498, 0.8671978, 0.5653135, 0, 0, 0
CTRL, 13049392, 0.0009321205, 0.0009537583, 0.00675578, 0.001808816, 0.0002627173
PRX, 13049423, 2, 0.36, 0, 0.25, 0, 3.6, 0, 3.6, 0, 0, 90, 0.25
IMU, 13069407, 0.004201013, 0.0004296142, -0.003017686, 0.2473115, 0.1068951, -9.756741, 0, 0, 42.08718, 1, 1, 1000, 1000
RFND, 13099157, 0.2, 25, 0, 0
IMU, 13108827, -0.02528069, 0.003641459, -0.00316295, 0.1925192, 0.02731552, -9.803639, 0, 0, 42.08718, 1, 1, 1000, 1000
MAG, 13149518, 230, 174, 613, 0, 0, 0, 0, 0, 0, 1, 13149509
RFND, 13149573, 0.2, 25, 0, 0
BARO, 13149613, -0.1582403, 983.3987, 41, 0.2287812, 13149, 0, 35
CTUN, 13149625, 0, 0, 0, 0.3045363, 0.05992942, 0.05992942, -0.15, 0, 0.19, 0, 0, 0
ATT, 13149725, 0, 0.04, 0, 0.65, 0.82, 0.82, 0, 1
RATE, 13149731, -0.1809202, 0.475812, -0.005641916, -2.941545, -0.0502989, -0.005547843, 0.001035924, -0.1142088, 0.0004898493, 321.5737, 5.329418, 0
NKF1, 13149739, 0.04, 0.65, 0.82, 0.003227886, -0.006647608, 0.007940092, 0, 0, 0, -0.05992942, 0, 0, 0
NKF2, 13149739, 0, 0, 0, 0, 0, 0, 0, 0, 0, 0, 0, 0, 0
NKF3, 13149739, 0, 0, 0, 0, -0.01, 0, 0, 0, 0, 0, 0
NKF4, 13149739, 0, 0, 0, 0, 0, 4.842629E-05, 0, 0, 0, 19, 229, 0, 0
NKF5, 13149739, 0, 0, 0, 0, 0.19, 0.13, 0, 0.19, 0.5, 0.000129369, 0.001696903, 0.002651312
NKQ1, 13149739, 0.9999221, -0.003812338, 0.009423894, 0.007247495
AHR2, 13149783, 0.04, 0.65, 0.83, -0.15, 0, 0, 0.999957, 0.0003219398, 0.005721441, 0.007301925
MOTB, 13149790, 1, 1, 0, 1
RCIN, 13149794, 0, 0, 0, 0, 0, 0, 0, 0, 0, 0, 0, 0, 0, 0
RCOU, 13149800, 1231, 1231, 1221, 1240, 0, 0, 0, 0, 0, 0, 0, 0, 0, 0
VIBE, 13149809, 0.7154115, 0.7809048, 0.4384827, 0, 0, 0
CTRL, 13149815, 0.001433242, 0.002155749, 0.006951246, 0.001637977, 0.000324885
PRX, 13149846, 2, 0.36, 0, 0.25, 0, 3.6, 0, 3.6, 0, 0, 90, 0.25
IMU, 13149853, 0.00817181, -0.0009788616, -0.001996525, 0.2810604, -0.04828648, -9.849281, 0, 0, 42.08718, 1, 1, 1000, 1000
IMU, 13189217, 0.002341822, -0.0059625, 0.0005005524, 0.3199644, 0.04309511, -9.817002, 0, 0, 42.08718, 1, 1, 1000, 1000
RFND, 13198891, 0.2, 25, 0, 0
IMU, 13229099, 0.0009753387, 0.0006314959, -0.0007236341, 0.2902019, 0.1230995, -9.829896, 0, 0, 42.08718, 1, 1, 1000, 1000
MAG, 13249215, 229, 178, 611, 0, 0, 0, 0, 0, 0, 1, 13249207
RFND, 13249244, 0.2, 25, 0, 0
BARO, 13249282, -0.1525889, 983.3983, 41, 0.347582, 13249, 0, 35
CTUN, 13249295, 0, 0, 0, 0.3045363, 0.05952422, 0.05952422, -0.15, 0, 0.19, 0, 0, 0
ATT, 13249576, 0, 0.03, 0, 0.65, 0.82, 0.82, 0, 1
RATE, 13249584, -0.1626215, -0.1434173, 0.0003474373, -2.938567, -0.0146087, -0.006425391, 0.0009199131, 0.04348956, 6.471766E-05, 312.8718, -0.7842064, 0
NKF1, 13249592, 0.03, 0.65, 0.82, 0.0007640317, -0.00882871, 0.00772523, 0, 0, 0, -0.05952422, 0, 0, 0
NKF2, 13249592, 0, 0, 0, 0, 0, 0, 0, 0, 0, 0, 0, 0, 0
NKF3, 13249592, 0, 0, 0, 0, -0.01, 0, 0, 0, 0, 0, 0
NKF4, 13249592, 0, 0, 0, 0, 0, 4.986616E-05, 0, 0, 0, 19, 229, 0, 0
NKF5, 13249592, 0, 0, 0, 0, 0.19, 0.13, 0, 0.19, 0.5, 0.0001019296, 0.001027901, 0.001709998
NKQ1, 13249592, 0.9999219, -0.003851425, 0.009417391, 0.007262024
AHR2, 13249638, 0.03, 0.65, 0.83, -0.15, 0, 0, 0.9999571, 0.0002563879, 0.005681054, 0.007316507
MOTB, 13249646, 1, 1, 0, 1
RCIN, 13249651, 0, 0, 0, 0, 0, 0, 0, 0, 0, 0, 0, 0, 0, 0
RCOU, 13249656, 1221, 1232, 1221, 1232, 0, 0, 0, 0, 0, 0, 0, 0, 0, 0
VIBE, 13249665, 1.160943, 0.7483679, 0.4042342, 0, 0, 0
CTRL, 13249672, 0.001213568, 0.001860285, 0.00697984, 0.001490305, 0.0003056547
PRX, 13249703, 2, 0.35, 0, 0.25, 0, 3.6, 0, 3.6, 0, 0, 90, 0.25
IMU, 13269199, -0.00443933, 0.0007083375, 0.0005929266, 0.2548036, 0.1105105, -9.725563, 0, 0, 42.08718, 1, 1, 1000, 1000
RFND, 13298885, 0.2, 25, 0, 0
IMU, 13309275, -0.002613085, 0.0008675929, 0.001415444, 0.1546553, 0.0104267, -9.78725, 0, 0, 42.08718, 1, 1, 1000, 1000
MAG, 13348711, 233, 174, 619, 0, 0, 0, 0, 0, 0, 1, 13348702
RFND, 13348739, 0.2, 25, 0, 0
BARO, 13348777, -0.2204061, 983.4055, 41, 0.2507826, 13348, 0, 35
CTUN, 13348789, 0, 0, 0, 0.3045363, 0.05918499, 0.05918499, -0.22, 0, 0.19, 0, 0, -1
ATT, 13349069, 0, 0.03, 0, 0.65, 0.83, 0.83, 0, 1
RATE, 13349076, -0.1473036, 0.1867933, -0.0007841017, -2.970247, -0.04532539, -0.007292314, 0.0008489855, -0.03888672, -5.074095E-05, 439.065, 0.8551598, 0
NKF1, 13349085, 0.03, 0.65, 0.83, 0.001622338, -0.005994201, 0.01084111, 0, 0, 0, -0.05918499, 0, 0, 0
NKF2, 13349085, 0, 0, 0, 0, 0, 0, 0, 0, 0, 0, 0, 0, 0
NKF3, 13349085, 0, 0, 0, 0, -0.01, 0, 0, 0, 0, 0, 0
NKF4, 13349085, 0, 0, 0, 0, 0, 5.024621E-05, 0, 0, 0, 19, 229, 0, 0
NKF5, 13349085, 0, 0, 0, 0, 0.19, 0.13, 0, 0.19, 0.5, 0.0001273706, 0.001569718, 0.002617527
NKQ1, 13349085, 0.9999209, -0.003880089, 0.009478478, 0.007300389
AHR2, 13349130, 0.02, 0.65, 0.84, -0.22, 0, 0, 0.9999568, 0.0001929034, 0.005686918, 0.007354564
MOTB, 13349137, 1, 1, 0, 1
RCIN, 13349142, 0, 0, 0, 0, 0, 0, 0, 0, 0, 0, 0, 0, 0, 0
RCOU, 13349148, 1222, 1233, 1221, 1235, 0, 0, 0, 0, 0, 0, 0, 0, 0, 0
VIBE, 13349156, 0.8207223, 0.8213592, 0.3389584, 0, 0, 0
CTRL, 13349163, 0.001050106, 0.001623923, 0.006960765, 0.001265586, 0.0002519143
PRX, 13349195, 2, 0.35, 0, 0.25, 0, 3.6, 0, 3.6, 0, 0, 90, 0.25
IMU, 13349202, 0.003118337, -0.0008961853, -0.0006821092, 0.2740701, 0.1206194, -9.803228, 0, 0, 42.08718, 1, 1, 1000, 1000
IMU, 13388981, -0.002285579, -0.001985635, 0.0007469123, 0.1795561, 0.01587124, -9.765931, 0, 0, 42.08718, 1, 1, 1000, 1000
RFND, 13398695, 0.2, 25, 0, 0
IMU, 13428721, 0.002329417, 0.0001523272, -0.0002821007, 0.2146995, 0.0824194, -9.807301, 0, 0, 42.08718, 1, 1, 1000, 1000
MAG, 13449296, 232, 180, 611, 0, 0, 0, 0, 0, 0, 1, 13449286
RFND, 13449323, 0.2, 25, 0, 0
BARO, 13449360, -0.1864975, 983.4017, 41, 0.06871755, 13449, 0, 35
CTUN, 13449373, 0, 0, 0, 0.3045363, 0.05877629, 0.05877629, -0.18, 0, 0.19, 0, 0, 0
ATT, 13449467, 0, 0.03, 0, 0.65, 0.82, 0.83, 0, 1
RATE, 13449472, -0.1737454, 0.08987179, -0.0008244225, -2.936579, -0.1795408, -0.005564695, 0.0009946966, -0.1171831, 1.463512E-05, 342.9346, 1.953793, 0
NKF1, 13449481, 0.03, 0.65, 0.83, 0.000851954, -0.007976971, 0.00846752, 0, 0, 0, -0.05877629, 0, 0, 0
NKF2, 13449481, 0, 0, 0, 0, 0, 0, 0, 0, 0, 0, 0, 0, 0
NKF3, 13449481, 0, 0, 0, 0, -0.01, 0, 0, 0, 0, 0, 0
NKF4, 13449481, 0, 0, 0, 0, 0, 5.030627E-05, 0, 0, 0, 19, 229, 0, 0
NKF5, 13449481, 0, 0, 0, 0, 0.19, 0.13, 0, 0.19, 0.5, 9.624827E-05, 0.0009035311, 0.001605859
NKQ1, 13449481, 0.9999219, -0.003826378, 0.009414632, 0.007278339
AHR2, 13449524, 0.03, 0.63, 0.84, -0.18, 0, 0, 0.9999576, 0.0002285151, 0.005568743, 0.007332507
MOTB, 13449530, 1, 1, 0, 1
RCIN, 13449534, 0, 0, 0, 0, 0, 0, 0, 0, 0, 0, 0, 0, 0, 0
RCOU, 13449540, 1222, 1230, 1221, 1232, 0, 0, 0, 0, 0, 0, 0, 0, 0, 0
VIBE, 13449575, 0.6279634, 0.8537387, 0.3380249, 0, 0, 0
CTRL, 13449582, 0.000893196, 0.001412119, 0.006958524, 0.001106202, 0.0002074526
PRX, 13449613, 2, 0.35, 0, 0.25, 0, 3.6, 0, 3.6, 0, 0, 90, 0.25
IMU, 13468760, -0.003412729, 0.0009996559, 0.001402061, 0.1732763, 0.0481797, -9.797734, 0, 0, 42.08718, 1, 1, 1000, 1000
RFND, 13498659, 0.2, 25, 0, 0
IMU, 13508771, 0.000802335, -0.001006861, -1.526438E-05, 0.1795008, 0.09176975, -9.852442, 0, 0, 42.08718, 1, 1, 1000, 1000
MAG, 13548646, 230, 178, 607, 0, 0, 0, 0, 0, 0, 1, 13548637
RFND, 13548673, 0.2, 25, 0, 0
BARO, 13548710, -0.1186802, 983.3948, 41, -0.05344385, 13548, 0, 35
CTUN, 13548722, 0, 0, 0, 0.3045363, 0.05869375, 0.05869375, -0.11, 0, 0.19, 0, 0, 0
ATT, 13548818, 0, 0.03, 0, 0.65, 0.82, 0.82, 0, 1
RATE, 13548824, -0.1637002, -0.02064957, 0.0004413327, -2.939856, 0.0007682095, -0.00671318, 0.0009342962, -0.06044132, 6.434813E-05, 311.1508, -1.389885, 0
NKF1, 13548831, 0.03, 0.65, 0.82, -0.0015066, -0.01006335, 0.007682736, 0, 0, 0, -0.05869375, 0, 0, 0
NKF2, 13548831, 0, 0, 0, 0, 0, 0, 0, 0, 0, 0, 0, 0, 0
