FMT, 128, 89, FMT, BBnNZ, Type,Length,Name,Format,Columns
FMT, 129, 31, PARM, QNf, TimeUS,Name,Value
FMT, 130, 46, GPS, QBIHBcLLefffB, TimeUS,Status,GMS,GWk,NSats,HDop,Lat,Lng,Alt,Spd,GCrs,VZ,U
FMT, 131, 46, GPS2, QBIHBcLLefffB, TimeUS,Status,GMS,GWk,NSats,HDop,Lat,Lng,Alt,Spd,GCrs,VZ,U
FMT, 132, 46, GPSB, QBIHBcLLefffB, TimeUS,Status,GMS,GWk,NSats,HDop,Lat,Lng,Alt,Spd,GCrs,VZ,U
FMT, 193, 24, GPA, QCCCCBI, TimeUS,VDop,HAcc,VAcc,SAcc,VV,SMS
FMT, 194, 24, GPA2, QCCCCBI, TimeUS,VDop,HAcc,VAcc,SAcc,VV,SMS
FMT, 195, 24, GPAB, QCCCCBI, TimeUS,VDop,HAcc,VAcc,SAcc,VV,SMS
FMT, 133, 53, IMU, QffffffIIfBBHH, TimeUS,GyrX,GyrY,GyrZ,AccX,AccY,AccZ,EG,EA,T,GH,AH,GHz,AHz
FMT, 134, 75, MSG, QZ, TimeUS,Message
FMT, 135, 39, RCIN, QHHHHHHHHHHHHHH, TimeUS,C1,C2,C3,C4,C5,C6,C7,C8,C9,C10,C11,C12,C13,C14
FMT, 136, 39, RCOU, QHHHHHHHHHHHHHH, TimeUS,C1,C2,C3,C4,C5,C6,C7,C8,C9,C10,C11,C12,C13,C14
FMT, 137, 15, RSSI, Qf, TimeUS,RXRSSI
FMT, 139, 37, BARO, QffcfIff, TimeUS,Alt,Press,Temp,CRt,SMS,Offset,GndTemp
FMT, 140, 22, POWR, QffHB, TimeUS,Vcc,VServo,Flags,Safety
FMT, 143, 45, CMD, QHHHfffffff, TimeUS,CTot,CNum,CId,Prm1,Prm2,Prm3,Prm4,Lat,Lng,Alt
FMT, 144, 20, RAD, QBBBBBHH, TimeUS,RSSI,RemRSSI,TxBuf,Noise,RemNoise,RxErrors,Fixed
FMT, 146, 43, CAM, QIHLLeeeccC, TimeUS,GPSTime,GPSWeek,Lat,Lng,Alt,RelAlt,GPSAlt,Roll,Pitch,Yaw
FMT, 232, 43, TRIG, QIHLLeeeccC, TimeUS,GPSTime,GPSWeek,Lat,Lng,Alt,RelAlt,GPSAlt,Roll,Pitch,Yaw
FMT, 162, 30, ARSP, QffcffB, TimeUS,Airspeed,DiffPress,Temp,RawPress,Offset,U
FMT, 164, 45, CURR, QfffcHHHHHHHHHH, TimeUS,Volt,Curr,CurrTot,Temp,V1,V2,V3,V4,V5,V6,V7,V8,V9,V10
FMT, 165, 45, CUR2, QfffcHHHHHHHHHH, TimeUS,Volt,Curr,CurrTot,Temp,V1,V2,V3,V4,V5,V6,V7,V8,V9,V10
FMT, 163, 27, ATT, QccccCCCC, TimeUS,DesRoll,Roll,DesPitch,Pitch,DesYaw,Yaw,ErrRP,ErrYaw
FMT, 166, 34, MAG, QhhhhhhhhhBI, TimeUS,MagX,MagY,MagZ,OfsX,OfsY,OfsZ,MOfsX,MOfsY,MOfsZ,Health,S
FMT, 169, 14, MODE, QMBB, TimeUS,Mode,ModeNum,Rsn
FMT, 196, 17, RFND, QCBCB, TimeUS,Dist1,Orient1,Dist2,Orient2
FMT, 223, 33, DMS, IIIIIBBBBBBBBBB, TimeMS,N,Dp,RT,RS,Er,Fa,Fmn,Fmx,Pa,Pmn,Pmx,Sa,Smn,Smx
FMT, 240, 41, BCN, QBBfffffff, TimeUS,Health,Cnt,D0,D1,D2,D3,PosX,PosY,PosZ
FMT, 138, 53, IMU2, QffffffIIfBBHH, TimeUS,GyrX,GyrY,GyrZ,AccX,AccY,AccZ,EG,EA,T,GH,AH,GHz,AHz
FMT, 147, 53, IMU3, QffffffIIfBBHH, TimeUS,GyrX,GyrY,GyrZ,AccX,AccY,AccZ,EG,EA,T,GH,AH,GHz,AHz
FMT, 141, 45, AHR2, QccCfLLffff, TimeUS,Roll,Pitch,Yaw,Alt,Lat,Lng,Q1,Q2,Q3,Q4
FMT, 180, 31, POS, QLLfff, TimeUS,Lat,Lng,Alt,RelHomeAlt,RelOriginAlt
FMT, 142, 45, SIM, QccCfLLffff, TimeUS,Roll,Pitch,Yaw,Alt,Lat,Lng,Q1,Q2,Q3,Q4
FMT, 198, 51, NKF1, QccCfffffffccc, TimeUS,Roll,Pitch,Yaw,VN,VE,VD,dPD,PN,PE,PD,GX,GY,GZ
FMT, 199, 35, NKF2, QbccccchhhhhhB, TimeUS,AZbias,GSX,GSY,GSZ,VWN,VWE,MN,ME,MD,MX,MY,MZ,MI
FMT, 200, 33, NKF3, Qcccccchhhcc, TimeUS,IVN,IVE,IVD,IPN,IPE,IPD,IMX,IMY,IMZ,IYAW,IVT
FMT, 201, 35, NKF4, QcccccfbbHBHHb, TimeUS,SV,SP,SH,SM,SVT,errRP,OFN,OFE,FS,TS,SS,GPS,PI
FMT, 202, 40, NKF5, QBhhhcccCCfff, TimeUS,NI,FIX,FIY,AFI,HAGL,offset,RI,rng,Herr,eAng,eVel,ePos
FMT, 203, 51, NKF6, QccCfffffffccc, TimeUS,Roll,Pitch,Yaw,VN,VE,VD,dPD,PN,PE,PD,GX,GY,GZ
FMT, 204, 35, NKF7, QbccccchhhhhhB, TimeUS,AZbias,GSX,GSY,GSZ,VWN,VWE,MN,ME,MD,MX,MY,MZ,MI
FMT, 205, 33, NKF8, Qcccccchhhcc, TimeUS,IVN,IVE,IVD,IPN,IPE,IPD,IMX,IMY,IMZ,IYAW,IVT
FMT, 206, 35, NKF9, QcccccfbbHBHHb, TimeUS,SV,SP,SH,SM,SVT,errRP,OFN,OFE,FS,TS,SS,GPS,PI
FMT, 207, 36, NKF0, QBccCCcccccccc, TimeUS,ID,rng,innov,SIV,TR,BPN,BPE,BPD,OFH,OFL,OFN,OFE,OFD
FMT, 208, 27, NKQ1, Qffff, TimeUS,Q1,Q2,Q3,Q4
FMT, 209, 27, NKQ2, Qffff, TimeUS,Q1,Q2,Q3,Q4
FMT, 210, 51, XKF1, QccCfffffffccc, TimeUS,Roll,Pitch,Yaw,VN,VE,VD,dPD,PN,PE,PD,GX,GY,GZ
FMT, 211, 34, XKF2, QccccchhhhhhB, TimeUS,AX,AY,AZ,VWN,VWE,MN,ME,MD,MX,MY,MZ,MI
FMT, 212, 33, XKF3, Qcccccchhhcc, TimeUS,IVN,IVE,IVD,IPN,IPE,IPD,IMX,IMY,IMZ,IYAW,IVT
FMT, 213, 35, XKF4, QcccccfbbHBHHb, TimeUS,SV,SP,SH,SM,SVT,errRP,OFN,OFE,FS,TS,SS,GPS,PI
FMT, 214, 40, XKF5, QBhhhcccCCfff, TimeUS,NI,FIX,FIY,AFI,HAGL,offset,RI,rng,Herr,eAng,eVel,ePos
FMT, 215, 51, XKF6, QccCfffffffccc, TimeUS,Roll,Pitch,Yaw,VN,VE,VD,dPD,PN,PE,PD,GX,GY,GZ
FMT, 216, 34, XKF7, QccccchhhhhhB, TimeUS,AX,AY,AZ,VWN,VWE,MN,ME,MD,MX,MY,MZ,MI
FMT, 217, 33, XKF8, Qcccccchhhcc, TimeUS,IVN,IVE,IVD,IPN,IPE,IPD,IMX,IMY,IMZ,IYAW,IVT
FMT, 218, 35, XKF9, QcccccfbbHBHHb, TimeUS,SV,SP,SH,SM,SVT,errRP,OFN,OFE,FS,TS,SS,GPS,PI
FMT, 219, 36, XKF0, QBccCCcccccccc, TimeUS,ID,rng,innov,SIV,TR,BPN,BPE,BPD,OFH,OFL,OFN,OFE,OFD
FMT, 220, 27, XKQ1, Qffff, TimeUS,Q1,Q2,Q3,Q4
FMT, 221, 27, XKQ2, Qffff, TimeUS,Q1,Q2,Q3,Q4
FMT, 222, 35, XKFD, Qffffff, TimeUS,IX,IY,IZ,IVX,IVY,IVZ
FMT, 148, 34, TERR, QBLLHffHH, TimeUS,Status,Lat,Lng,Spacing,TerrH,CHeight,Pending,Loaded
FMT, 149, 18, UBX1, QBHBBH, TimeUS,Instance,noisePerMS,jamInd,aPower,agcCnt
FMT, 150, 16, UBX2, QBbBbB, TimeUS,Instance,ofsI,magI,ofsQ,magQ
FMT, 151, 18, UBY1, QBHBBH, TimeUS,Instance,noisePerMS,jamInd,aPower,agcCnt
FMT, 152, 16, UBY2, QBbBbB, TimeUS,Instance,ofsI,magI,ofsQ,magQ
FMT, 170, 42, GRAW, QIHBBddfBbB, TimeUS,WkMS,Week,numSV,sv,cpMes,prMes,doMes,mesQI,cno,lli
FMT, 171, 24, GRXH, QdHbBB, TimeUS,rcvTime,week,leapS,numMeas,recStat
FMT, 172, 41, GRXS, QddfBBBHBBBBB, TimeUS,prMes,cpMes,doMes,gnss,sv,freq,lock,cno,prD,cpD,doD,trk
FMT, 173, 63, SBFE, QIHBBdddfffff, TimeUS,TOW,WN,Mode,Err,Lat,Lng,Height,Undul,Vn,Ve,Vu,COG
FMT, 153, 19, ESC1, Qcccc, TimeUS,RPM,Volt,Curr,Temp
FMT, 154, 19, ESC2, Qcccc, TimeUS,RPM,Volt,Curr,Temp
FMT, 155, 19, ESC3, Qcccc, TimeUS,RPM,Volt,Curr,Temp
FMT, 156, 19, ESC4, Qcccc, TimeUS,RPM,Volt,Curr,Temp
FMT, 157, 19, ESC5, Qcccc, TimeUS,RPM,Volt,Curr,Temp
FMT, 158, 19, ESC6, Qcccc, TimeUS,RPM,Volt,Curr,Temp
FMT, 159, 19, ESC7, Qcccc, TimeUS,RPM,Volt,Curr,Temp
FMT, 160, 19, ESC8, Qcccc, TimeUS,RPM,Volt,Curr,Temp
FMT, 167, 34, MAG2, QhhhhhhhhhBI, TimeUS,MagX,MagY,MagZ,OfsX,OfsY,OfsZ,MOfsX,MOfsY,MOfsZ,Health,S
FMT, 168, 34, MAG3, QhhhhhhhhhBI, TimeUS,MagX,MagY,MagZ,OfsX,OfsY,OfsZ,MOfsX,MOfsY,MOfsZ,Health,S
FMT, 174, 31, ACC1, QQfff, TimeUS,SampleUS,AccX,AccY,AccZ
FMT, 175, 31, ACC2, QQfff, TimeUS,SampleUS,AccX,AccY,AccZ
FMT, 176, 31, ACC3, QQfff, TimeUS,SampleUS,AccX,AccY,AccZ
FMT, 177, 31, GYR1, QQfff, TimeUS,SampleUS,GyrX,GyrY,GyrZ
FMT, 178, 31, GYR2, QQfff, TimeUS,SampleUS,GyrX,GyrY,GyrZ
FMT, 179, 31, GYR3, QQfff, TimeUS,SampleUS,GyrX,GyrY,GyrZ
FMT, 181, 35, PIDR, Qffffff, TimeUS,Des,P,I,D,FF,AFF
FMT, 182, 35, PIDP, Qffffff, TimeUS,Des,P,I,D,FF,AFF
FMT, 183, 35, PIDY, Qffffff, TimeUS,Des,P,I,D,FF,AFF
FMT, 184, 35, PIDA, Qffffff, TimeUS,Des,P,I,D,FF,AFF
FMT, 185, 35, PIDS, Qffffff, TimeUS,Des,P,I,D,FF,AFF
FMT, 186, 35, PIDL, Qffffff, TimeUS,Des,P,I,D,FF,AFF
FMT, 161, 37, BAR2, QffcfIff, TimeUS,Alt,Press,Temp,CRt,SMS,Offset,GndTemp
FMT, 197, 37, BAR3, QffcfIff, TimeUS,Alt,Press,Temp,CRt,SMS,Offset,GndTemp
FMT, 187, 35, VIBE, QfffIII, TimeUS,VibeX,VibeY,VibeZ,Clip0,Clip1,Clip2
FMT, 188, 47, IMT, Qfffffffff, TimeUS,DelT,DelvT,DelaT,DelAX,DelAY,DelAZ,DelVX,DelVY,DelVZ
FMT, 189, 47, IMT2, Qfffffffff, TimeUS,DelT,DelvT,DelaT,DelAX,DelAY,DelAZ,DelVX,DelVY,DelVZ
FMT, 190, 47, IMT3, Qfffffffff, TimeUS,DelT,DelvT,DelaT,DelAX,DelAY,DelAZ,DelVX,DelVY,DelVZ
FMT, 191, 24, ORGN, QBLLe, TimeUS,Type,Lat,Lng,Alt
FMT, 192, 19, RPM, Qff, TimeUS,rpm1,rpm2
FMT, 233, 47, GMB1, Iffffffffff, TimeMS,dt,dax,day,daz,dvx,dvy,dvz,jx,jy,jz
FMT, 234, 44, GMB2, IBfffffffff, TimeMS,es,ex,ey,ez,rx,ry,rz,tx,ty,tz
FMT, 235, 13, GMB3, Ihhh, TimeMS,rl_torque_cmd,el_torque_cmd,az_torque_cmd
FMT, 236, 59, RATE, Qffffffffffff, TimeUS,RDes,R,ROut,PDes,P,POut,YDes,Y,YOut,ADes,A,AOut
FMT, 237, 23, RALY, QBBLLh, TimeUS,Tot,Seq,Lat,Lng,Alt
FMT, 238, 43, VISO, Qffffffff, TimeUS,dt,AngDX,AngDY,AngDZ,PosDX,PosDY,PosDZ,conf
FMT, 224, 23, SBPH, QIII, TimeUS,CrcError,LastInject,IARhyp
FMT, 229, 80, SBR1, QHHBZ, TimeUS,msg_type,sender_id,msg_len,d1
FMT, 230, 205, SBR2, QHZZZ, TimeUS,msg_type,d2,d3,d4
FMT, 25, 41, ATUN, QBBfffffff, TimeUS,Axis,TuneStep,Targ,Min,Max,RP,RD,SP,ddt
FMT, 26, 19, ATDE, Qff, TimeUS,Angle,Rate
FMT, 31, 22, PTUN, QBfHHH, TimeUS,Param,TunVal,CtrlIn,TunLo,TunHi
FMT, 12, 28, OF, QBffff, TimeUS,Qual,flowX,flowY,bodyX,bodyY
FMT, 5, 51, NTUN, Qffffffffff, TimeUS,DPosX,DPosY,PosX,PosY,DVelX,DVelY,VelX,VelY,DAccX,DAccY
FMT, 4, 51, CTUN, Qffffffeccfhh, TimeUS,ThI,ABst,ThO,ThH,DAlt,Alt,BAlt,DSAlt,SAlt,TAlt,DCRt,CRt
FMT, 6, 32, PM, QHHIhBHII, TimeUS,NLon,NLoop,MaxT,PMT,I2CErr,INSErr,LogDrop,Mem
FMT, 30, 27, MOTB, Qffff, TimeUS,LiftMax,BatVolt,BatRes,ThLimit
FMT, 13, 12, EV, QB, TimeUS,Id
FMT, 20, 14, D16, QBh, TimeUS,Id,Value
FMT, 21, 14, DU16, QBH, TimeUS,Id,Value
FMT, 22, 16, D32, QBi, TimeUS,Id,Value
FMT, 23, 16, DU32, QBI, TimeUS,Id,Value
FMT, 24, 16, DFLT, QBf, TimeUS,Id,Value
FMT, 19, 13, ERR, QBB, TimeUS,Subsys,ECode
FMT, 32, 19, HELI, Qff, TimeUS,DRRPM,ERRPM
FMT, 33, 29, PL, QBBffff, TimeUS,Heal,TAcq,pX,pY,vX,vY
FMT, 34, 36, GUID, QBffffff, TimeUS,Type,pX,pY,pZ,vX,vY,vZ
FMT, 35, 32, THRO, QBffffbbbb, TimeUS,Stage,Vel,VelZ,Acc,AccEfZ,Throw,AttOk,HgtOk,PosOk
FMT, 36, 56, PRX, QBfffffffffff, TimeUS,Health,D0,D45,D90,D135,D180,D225,D270,D315,DUp,CAn,CDis
MODE, 311157199, 100, 100, 1
EV, 311175699, 15
FMT, 254, 47, NKT1, QIffffffff, TimeUS,Cnt,IMUMin,IMUMax,EKFMin,EKFMax,AngMin,AngMax,VelMin,VelM
FMT, 253, 31, CTRL, Qfffff, TimeUS,RMSRollP,RMSRollD,RMSPitchP,RMSPitchD,RMSYaw
RFND, 311242709, 0.2, 25, 0, 0
MSG, 311262510, APM:Copter V3.5.7 (791a96c7)
MSG, 311262514, New mission
MSG, 311262525, Frame: QUAD
MODE, 311262529, 100, 100, 1
MAG, 311295297, -7, 344, 202, 0, 0, 0, 0, 0, 0, 1, 311295288
RFND, 311295326, 0.2, 25, 0, 0
BARO, 311295359, -0.875973, 983.5098, 42.49, -0.1163676, 311295, 0, 35
CTUN, 311295371, 0, 0, 0, 0.2997912, 0.08614217, 0.08614217, -0.87, 0, 0.19, 0, 0, 1
ATT, 311295426, 0, -0.24, 0, 0.22, 93.32, 93.32, 0, 1
RATE, 311295431, 1.091479, -0.006954454, 0.002438764, -1.034138, -0.04696495, -0.002097511, -0.00252139, -0.01714435, 0.0001553964, -633.1342, -0.8131981, 0
NKF1, 311295439, -0.24, 0.22, 93.32, 0.01993316, -0.0008317179, -0.01563294, 0, 0, 0, -0.08614218, -0.01, 0, 0
NKF2, 311295439, 2, 0, 0, 0, 0, 0, 0, 0, 0, 0, 0, 0, 0
NKF3, 311295439, 0, 0, 0, 0.01, 0, -0.01, 0, 0, 0, 0, 0
NKF4, 311295439, 0, 0, 0, 0, 0, 2.082701E-05, 0, 0, 0, 19, 229, 0, 0
NKF5, 311295439, 0, 0, 0, 0, 0.21, 0.13, 0, 0.19, 0.5, 5.948412E-05, 0.0008612656, 0.001660804
NKQ1, 311295439, 0.6862561, -0.008449512, -0.000571316, 0.7273107
AHR2, 311295483, -0.19, 0.29, 92.8, -0.87, 0, 0, 0.6895954, -0.003021522, 0.0004980323, 0.7241884
MOTB, 311295490, 1, 1, 0, 1
RCIN, 311295494, 0, 0, 0, 0, 0, 0, 0, 0, 0, 0, 0, 0, 0, 0
RCOU, 311295500, 1101, 1101, 1101, 1101, 0, 0, 0, 0, 0, 0, 0, 0, 0, 0
VIBE, 311295583, 0.02117293, 0.02013079, 0.03716125, 0, 0, 0
CTRL, 311295596, 0.002596444, 0.0001485664, 0.00244485, 0.0001399433, 8.216604E-05
PRX, 311295629, 2, 0.89, 0, 1.25, 0, 3.6, 0, 1.2, 0, 0, 0, 0.89
IMU, 311297450, -0.0002681845, -0.000871113, -0.0002594346, 0.1165958, 0.1186104, -9.776101, 0, 0, 43.57567, 1, 1, 1000, 1000
IMU, 311337399, 5.595073E-06, 0.0003717964, -0.001145203, 0.09616252, 0.1029019, -9.787701, 0, 0, 43.57567, 1, 1, 1000, 1000
RFND, 311344765, 0.2, 25, 0, 0
IMU, 311377264, -0.0007587848, 0.0009870579, -0.001610114, 0.1066553, 0.110096, -9.789513, 0, 0, 43.57567, 1, 1, 1000, 1000
MAG, 311394454, -14, 348, 204, 0, 0, 0, 0, 0, 0, 1, 311394446
RFND, 311394482, 0.2, 25, 0, 0
BARO, 311394512, -0.7855501, 983.5002, 42.49, 0.2133094, 311394, 0, 35
CTUN, 311394524, 0, 0, 0, 0.2997912, 0.08639672, 0.08639672, -0.78, 0, 0.19, 0, 0, 1
ATT, 311394572, 0, -0.24, 0, 0.23, 93.31, 93.31, 0, 1
RATE, 311394577, 1.095641, -0.04335197, 0.002822532, -1.041218, 0.03874115, -0.002554964, -0.002106392, -0.07778324, 0.0001840225, -640.0042, 1.428413, 0
NKF1, 311394585, -0.24, 0.23, 93.31, 0.02057532, -0.001490399, -0.01580257, 0, 0, 0, -0.08639672, -0.01, 0, 0
NKF2, 311394585, 2, 0, 0, 0, 0, 0, 0, 0, 0, 0, 0, 0, 0
NKF3, 311394585, 0, 0, 0, 0.01, 0, -0.01, 0, 0, 0, 0, 0
NKF4, 311394585, 0, 0, 0, 0, 0, 1.397888E-05, 0, 0, 0, 19, 229, 0, 0
NKF5, 311394585, 0, 0, 0, 0, 0.21, 0.13, 0, 0.19, 0.5, 4.581264E-05, 0.00114783, 0.002344178
NKQ1, 311394585, 0.6862934, -0.008464321, -0.0005666002, 0.7272754
AHR2, 311394629, -0.19, 0.29, 92.79, -0.78, 0, 0, 0.6896396, -0.003035403, 0.0005015474, 0.7241463
MOTB, 311394635, 1, 1, 0, 1
RCIN, 311394640, 0, 0, 0, 0, 0, 0, 0, 0, 0, 0, 0, 0, 0, 0
RCOU, 311394646, 1101, 1101, 1101, 1101, 0, 0, 0, 0, 0, 0, 0, 0, 0, 0
VIBE, 311394654, 0.02010898, 0.02166802, 0.0311768, 0, 0, 0
CTRL, 311394661, 0.002590898, 0.0001427121, 0.002448294, 0.0001314012, 0.0001068277
PRX, 311394693, 2, 0.89, 0, 1.26, 0, 3.6, 0, 1.2, 0, 0, 0, 0.89
IMU, 311417653, 0.0001444425, -0.0001202323, -0.001333057, 0.1121394, 0.1244585, -9.78777, 0, 0, 43.57567, 1, 1, 1000, 1000
RFND, 311444703, 0.2, 25, 0, 0
IMU, 311457232, -0.0007285739, 0.0006397637, -0.0002862196, 0.1169853, 0.1244622, -9.773479, 0, 0, 43.57567, 1, 1, 1000, 1000
MAG, 311494749, -11, 343, 198, 0, 0, 0, 0, 0, 0, 1, 311494741
RFND, 311494777, 0.2, 25, 0, 0
BARO, 311494809, -0.8251101, 983.5044, 42.49, 0.3136491, 311494, 0, 35
CTUN, 311494822, 0, 0, 0, 0.2997912, 0.08668361, 0.08668361, -0.82, 0, 0.19, 0, 0, 1
ATT, 311494921, 0, -0.24, 0, 0.23, 93.31, 93.31, 0, 1
RATE, 311494927, 1.095047, 0.004417324, 0.002565875, -1.041845, -0.02531546, -0.00231232, -0.001629981, -0.1139786, 0.0001802282, -622.7175, 1.522923, 0
NKF1, 311494934, -0.24, 0.23, 93.31, 0.02084468, -0.001396029, -0.01537574, 0, 0, 0, -0.08668361, -0.01, 0, 0
NKF2, 311494934, 2, 0, 0, 0, 0, 0, 0, 0, 0, 0, 0, 0, 0
NKF3, 311494934, 0, 0, 0, 0.01, 0, -0.01, 0, 0, 0, 0, 0
NKF4, 311494934, 0, 0, 0, 0, 0, 9.386611E-06, 0, 0, 0, 19, 229, 0, 0
NKF5, 311494934, 0, 0, 0, 0, 0.21, 0.13, 0, 0.19, 0.5, 3.835294E-05, 0.001237721, 0.002405919
NKQ1, 311494934, 0.6863309, -0.008466274, -0.0005641779, 0.7272399
AHR2, 311495056, -0.19, 0.29, 92.78, -0.82, 0, 0, 0.6896842, -0.003034515, 0.0005012382, 0.7241038
MOTB, 311495064, 1, 1, 0, 1
RCIN, 311495068, 0, 0, 0, 0, 0, 0, 0, 0, 0, 0, 0, 0, 0, 0
RCOU, 311495074, 1101, 1101, 1101, 1101, 0, 0, 0, 0, 0, 0, 0, 0, 0, 0
VIBE, 311495083, 0.02157956, 0.01960982, 0.03469814, 0, 0, 0
CTRL, 311495089, 0.002592244, 0.000145417, 0.00245301, 0.0001400452, 0.0001291642
PRX, 311495121, 2, 0.89, 0, 1.25, 0, 3.6, 0, 1.2, 0, 0, 0, 0.89
IMU, 311497710, -0.0003076616, -0.0002319908, -0.001904375, 0.1189632, 0.1091005, -9.802107, 0, 0, 43.57567, 1, 1, 1000, 1000
IMU, 311537378, 1.419416E-05, 0.0006649399, 0.0001171262, 0.1117871, 0.1236069, -9.797472, 0, 0, 43.57567, 1, 1, 1000, 1000
RFND, 311544724, 0.2, 25, 0, 0
IMU, 311577212, 0.0003423066, -0.0002440273, -0.001074022, 0.1061965, 0.100159, -9.790871, 0, 0, 43.57567, 1, 1, 1000, 1000
MAG, 311594540, -8, 346, 196, 0, 0, 0, 0, 0, 0, 1, 311594532
RFND, 311594566, 0.2, 25, 0, 0
BARO, 311594643, -0.7516414, 983.4966, 42.5, 0.2773564, 311594, 0, 35
CTUN, 311594656, 0, 0, 0, 0.2997912, 0.08667597, 0.08667597, -0.75, 0, 0.19, 0, 0, 1
ATT, 311594708, 0, -0.24, 0, 0.23, 93.31, 93.3, 0, 1
RATE, 311594714, 1.082874, 0.04172632, 0.002382278, -1.046974, 0.02237901, -0.002692096, -0.002075731, -0.02892799, 0.0001077157, -627.9105, -0.6363869, 0
NKF1, 311594721, -0.24, 0.23, 93.3, 0.02136495, -0.001798869, -0.01550396, 0, 0, 0, -0.08667597, -0.01, 0, 0
NKF2, 311594721, 2, 0, 0, 0, 0, 0, 0, 0, 0, 0, 0, 0, 0
NKF3, 311594721, 0, 0, 0, 0.02, 0, -0.01, 0, 0, 0, 0, 0
NKF4, 311594721, 0, 0, 0, 0, 0, 6.288371E-06, 0, 0, 0, 19, 229, 0, 0
NKF5, 311594721, 0, 0, 0, 0, 0.21, 0.13, 0, 0.19, 0.5, 3.638682E-05, 0.001369713, 0.002767914
NKQ1, 311594721, 0.6863418, -0.00845808, -0.0005410664, 0.7272298
AHR2, 311594766, -0.19, 0.29, 92.78, -0.75, 0, 0, 0.689702, -0.003021818, 0.0005194839, 0.7240869
MOTB, 311594773, 1, 1, 0, 1
RCIN, 311594777, 0, 0, 0, 0, 0, 0, 0, 0, 0, 0, 0, 0, 0, 0
RCOU, 311594784, 1101, 1101, 1101, 1101, 0, 0, 0, 0, 0, 0, 0, 0, 0, 0
VIBE, 311594792, 0.02205509, 0.02035988, 0.03751277, 0, 0, 0
CTRL, 311594799, 0.002568566, 0.0001361643, 0.002455394, 0.0001299874, 0.0001253276
PRX, 311594830, 2, 0.89, 0, 1.25, 0, 3.6, 0, 1.2, 0, 0, 0, 0.89
IMU, 311617370, -0.001039161, 0.0001797421, -0.0009258045, 0.1036243, 0.1155898, -9.774612, 0, 0, 43.57567, 1, 1, 1000, 1000
RFND, 311644509, 0.2, 25, 0, 0
IMU, 311657191, -0.00175096, -0.0005187526, 0.0004294079, 0.1214945, 0.1033558, -9.792067, 0, 0, 43.57567, 1, 1, 1000, 1000
MAG, 311694764, -3, 349, 200, 0, 0, 0, 0, 0, 0, 1, 311694755
RFND, 311694791, 0.2, 25, 0, 0
BARO, 311694823, -0.7516414, 983.4966, 42.5, 0.2433969, 311694, 0, 35
CTUN, 311694835, 0, 0, 0, 0.2997912, 0.08700377, 0.08700377, -0.75, 0, 0.19, 0, 0, 1
ATT, 311694889, 0, -0.24, 0, 0.23, 93.3, 93.3, 0, 1
RATE, 311694894, 1.095944, 0.02520806, 0.002540794, -1.037077, -0.04841951, -0.002213438, -0.001138234, -0.06406453, 9.350217E-05, -640.6325, 1.463127, 0
NKF1, 311694901, -0.24, 0.23, 93.3, 0.02248881, -0.002157368, -0.01581809, 0, 0, 0, -0.08700377, -0.01, 0, 0
NKF2, 311694901, 2, 0, 0, 0, 0, 0, 0, 0, 0, 0, 0, 0, 0
NKF3, 311694901, 0, 0, 0, 0.02, 0, -0.01, 0, 0, 0, 0, 0
NKF4, 311694901, 0, 0, 0, 0, 0, 4.298605E-06, 0, 0, 0, 19, 229, 0, 0
NKF5, 311694901, 0, 0, 0, 0, 0.21, 0.13, 0, 0.19, 0.5, 3.672052E-05, 0.00156419, 0.003392878
NKQ1, 311694901, 0.6863596, -0.00845776, -0.0005718534, 0.727213
AHR2, 311694946, -0.19, 0.28, 92.78, -0.75, 0, 0, 0.6897271, -0.003015441, 0.0004861319, 0.7240631
MOTB, 311694953, 1, 1, 0, 1
RCIN, 311694957, 0, 0, 0, 0, 0, 0, 0, 0, 0, 0, 0, 0, 0, 0
RCOU, 311694962, 1101, 1101, 1101, 1101, 0, 0, 0, 0, 0, 0, 0, 0, 0, 0
VIBE, 311695045, 0.0218778, 0.01747085, 0.03819048, 0, 0, 0
CTRL, 311695053, 0.002587454, 0.0001596123, 0.002442202, 0.0001262116, 0.0001128366
PRX, 311695085, 2, 0.89, 0, 1.26, 0, 3.6, 0, 1.2, 0, 0, 0, 0.89
IMU, 311697322, 2.017964E-05, -0.0008033685, -0.001199706, 0.09800562, 0.1066405, -9.798028, 0, 0, 43.57567, 1, 1, 1000, 1000
IMU, 311737315, -0.0006623148, -0.0007197964, 0.0007322736, 0.1115987, 0.1167514, -9.77044, 0, 0, 43.57567, 1, 1, 1000, 1000
RFND, 311744708, 0.2, 25, 0, 0
IMU, 311777176, -6.624756E-05, 0.0008734103, -0.0004467499, 0.1195246, 0.1040907, -9.776021, 0, 0, 43.57567, 1, 1, 1000, 1000
MAG, 311794484, -8, 343, 201, 0, 0, 0, 0, 0, 0, 1, 311794476
RFND, 311794510, 0.2, 25, 0, 0
BARO, 311794540, -0.7177328, 983.4931, 42.5, 0.2457507, 311794, 0, 35
CTUN, 311794553, 0, 0, 0, 0.2997912, 0.08703266, 0.08703266, -0.71, 0, 0.19, 0, 0, 1
ATT, 311794602, 0, -0.24, 0, 0.23, 93.3, 93.3, 0, 1
RATE, 311794607, 1.091611, 0.0717974, 0.002262458, -1.045456, 0.04906204, -0.00268919, -0.00103065, -0.01238695, 5.352811E-05, -618.1085, -0.2929688, 0
NKF1, 311794615, -0.24, 0.23, 93.3, 0.02384356, -0.001910593, -0.01526194, 0, 0, 0, -0.08703266, -0.01, 0, 0
NKF2, 311794615, 2, 0, 0, 0, 0, 0, 0, 0, 0, 0, 0, 0, 0
NKF3, 311794615, 0, 0, 0, 0.02, 0, -0.01, 0, 0, 0, 0, 0
NKF4, 311794615, 0, 0, 0, 0, 0, 2.975458E-06, 0, 0, 0, 19, 229, 0, 0
NKF5, 311794615, 0, 0, 0, 0, 0.21, 0.13, 0, 0.19, 0.5, 3.755877E-05, 0.00144572, 0.002966646
NKQ1, 311794615, 0.6863718, -0.008465631, -0.0005551443, 0.7272013
AHR2, 311794658, -0.19, 0.28, 92.77, -0.71, 0, 0, 0.6897465, -0.003014985, 0.0005033684, 0.7240445
MOTB, 311794665, 1, 1, 0, 1
RCIN, 311794670, 0, 0, 0, 0, 0, 0, 0, 0, 0, 0, 0, 0, 0, 0
RCOU, 311794676, 1101, 1101, 1101, 1101, 0, 0, 0, 0, 0, 0, 0, 0, 0, 0
VIBE, 311794684, 0.02133322, 0.02197171, 0.03560215, 0, 0, 0
CTRL, 311794690, 0.002584967, 0.0001533795, 0.002447291, 0.0001296301, 0.0001040428
PRX, 311794723, 2, 0.89, 0, 1.26, 0, 3.6, 0, 1.2, 0, 0, 0, 0.89
IMU, 311817464, -0.00026769, 0.0002332645, -0.001741698, 0.1103269, 0.1108997, -9.78364, 0, 0, 43.57567, 1, 1, 1000, 1000
RFND, 311844539, 0.2, 25, 0, 0
IMU, 311857288, -0.0007989052, -0.0001146601, -0.0006555219, 0.1194828, 0.1091855, -9.782158, 0, 0, 43.57567, 1, 1, 1000, 1000
MAG, 311894458, -6, 345, 202, 0, 0, 0, 0, 0, 0, 1, 311894450
RFND, 311894485, 0.2, 25, 0, 0
BARO, 311894515, -0.6273097, 983.483, 42.5, 0.2774034, 311894, 0, 35
CTUN, 311894527, 0, 0, 0, 0.2997912, 0.08722769, 0.08722769, -0.62, 0, 0.19, 0, 0, 1
DU32, 311894545, 7, 50357752
ATT, 311894634, 0, -0.24, 0, 0.23, 93.3, 93.29, 0, 1
RATE, 311894639, 1.102687, -0.01652891, 0.002668685, -1.041384, -0.0330877, -0.002076381, -0.003013041, -0.03235379, 0.0001445865, -616.6856, 0.9022713, 0
NKF1, 311894647, -0.24, 0.23, 93.29, 0.0252281, -0.002199546, -0.0152268, 0, 0, 0, -0.08722769, -0.01, 0, 0
NKF2, 311894647, 2, 0, 0, 0, 0, 0, 0, 0, 0, 0, 0, 0, 0
NKF3, 311894647, 0, 0, 0, 0.02, 0, -0.01, 0, 0, 0, 0, 0
NKF4, 311894647, 0, 0, 0, 0, 0, 2.103907E-06, 0, 0, 0, 19, 229, 0, 0
NKF5, 311894647, 0, 0, 0, 0, 0.21, 0.13, 0, 0.19, 0.5, 3.793347E-05, 0.001537514, 0.003331205
NKQ1, 311894647, 0.6864027, -0.008472876, -0.0005754832, 0.727172
AHR2, 311894691, -0.19, 0.28, 92.77, -0.62, 0, 0, 0.6897845, -0.003012893, 0.0004852682, 0.7240083
MOTB, 311894698, 1, 1, 0, 1
RCIN, 311894702, 0, 0, 0, 0, 0, 0, 0, 0, 0, 0, 0, 0, 0, 0
RCOU, 311894707, 1101, 1101, 1101, 1101, 0, 0, 0, 0, 0, 0, 0, 0, 0, 0
VIBE, 311894716, 0.01914902, 0.02204323, 0.03513981, 0, 0, 0
CTRL, 311894722, 0.002598838, 0.0001466235, 0.002452425, 0.0001394864, 0.0001100342
PRX, 311894753, 2, 0.89, 0, 1.27, 0, 3.6, 0, 1.2, 0, 0, 0, 0.89
IMU, 311897279, -0.0005428275, -0.0006762638, -0.0003232811, 0.1042295, 0.1123033, -9.791893, 0, 0, 43.57567, 1, 1, 1000, 1000
IMU, 311937688, 0.001148053, -0.0002076186, -0.0002593072, 0.1143923, 0.1212301, -9.78057, 0, 0, 43.57567, 1, 1, 1000, 1000
RFND, 311944797, 0.2, 25, 0, 0
IMU, 311977300, 0.0004400634, -0.0006821316, -0.00107434, 0.09937127, 0.1133907, -9.801094, 0, 0, 43.57567, 1, 1, 1000, 1000
MAG, 311994474, -5, 346, 206, 0, 0, 0, 0, 0, 0, 1, 311994466
RFND, 311994502, 0.2, 25, 0, 0
BARO, 311994533, -0.6499155, 983.4852, 42.5, 0.3426184, 311994, 0, 35
CTUN, 311994545, 0, 0, 0, 0.2997912, 0.08733597, 0.08733597, -0.64, 0, 0.19, 0, 0, 1
ATT, 311994595, 0, -0.24, 0, 0.22, 93.3, 93.29, 0, 1
RATE, 311994601, 1.088184, 0.03165475, 0.002572675, -1.033782, -0.0688983, -0.002119616, -0.002060392, 0.06927475, 4.750517E-05, -632.9464, -0.2614021, 0
NKF1, 311994609, -0.24, 0.22, 93.29, 0.02623241, -0.002518132, -0.01562831, 0, 0, 0, -0.08733597, -0.01, 0, 0
NKF2, 311994609, 2, 0, 0, 0, 0, 0, 0, 0, 0, 0, 0, 0, 0
NKF3, 311994609, 0, 0, 0, 0.02, 0, -0.01, 0, 0, 0, 0, 0
NKF4, 311994609, 0, 0, 0, 0, 0, 1.533777E-06, 0, 0, 0, 19, 229, 0, 0
NKF5, 311994609, 0, 0, 0, 0, 0.21, 0.13, 0, 0.19, 0.5, 3.810951E-05, 0.001424032, 0.002963261
NKQ1, 311994609, 0.686407, -0.008442675, -0.0005662534, 0.7271684
AHR2, 311994655, -0.19, 0.28, 92.77, -0.64, 0, 0, 0.689796, -0.002971798, 0.0004993418, 0.7239976
MOTB, 311994662, 1, 1, 0, 1
RCIN, 311994666, 0, 0, 0, 0, 0, 0, 0, 0, 0, 0, 0, 0, 0, 0
RCOU, 311994671, 1101, 1101, 1101, 1101, 0, 0, 0, 0, 0, 0, 0, 0, 0, 0
VIBE, 311994680, 0.01861118, 0.02081826, 0.03555695, 0, 0, 0
CTRL, 311994686, 0.002569489, 0.0001802292, 0.002433744, 0.0001228983, 0.0001042277
PRX, 311994719, 2, 0.89, 0, 1.25, 0, 3.6, 0, 1.2, 0, 0, 0, 0.89
IMU, 312017322, -0.0002818906, 0.0001302618, -0.002005874, 0.1057609, 0.09073392, -9.780039, 0, 0, 43.57567, 1, 1, 1000, 1000
RFND, 312044459, 0.2, 25, 0, 0
IMU, 312057316, -0.0005338878, -1.027105E-06, -0.0003035604, 0.1170528, 0.1191192, -9.774343, 0, 0, 43.57567, 1, 1, 1000, 1000
MAG, 312094508, -8, 343, 203, 0, 0, 0, 0, 0, 0, 1, 312094500
RFND, 312094899, 0.2, 25, 0, 0
BARO, 312094933, -0.5820982, 983.478, 42.5, 0.3973668, 312094, 0, 35
CTUN, 312094947, 0, 0, 0, 0.2997912, 0.08746833, 0.08746833, -0.58, 0, 0.19, 0, 0, 1
ATT, 312095070, 0, -0.24, 0, 0.23, 93.29, 93.29, 0, 1
RATE, 312095076, 1.089342, 0.01841931, 0.002509642, -1.044032, -0.006477041, -0.002270808, -0.002890202, -0.008231322, 9.789317E-05, -604.0267, -0.9030342, 0
NKF1, 312095084, -0.24, 0.23, 93.29, 0.02783255, -0.002728568, -0.01491424, 0, 0, 0, -0.08746833, -0.01, 0, 0
NKF2, 312095084, 2, 0, 0, 0, 0, 0, 0, 0, 0, 0, 0, 0, 0
NKF3, 312095084, 0, 0, 0, 0.03, 0, -0.01, 0, 0, 0, 0, 0
NKF4, 312095084, 0, 0, 0, 0, 0, 1.182471E-06, 0, 0, 0, 19, 229, 0, 0
NKF5, 312095084, 0, 0, 0, 0, 0.21, 0.13, 0, 0.19, 0.5, 3.783019E-05, 0.001451261, 0.003151456
NKQ1, 312095084, 0.6864401, -0.008459127, -0.0005530162, 0.7271371
AHR2, 312095132, -0.19, 0.28, 92.76, -0.58, 0, 0, 0.6898361, -0.002977413, 0.000516818, 0.7239593
MOTB, 312095139, 1, 1, 0, 1
RCIN, 312095143, 0, 0, 0, 0, 0, 0, 0, 0, 0, 0, 0, 0, 0, 0
RCOU, 312095250, 1101, 1101, 1101, 1101, 0, 0, 0, 0, 0, 0, 0, 0, 0, 0
VIBE, 312095259, 0.02038996, 0.01877814, 0.03616625, 0, 0, 0
CTRL, 312095265, 0.002568635, 0.0001568548, 0.002449135, 0.0001265289, 0.0001055162
PRX, 312095298, 2, 0.89, 0, 1.27, 0, 3.6, 0, 1.21, 0, 0, 0, 0.89
IMU, 312097799, 2.861439E-05, 2.772566E-05, -0.0001232126, 0.1062166, 0.1054149, -9.778071, 0, 0, 43.57567, 1, 1, 1000, 1000
IMU, 312137490, -0.0003221641, 0.000822415, -0.00137168, 0.1115895, 0.1067143, -9.767503, 0, 0, 43.57567, 1, 1, 1000, 1000
RFND, 312145069, 0.2, 25, 0, 0
IMU, 312177778, 0.0001265883, 0.0005161166, -0.0009781906, 0.1111192, 0.1088077, -9.787256, 0, 0, 43.57567, 1, 1, 1000, 1000
MAG, 312194732, -6, 347, 199, 0, 0, 0, 0, 0, 0, 1, 312194724
RFND, 312194760, 0.2, 25, 0, 0
BARO, 312194794, -0.5877497, 983.4785, 42.5, 0.3691096, 312194, 0, 35
CTUN, 312194807, 0, 0, 0, 0.2997912, 0.08760717, 0.08760717, -0.58, 0, 0.19, 0, 0, 1
ATT, 312194863, 0, -0.24, 0, 0.23, 93.28, 93.28, 0, 1
RATE, 312194868, 1.081156, 0.05076894, 0.00245926, -1.052534, 0.02171094, -0.002476917, -0.0009692517, -0.09081867, 0.0001554261, -603.9808, -0.1127243, 0
NKF1, 312194875, -0.24, 0.23, 93.28, 0.02920299, -0.002964383, -0.0149131, 0, 0, 0, -0.08760717, -0.01, 0, 0
NKF2, 312194875, 2, 0, 0, 0, 0, 0, 0, 0, 0, 0, 0, 0, 0
NKF3, 312194875, 0, 0, 0, 0.03, 0, -0.01, 0, 0, 0, 0, 0
NKF4, 312194875, 0, 0, 0, 0, 0, 9.672663E-07, 0, 0, 0, 19, 229, 0, 0
NKF5, 312194875, 0, 0, 0, 0, 0.21, 0.13, 0, 0.19, 0.5, 3.74334E-05, 0.001351044, 0.002838402
NKQ1, 312194875, 0.68648, -0.008459663, -0.0005287494, 0.7270994
AHR2, 312194920, -0.18, 0.28, 92.75, -0.58, 0, 0, 0.6898834, -0.002966867, 0.0005444703, 0.7239143
MOTB, 312194928, 1, 1, 0, 1
RCIN, 312194932, 0, 0, 0, 0, 0, 0, 0, 0, 0, 0, 0, 0, 0, 0
RCOU, 312194938, 1101, 1101, 1101, 1101, 0, 0, 0, 0, 0, 0, 0, 0, 0, 0
VIBE, 312194947, 0.02214196, 0.01994171, 0.0352375, 0, 0, 0
CTRL, 312194953, 0.002549368, 0.0001428161, 0.002467348, 0.0001365683, 0.0001153736
PRX, 312195061, 2, 0.89, 0, 1.27, 0, 3.6, 0, 1.2, 0, 0, 0, 0.89
IMU, 312218012, -0.002190706, 0.0003484004, -0.00124668, 0.1141002, 0.1117057, -9.782808, 0, 0, 43.57567, 1, 1, 1000, 1000
RFND, 312244613, 0.2, 25, 0, 0
IMU, 312257470, -0.0008176554, 0.0003944723, -0.0007473589, 0.1134811, 0.1045278, -9.775506, 0, 0, 43.57567, 1, 1, 1000, 1000
MAG, 312294679, -15, 348, 205, 0, 0, 0, 0, 0, 0, 1, 312294670
RFND, 312294708, 0.2, 25, 0, 0
BARO, 312294742, -0.7177328, 983.4927, 42.51, 0.2437183, 312294, 0, 35
CTUN, 312294754, 0, 0, 0, 0.2997912, 0.08751902, 0.08751902, -0.71, 0, 0.19, 0, 0, 1
ATT, 312294860, 0, -0.24, 0, 0.23, 93.28, 93.28, 0, 1
RATE, 312294866, 1.095525, -0.000962528, 0.002391707, -1.060236, -0.002416392, -0.002428994, -0.001783575, -0.01759298, 0.0001128203, -578.438, 0.8338928, 0
NKF1, 312294873, -0.24, 0.23, 93.28, 0.03048316, -0.003288847, -0.01428242, 0, 0, 0, -0.08751902, -0.01, 0, 0
NKF2, 312294873, 2, 0, 0, 0, 0, 0, 0, 0, 0, 0, 0, 0, 0
NKF3, 312294873, 0, 0, 0, 0.03, 0, -0.01, 0, 0, 0, 0, 0
NKF4, 312294873, 0, 0, 0, 0, 0, 8.584382E-07, 0, 0, 0, 19, 229, 0, 0
NKF5, 312294873, 0, 0, 0, 0, 0.21, 0.13, 0, 0.19, 0.5, 3.715308E-05, 0.001333232, 0.002892241
NKQ1, 312294873, 0.6864987, -0.008492285, -0.0005394765, 0.7270812
AHR2, 312294916, -0.19, 0.29, 92.75, -0.71, 0, 0, 0.6899093, -0.002988458, 0.0005372158, 0.7238895
MOTB, 312294923, 1, 1, 0, 1
RCIN, 312294927, 0, 0, 0, 0, 0, 0, 0, 0, 0, 0, 0, 0, 0, 0
RCOU, 312294933, 1101, 1101, 1101, 1101, 0, 0, 0, 0, 0, 0, 0, 0, 0, 0
VIBE, 312294941, 0.02260356, 0.01930892, 0.0383168, 0, 0, 0
CTRL, 312294947, 0.00258755, 0.00016842, 0.002487019, 0.0001223641, 0.0001247984
PRX, 312294980, 2, 0.89, 0, 1.25, 0, 3.6, 0, 1.2, 0, 0, 0, 0.89
IMU, 312297458, 7.650884E-05, 0.0002847846, -0.0003577088, 0.1076372, 0.1150327, -9.796753, 0, 0, 43.57567, 1, 1, 1000, 1000
IMU, 312337476, -0.00172407, -0.001073857, -0.001464343, 0.1029967, 0.1050961, -9.796201, 0, 0, 43.57567, 1, 1, 1000, 1000
RFND, 312344702, 0.2, 25, 0, 0
IMU, 312377353, 3.523617E-05, -5.859587E-06, -0.0007951043, 0.10517, 0.09790854, -9.776859, 0, 0, 43.57567, 1, 1, 1000, 1000
MAG, 312394905, -9, 348, 205, 0, 0, 0, 0, 0, 0, 1, 312394897
RFND, 312394934, 0.2, 25, 0, 0
BARO, 312394968, -0.7120813, 983.4919, 42.51, -0.01412857, 312394, 0, 35
CTUN, 312394980, 0, 0, 0, 0.2997912, 0.08766899, 0.08766899, -0.71, 0, 0.19, 0, 0, 1
ATT, 312395111, 0, -0.24, 0, 0.23, 93.28, 93.27, 0, 1
RATE, 312395118, 1.109452, -0.01366835, 0.002763971, -1.049397, -0.02688009, -0.00231485, -0.001952559, -0.05466654, 0.000144994, -563.5093, -1.242447, 0
NKF1, 312395126, -0.24, 0.23, 93.27, 0.03229562, -0.004080597, -0.01391381, 0, 0, 0, -0.08766898, -0.01, 0, 0
NKF2, 312395126, 2, 0, 0, 0, 0, 0, 0, 0, 0, 0, 0, 0, 0
NKF3, 312395126, 0, 0, 0, 0.03, 0, -0.01, 0, 0, 0, 0, 0
NKF4, 312395126, 0, 0, 0, 0, 0, 8.018135E-07, 0, 0, 0, 19, 229, 0, 0
NKF5, 312395126, 0, 0, 0, 0, 0.21, 0.13, 0, 0.19, 0.5, 3.683775E-05, 0.001258427, 0.002656693
NKQ1, 312395126, 0.6865324, -0.008493139, -0.0005725769, 0.7270495
AHR2, 312395172, -0.19, 0.28, 92.74, -0.71, 0, 0, 0.6899496, -0.002977835, 0.0005072667, 0.7238511
MOTB, 312395180, 1, 1, 0, 1
RCIN, 312395184, 0, 0, 0, 0, 0, 0, 0, 0, 0, 0, 0, 0, 0, 0
RCOU, 312395191, 1101, 1101, 1101, 1101, 0, 0, 0, 0, 0, 0, 0, 0, 0, 0
VIBE, 312395199, 0.02174173, 0.02066665, 0.03742818, 0, 0, 0
CTRL, 312395207, 0.002607468, 0.0001849922, 0.002467125, 0.0001248404, 0.000126144
PRX, 312395239, 2, 0.89, 0, 1.25, 0, 3.6, 0, 1.2, 0, 0, 0, 0.89
IMU, 312417752, -0.00213581, 9.518714E-05, -0.0008669174, 0.103834, 0.117044, -9.771317, 0, 0, 43.57567, 1, 1, 1000, 1000
RFND, 312444658, 0.2, 25, 0, 0
IMU, 312457480, 0.001120675, -8.897614E-05, -0.001330084, 0.09849068, 0.1025796, -9.792461, 0, 0, 43.57567, 1, 1, 1000, 1000
MAG, 312494616, -9, 347, 202, 0, 0, 0, 0, 0, 0, 1, 312494608
RFND, 312494645, 0.2, 25, 0, 0
BARO, 312494677, -0.7120813, 983.4924, 42.51, -0.3161274, 312494, 0, 35
CTUN, 312494689, 0, 0, 0, 0.2997912, 0.08733725, 0.08733725, -0.71, 0, 0.19, 0, 0, 1
ATT, 312494792, 0, -0.24, 0, 0.23, 93.27, 93.27, 0, 1
RATE, 312494797, 1.114857, 0.007899757, 0.002665151, -1.051217, 0.02873506, -0.00274214, -0.00103041, -0.03685446, 0.00011796, -550.9131, 1.265526, 0
NKF1, 312494805, -0.24, 0.23, 93.27, 0.03389386, -0.004645656, -0.01360279, 0, 0, 0, -0.08733725, -0.01, 0, 0
NKF2, 312494805, 2, 0, 0, 0, 0, 0, 0, 0, 0, 0, 0, 0, 0
NKF3, 312494805, 0, 0, 0, 0.04, 0, -0.01, 0, 0, 0, 0, 0
NKF4, 312494805, 0, 0, 0, 0, 0, 8.217086E-07, 0, 0, 0, 19, 229, 0, 0
NKF5, 312494805, 0, 0, 0, 0, 0.21, 0.13, 0, 0.19, 0.5, 3.655286E-05, 0.001202857, 0.002579101
NKQ1, 312494805, 0.6865603, -0.008506516, -0.0005778576, 0.7270229
AHR2, 312494850, -0.19, 0.28, 92.74, -0.71, 0, 0, 0.6899847, -0.002978637, 0.0005043198, 0.7238176
MOTB, 312494857, 1, 1, 0, 1
RCIN, 312494861, 0, 0, 0, 0, 0, 0, 0, 0, 0, 0, 0, 0, 0, 0
RCOU, 312494867, 1101, 1101, 1101, 1101, 0, 0, 0, 0, 0, 0, 0, 0, 0, 0
VIBE, 312494876, 0.02282579, 0.01950955, 0.03656889, 0, 0, 0
CTRL, 312494882, 0.002625448, 0.0002131982, 0.002465357, 0.0001429696, 0.0001331973
PRX, 312494915, 2, 0.89, 0, 1.26, 0, 3.6, 0, 1.2, 0, 0, 0, 0.89
IMU, 312497395, -0.0002393278, 0.0005562743, -0.0007979574, 0.1109731, 0.1110988, -9.7938, 0, 0, 43.57567, 1, 1, 1000, 1000
IMU, 312537389, -0.0007985792, -5.538371E-05, -0.0008383209, 0.1097256, 0.1056296, -9.776644, 0, 0, 43.57567, 1, 1, 1000, 1000
RFND, 312544898, 0.2, 25, 0, 0
IMU, 312577338, 0.0005698372, -0.000132822, -0.0008199157, 0.1183966, 0.1016879, -9.797215, 0, 0, 43.57567, 1, 1, 1000, 1000
MAG, 312594722, -9, 345, 197, 0, 0, 0, 0, 0, 0, 1, 312594714
RFND, 312594749, 0.2, 25, 0, 0
BARO, 312594780, -0.6612183, 983.4868, 42.51, -0.3602792, 312594, 0, 35
CTUN, 312594793, 0, 0, 0, 0.2997912, 0.08731592, 0.08731592, -0.66, 0, 0.19, 0, 0, 1
ATT, 312594845, 0, -0.24, 0, 0.23, 93.27, 93.27, 0, 1
RATE, 312594850, 1.12077, -0.06897768, 0.003158679, -1.056231, -0.009340783, -0.002480293, -0.002982064, -0.01745966, 0.000105662, -548.2584, 0.7805824, 0
NKF1, 312594858, -0.24, 0.23, 93.27, 0.03515684, -0.004667599, -0.01353724, 0, 0, 0, -0.08731592, -0.01, 0, 0
NKF2, 312594858, 2, 0, 0, 0, 0, 0, 0, 0, 0, 0, 0, 0, 0
NKF3, 312594858, 0, 0, 0, 0.04, 0, -0.01, 0, 0, 0, 0, 0
NKF4, 312594858, 0, 0, 0, 0, 0, 8.520473E-07, 0, 0, 0, 19, 229, 0, 0
NKF5, 312594858, 0, 0, 0, 0, 0.21, 0.13, 0, 0.19, 0.5, 3.639607E-05, 0.001278854, 0.002914945
NKQ1, 312594858, 0.6865797, -0.0085209, -0.0005794777, 0.7270044
AHR2, 312594902, -0.19, 0.28, 92.73, -0.66, 0, 0, 0.6900113, -0.002978127, 0.0005037677, 0.7237923
MOTB, 312594909, 1, 1, 0, 1
RCIN, 312594913, 0, 0, 0, 0, 0, 0, 0, 0, 0, 0, 0, 0, 0, 0
RCOU, 312594919, 1101, 1101, 1101, 1101, 0, 0, 0, 0, 0, 0, 0, 0, 0, 0
VIBE, 312594928, 0.02390287, 0.02004805, 0.0338828, 0, 0, 0
CTRL, 312594934, 0.002631897, 0.0002036388, 0.002478832, 0.0001329201, 0.0001292811
PRX, 312594966, 2, 0.89, 0, 1.25, 0, 3.6, 0, 1.2, 0, 0, 0, 0.89
IMU, 312617247, 0.0004778284, 0.0007101747, -0.0005182322, 0.1005727, 0.1004655, -9.789021, 0, 0, 43.57567, 1, 1, 1000, 1000
RFND, 312644844, 0.2, 25, 0, 0
IMU, 312657348, -0.0002618249, 0.0002788111, -0.000393043, 0.1129995, 0.1121076, -9.786275, 0, 0, 43.57567, 1, 1, 1000, 1000
MAG, 312694472, -4, 347, 206, 0, 0, 0, 0, 0, 0, 1, 312694464
RFND, 312694501, 0.2, 25, 0, 0
BARO, 312694531, -0.695127, 983.4906, 42.51, -0.1183269, 312694, 0, 35
CTUN, 312694543, 0, 0, 0, 0.2997912, 0.0871188, 0.0871188, -0.69, 0, 0.19, 0, 0, 1
ATT, 312694593, 0, -0.24, 0, 0.23, 93.27, 93.27, 0, 1
RATE, 312694598, 1.121156, -0.03876161, 0.002702561, -1.067043, 0.01521509, -0.002663251, -0.002935921, -0.01511236, 4.33133E-05, -557.1433, 2.147388, 0
NKF1, 312694606, -0.24, 0.23, 93.27, 0.03685617, -0.005469802, -0.01375663, 0, 0, 0, -0.0871188, -0.01, 0, 0
NKF2, 312694606, 2, 0, 0, 0, 0, 0, 0, 0, 0, 0, 0, 0, 0
NKF3, 312694606, 0, 0, 0, 0.04, 0, -0.01, 0, 0, 0, 0, 0
NKF4, 312694606, 0, 0, 0, 0, 0, 9.328417E-07, 0, 0, 0, 19, 229, 0, 0
NKF5, 312694606, 0, 0, 0, 0, 0.21, 0.13, 0, 0.19, 0.5, 3.624525E-05, 0.00108458, 0.002291181
NKQ1, 312694606, 0.6865884, -0.008534026, -0.0005654038, 0.726996
AHR2, 312694650, -0.19, 0.28, 92.73, -0.69, 0, 0, 0.6900271, -0.00297833, 0.0005194544, 0.7237773
MOTB, 312694657, 1, 1, 0, 1
RCIN, 312694661, 0, 0, 0, 0, 0, 0, 0, 0, 0, 0, 0, 0, 0, 0
RCOU, 312694667, 1101, 1101, 1101, 1101, 0, 0, 0, 0, 0, 0, 0, 0, 0, 0
VIBE, 312694676, 0.0198186, 0.02246212, 0.03223148, 0, 0, 0
CTRL, 312694682, 0.002639369, 0.0001994583, 0.002500245, 0.0001316108, 0.0001139555
PRX, 312694715, 2, 0.89, 0, 1.26, 0, 3.6, 0, 1.2, 0, 0, 0, 0.89
IMU, 312697265, -0.0007638507, 0.0003481421, -0.0002537077, 0.1056932, 0.09963019, -9.804474, 0, 0, 43.57567, 1, 1, 1000, 1000
IMU, 312737679, 0.001464953, -0.000670497, -0.001243176, 0.1142167, 0.1114918, -9.775555, 0, 0, 43.57567, 1, 1, 1000, 1000
RFND, 312744532, 0.2, 25, 0, 0
IMU, 312777232, 0.0006249595, -0.0006464023, -0.001215347, 0.1155275, 0.09592131, -9.785364, 0, 0, 43.57567, 1, 1, 1000, 1000
MAG, 312795205, -11, 353, 201, 0, 0, 0, 0, 0, 0, 1, 312795196
RFND, 312795234, 0.2, 25, 0, 0
BARO, 312795267, -0.7346871, 983.4944, 42.52, 0.06188906, 312795, 0, 35
CTUN, 312795280, 0, 0, 0, 0.2997912, 0.08704325, 0.08704325, -0.73, 0, 0.19, 0, 0, 1
ATT, 312795337, 0, -0.24, 0, 0.23, 93.26, 93.26, 0, 1
RATE, 312795341, 1.101078, 0.01912463, 0.002614859, -1.05445, -0.003428497, -0.002632288, -0.00146082, -0.05690111, 0.0001106634, -547.7014, 0.314045, 0
NKF1, 312795350, -0.24, 0.23, 93.26, 0.03836991, -0.005612786, -0.01352349, 0, 0, 0, -0.08704325, -0.01, 0, 0
NKF2, 312795350, 2, 0, 0, 0, 0, 0, 0, 0, 0, 0, 0, 0, 0
NKF3, 312795350, 0, 0, 0, 0.05, 0, -0.01, 0, 0, 0, 0, 0
NKF4, 312795350, 0, 0, 0, 0, 0, 1.028322E-06, 0, 0, 0, 19, 229, 0, 0
NKF5, 312795350, 0, 0, 0, 0, 0.21, 0.13, 0, 0.19, 0.5, 3.619377E-05, 0.001111805, 0.00247822
NKQ1, 312795350, 0.6866142, -0.008492907, -0.0005532723, 0.7269722
AHR2, 312795570, -0.18, 0.28, 92.72, -0.73, 0, 0, 0.6900598, -0.002927636, 0.0005344599, 0.7237463
MOTB, 312795579, 1, 1, 0, 1
RCIN, 312795583, 0, 0, 0, 0, 0, 0, 0, 0, 0, 0, 0, 0, 0, 0
RCOU, 312795589, 1101, 1101, 1101, 1101, 0, 0, 0, 0, 0, 0, 0, 0, 0, 0
VIBE, 312795598, 0.02085027, 0.02181966, 0.03498689, 0, 0, 0
CTRL, 312795604, 0.002600538, 0.0001894584, 0.002477669, 0.0001459085, 0.000101723
PRX, 312795636, 2, 0.89, 0, 1.25, 0, 3.6, 0, 1.2, 0, 0, 0, 0.89
IMU, 312817328, 0.001004105, 0.0004997807, -0.0007310743, 0.1184215, 0.1057323, -9.784236, 0, 0, 43.57567, 1, 1, 1000, 1000
RFND, 312844506, 0.2, 25, 0, 0
IMU, 312857728, -0.0005453026, -0.0007942141, -0.002151293, 0.1192973, 0.1102047, -9.786586, 0, 0, 43.57567, 1, 1, 1000, 1000
MAG, 312894544, -11, 345, 198, 0, 0, 0, 0, 0, 0, 1, 312894536
RFND, 312894572, 0.2, 25, 0, 0
BARO, 312894603, -0.6555669, 983.486, 42.52, 0.01773117, 312894, 0, 35
CTUN, 312894615, 0, 0, 0, 0.2997912, 0.08697572, 0.08697572, -0.65, 0, 0.19, 0, 0, 1
DU32, 312894634, 7, 50357752
ATT, 312894771, 0, -0.24, 0, 0.23, 93.26, 93.25, 0, 1
RATE, 312894777, 1.092102, 0.0285148, 0.002455719, -1.052515, -0.02385104, -0.002328449, -0.001368716, -0.03497717, 0.0002117163, -556.3378, -0.519371, 0
NKF1, 312894785, -0.24, 0.23, 93.25, 0.03979074, -0.005940414, -0.01373674, 0, 0, 0, -0.08697572, -0.01, 0, 0
NKF2, 312894785, 2, 0, 0, 0, 0, 0, 0, 0, 0, 0, 0, 0, 0
NKF3, 312894785, 0, 0, 0, 0.05, 0, -0.01, 0, 0, 0, 0, 0
NKF4, 312894785, 0, 0, 0, 0, 0, 1.143792E-06, 0, 0, 0, 19, 229, 0, 0
NKF5, 312894785, 0, 0, 0, 0, 0.21, 0.13, 0, 0.19, 0.5, 3.618269E-05, 0.0009811682, 0.002035748
NKQ1, 312894785, 0.6866623, -0.008474895, -0.0005427243, 0.726927
AHR2, 312894829, -0.18, 0.28, 92.72, -0.65, 0, 0, 0.6901147, -0.002900122, 0.0005477851, 0.7236941
MOTB, 312894837, 1, 1, 0, 1
RCIN, 312894841, 0, 0, 0, 0, 0, 0, 0, 0, 0, 0, 0, 0, 0, 0
RCOU, 312894847, 1101, 1101, 1101, 1101, 0, 0, 0, 0, 0, 0, 0, 0, 0, 0
VIBE, 312894855, 0.02268206, 0.02083715, 0.03748329, 0, 0, 0
CTRL, 312894861, 0.002579997, 0.0001832477, 0.002474691, 0.0001378549, 0.0001320806
PRX, 312894893, 2, 0.89, 0, 1.24, 0, 3.6, 0, 1.2, 0, 0, 0, 0.89
IMU, 312897283, 0.0004035271, -0.0002070902, -0.000779484, 0.1077138, 0.1060313, -9.780071, 0, 0, 43.57567, 1, 1, 1000, 1000
IMU, 312937708, -0.0003276386, -0.0007102742, 0.0005786367, 0.1242547, 0.1079978, -9.794767, 0, 0, 43.57567, 1, 1, 1000, 1000
RFND, 312944563, 0.2, 25, 0, 0
IMU, 312977306, -0.0003681729, 0.0003539115, -0.001042601, 0.1173726, 0.1206064, -9.778657, 0, 0, 43.57567, 1, 1, 1000, 1000
MAG, 312994763, -9, 345, 199, 0, 0, 0, 0, 0, 0, 1, 312994754
RFND, 312994790, 0.2, 25, 0, 0
BARO, 312994821, -0.6725212, 983.4877, 42.52, -0.03121829, 312994, 0, 35
CTUN, 312994834, 0, 0, 0, 0.2997912, 0.08685396, 0.08685396, -0.67, 0, 0.19, 0, 0, 1
ATT, 312994884, 0, -0.24, 0, 0.23, 93.25, 93.25, 0, 1
RATE, 312994889, 1.094768, -0.07954833, 0.002993117, -1.057271, -0.01424563, -0.002358933, -0.001875795, -0.0195229, 8.756325E-05, -569.3063, 2.718925, 0
NKF1, 312994896, -0.24, 0.23, 93.25, 0.04106747, -0.005826778, -0.01405694, 0, 0, 0, -0.08685396, -0.01, 0, 0
NKF2, 312994896, 2, 0, 0, 0, 0, 0, 0, 0, 0, 0, 0, 0, 0
NKF3, 312994896, 0, 0, 0, 0.06, 0, -0.01, 0, 0, 0, 0, 0
NKF4, 312994896, 0, 0, 0, 0, 0, 1.290117E-06, 0, 0, 0, 19, 229, 0, 0
NKF5, 312994896, 0, 0, 0, 0, 0.21, 0.13, 0, 0.19, 0.5, 3.612315E-05, 0.0009586957, 0.002069812
NKQ1, 312994896, 0.6866687, -0.00848888, -0.0005404278, 0.7269207
AHR2, 312994941, -0.18, 0.28, 92.71, -0.67, 0, 0, 0.6901282, -0.00290388, 0.0005539822, 0.7236811
MOTB, 312994948, 1, 1, 0, 1
RCIN, 312994952, 0, 0, 0, 0, 0, 0, 0, 0, 0, 0, 0, 0, 0, 0
RCOU, 312994958, 1101, 1101, 1101, 1101, 0, 0, 0, 0, 0, 0, 0, 0, 0, 0
VIBE, 312994966, 0.02376583, 0.02380282, 0.03582053, 0, 0, 0
CTRL, 312994972, 0.002576436, 0.000187809, 0.002483965, 0.000140172, 0.000130083
PRX, 312995004, 2, 0.89, 0, 1.26, 0, 3.6, 0, 1.2, 0, 0, 0, 0.89
IMU, 313017245, -7.665224E-05, -0.0002763892, 7.060703E-05, 0.1068011, 0.1069412, -9.799688, 0, 0, 43.57567, 1, 1, 1000, 1000
RFND, 313044523, 0.2, 25, 0, 0
IMU, 313057463, -0.001427017, -0.0005868037, -0.0001836396, 0.1147872, 0.1046413, -9.810238, 0, 0, 43.57567, 1, 1, 1000, 1000
MAG, 313094491, -12, 347, 208, 0, 0, 0, 0, 0, 0, 1, 313094482
RFND, 313094518, 0.2, 25, 0, 0
BARO, 313094596, -0.7233842, 983.4933, 42.52, 0.04415186, 313094, 0, 35
CTUN, 313094610, 0, 0, 0, 0.2997912, 0.08694036, 0.08694036, -0.72, 0, 0.19, 0, 0, 1
ATT, 313094661, 0, -0.24, 0, 0.23, 93.25, 93.25, 0, 1
RATE, 313094667, 1.099446, 0.07023177, 0.002310183, -1.044817, -0.02282822, -0.002316535, -0.002767165, -0.1445896, 0.0001326962, -571.7941, -1.011753, 0
NKF1, 313094675, -0.24, 0.23, 93.25, 0.04258626, -0.006070833, -0.01411837, 0, 0, 0, -0.08694036, -0.01, 0, 0
NKF2, 313094675, 2, 0, 0, 0, 0, 0, 0, 0, 0, 0, 0, 0, 0
NKF3, 313094675, 0, 0, 0, 0.06, 0, -0.01, 0, 0, 0, 0, 0
NKF4, 313094675, 0, 0, 0, 0, 0, 1.429129E-06, 0, 0, 0, 19, 229, 0, 0
NKF5, 313094675, 0, 0, 0, 0, 0.21, 0.13, 0, 0.19, 0.5, 3.61456E-05, 0.0008955256, 0.001828733
NKQ1, 313094675, 0.686694, -0.008474548, -0.0005617265, 0.726897
AHR2, 313094719, -0.18, 0.28, 92.71, -0.72, 0, 0, 0.6901603, -0.002879332, 0.0005360205, 0.7236507
MOTB, 313094726, 1, 1, 0, 1
RCIN, 313094730, 0, 0, 0, 0, 0, 0, 0, 0, 0, 0, 0, 0, 0, 0
RCOU, 313094736, 1101, 1101, 1101, 1101, 0, 0, 0, 0, 0, 0, 0, 0, 0, 0
VIBE, 313094745, 0.02116297, 0.02258914, 0.03494891, 0, 0, 0
CTRL, 313094751, 0.002596174, 0.0001913488, 0.002459393, 0.000133483, 0.0001123925
PRX, 313094784, 2, 0.89, 0, 1.26, 0, 3.6, 0, 1.2, 0, 0, 0, 0.89
IMU, 313097262, 0.0007027466, -0.0005126804, -0.002221053, 0.1109891, 0.1046437, -9.774759, 0, 0, 43.57567, 1, 1, 1000, 1000
IMU, 313137422, -0.00207546, -0.001400108, 0.0001127872, 0.1145278, 0.1108412, -9.787436, 0, 0, 43.57567, 1, 1, 1000, 1000
RFND, 313144596, 0.2, 25, 0, 0
EV, 313159344, 57
IMU, 313177464, -0.0009855586, -0.0003776042, -0.001769157, 0.111709, 0.1109606, -9.802086, 0, 0, 43.57567, 1, 1, 1000, 1000
MAG, 313194835, -11, 348, 203, 0, 0, 0, 0, 0, 0, 1, 313194827
RFND, 313194864, 0.2, 25, 0, 0
BARO, 313194896, -0.7120813, 983.492, 42.52, 0.0464061, 313194, 0, 35
CTUN, 313194909, 0, 0, 0, 0.2997912, 0.08677469, 0.08677469, -0.71, 0, 0.19, 0, 0, 1
ATT, 313194961, 0, -0.24, 0, 0.22, 93.25, 93.25, 0, 1
RATE, 313194967, 1.110798, 0.0163125, 0.002443076, -1.028847, -0.03878452, -0.002351071, -0.002137056, -0.1210326, 0.0001625335, -590.788, 3.243828, 0
NKF1, 313194974, -0.24, 0.22, 93.25, 0.04366726, -0.005912569, -0.01458736, 0, 0, 0, -0.08677469, -0.01, 0, 0
NKF2, 313194974, 2, 0, 0, 0, 0, 0, 0, 0, 0, 0, 0, 0, 0
NKF3, 313194974, 0, 0, 0, 0.06, 0, -0.01, 0, 0, 0, 0, 0
NKF4, 313194974, 0, 0, 0, 0, 0, 1.626879E-06, 0, 0, 0, 19, 229, 0, 0
NKF5, 313194974, 0, 0, 0, 0, 0.21, 0.13, 0, 0.19, 0.5, 3.611426E-05, 0.0008258963, 0.001708848
NKQ1, 313194974, 0.6867185, -0.008465959, -0.0005988749, 0.7268739
AHR2, 313195019, -0.18, 0.27, 92.7, -0.71, 0, 0, 0.6901916, -0.002860635, 0.0005012112, 0.723621
MOTB, 313195027, 1, 1, 0, 1
RCIN, 313195031, 0, 0, 0, 0, 0, 0, 0, 0, 0, 0, 0, 0, 0, 0
RCOU, 313195119, 1108, 1108, 1108, 1108, 0, 0, 0, 0, 0, 0, 0, 0, 0, 0
VIBE, 313195128, 0.02145291, 0.02215722, 0.03441152, 0, 0, 0
CTRL, 313195134, 0.00261844, 0.0002093997, 0.002420667, 0.000126137, 0.0001121665
PRX, 313195168, 2, 0.89, 0, 1.25, 0, 3.6, 0, 1.2, 0, 0, 0, 0.89
IMU, 313217787, 0.0002892101, 0.0004432768, 0.0001002071, 0.1081095, 0.1047905, -9.79607, 0, 0, 43.57567, 1, 1, 1000, 1000
RFND, 313244880, 0.2, 25, 0, 0
IMU, 313257510, -0.001218954, 0.0008346355, -5.046665E-05, 0.1038491, 0.1153543, -9.814228, 0, 0, 43.57567, 1, 1, 1000, 1000
MAG, 313294478, -8, 348, 202, 0, 0, 0, 0, 0, 0, 1, 313294470
RFND, 313294505, 0.2, 25, 0, 0
BARO, 313294538, -0.6781727, 983.4886, 42.52, -0.07233822, 313294, 0, 35
CTUN, 313294549, 0, 0, 0, 0.2997912, 0.08698598, 0.08698598, -0.67, 0, 0.19, 0, 0, 1
ATT, 313294598, 0, -0.24, 0, 0.22, 93.25, 93.24, 0, 1
RATE, 313294603, 1.112304, 0.01135517, 0.002441056, -1.031072, -0.03219827, -0.002189693, -0.002244584, 0.01830625, 6.524111E-05, -625.6758, 1.096153, 0
NKF1, 313294611, -0.24, 0.22, 93.24, 0.04491878, -0.006250564, -0.01544878, 0, 0, 0, -0.08698598, -0.01, 0, 0
NKF2, 313294611, 2, 0, 0, 0, 0, 0, 0, 0, 0, 0, 0, 0, 0
NKF3, 313294611, 0, 0, 0, 0.07, -0.01, -0.01, 0, 0, 0, 0, 0
NKF4, 313294611, 0, 0, 0, 0, 0, 1.796807E-06, 0, 0, 0, 19, 229, 0, 0
NKF5, 313294611, 0, 0, 0, 0, 0.21, 0.13, 0, 0.19, 0.5, 3.616188E-05, 0.0009380668, 0.002166221
NKQ1, 313294611, 0.6867199, -0.008475412, -0.0005998996, 0.7268725
AHR2, 313294656, -0.18, 0.27, 92.7, -0.67, 0, 0, 0.6902002, -0.002860445, 0.0005026667, 0.7236127
MOTB, 313294663, 1, 1, 0, 1
RCIN, 313294667, 0, 0, 0, 0, 0, 0, 0, 0, 0, 0, 0, 0, 0, 0
RCOU, 313294673, 1132, 1132, 1132, 1132, 0, 0, 0, 0, 0, 0, 0, 0, 0, 0
VIBE, 313294682, 0.02147417, 0.02073214, 0.03820444, 0, 0, 0
CTRL, 313294688, 0.002624311, 0.0001819674, 0.002431456, 0.0001249409, 0.0001103252
PRX, 313294721, 2, 0.89, 0, 1.26, 0, 3.6, 0, 1.2, 0, 0, 0, 0.89
IMU, 313297317, -0.0001861295, -0.0007229854, 0.0005021908, 0.1174703, 0.11701, -9.792524, 0, 0, 43.57567, 1, 1, 1000, 1000
IMU, 313337266, -4.779145E-05, 0.000180941, 0.0007700047, 0.118332, 0.1001746, -9.781254, 0, 0, 43.57567, 1, 1, 1000, 1000
RFND, 313344575, 0.2, 25, 0, 0
IMU, 313377732, -0.000493041, -0.000511173, -0.001411346, 0.1165322, 0.1000055, -9.80228, 0, 0, 43.57567, 1, 1, 1000, 1000
MAG, 313394764, -4, 346, 196, 0, 0, 0, 0, 0, 0, 1, 313394756
RFND, 313394791, 0.2, 25, 0, 0
BARO, 313394823, -0.6273097, 983.4827, 42.53, -0.0564584, 313394, 0, 35
CTUN, 313394835, 0, 0, 0, 0.2997912, 0.08690851, 0.08690851, -0.62, 0, 0.19, 0, 0, 1
ATT, 313394888, 0, -0.24, 0, 0.22, 93.25, 93.24, 0, 1
RATE, 313394893, 1.112936, -0.01934759, 0.0027176, -1.030388, -0.0377015, -0.002339143, -0.002290698, -0.02019626, 5.636724E-05, -609.9639, -0.6701469, 0
NKF1, 313394901, -0.24, 0.22, 93.24, 0.04667396, -0.006458586, -0.01506084, 0, 0, 0, -0.08690851, -0.01, 0, 0
NKF2, 313394901, 2, 0, 0, 0, 0, 0, 0, 0, 0, 0, 0, 0, 0
NKF3, 313394901, 0, 0, 0, 0.07, -0.01, -0.01, 0, 0, 0, 0, 0
NKF4, 313394901, 0, 0, 0, 0, 0, 2.037141E-06, 0, 0, 0, 19, 229, 0, 0
NKF5, 313394901, 0, 0, 0, 0, 0.21, 0.13, 0, 0.19, 0.5, 3.597931E-05, 0.0007140439, 0.001391438
NKQ1, 313394901, 0.6867274, -0.008472817, -0.0006010036, 0.7268654
AHR2, 313394944, -0.18, 0.27, 92.7, -0.62, 0, 0, 0.6902149, -0.002849212, 0.0005042044, 0.7235987
MOTB, 313394951, 1, 1, 0, 1
RCIN, 313394955, 0, 0, 0, 0, 0, 0, 0, 0, 0, 0, 0, 0, 0, 0
RCOU, 313394961, 1156, 1156, 1156, 1156, 0, 0, 0, 0, 0, 0, 0, 0, 0, 0
VIBE, 313394970, 0.02387522, 0.02057192, 0.03724156, 0, 0, 0
CTRL, 313394976, 0.002620179, 0.000165898, 0.002424079, 0.0001342838, 9.254253E-05
PRX, 313395008, 2, 0.89, 0, 1.25, 0, 3.6, 0, 1.2, 0, 0, 0, 0.89
IMU, 313417213, -0.001485298, 0.0002678504, 0.0001100022, 0.1215211, 0.1155347, -9.787169, 0, 0, 43.57567, 1, 1, 1000, 1000
RFND, 313444780, 0.2, 25, 0, 0
IMU, 313457338, -3.420841E-06, -0.0006542477, -0.0004041653, 0.1107439, 0.1051631, -9.781766, 0, 0, 43.57567, 1, 1, 1000, 1000
MAG, 313494475, -12, 346, 199, 0, 0, 0, 0, 0, 0, 1, 313494467
RFND, 313494504, 0.2, 25, 0, 0
BARO, 313494534, -0.6555669, 983.4861, 42.53, 0.1271573, 313494, 0, 35
CTUN, 313494546, 0, 0, 0, 0.2997912, 0.08705399, 0.08705399, -0.65, 0, 0.19, 0, 0, 1
ATT, 313494594, 0, -0.24, 0, 0.22, 93.26, 93.25, 0, 1
RATE, 313494599, 1.110209, 0.03422265, 0.00244252, -1.029495, -0.02861986, -0.002391012, -0.00222923, 0.7938334, 0.0001020777, -646.898, 3.761864, 0
NKF1, 313494607, -0.24, 0.22, 93.25, 0.04744486, -0.006064751, -0.01597279, 0, 0, 0, -0.08705399, -0.01, 0, 0
NKF2, 313494607, 2, 0, 0, 0, 0, 0, 0, 0, 0, 0, 0, 0, 0
NKF3, 313494607, 0, 0, 0, 0.08, -0.01, -0.01, 0, 0, 0, 0, 0
NKF4, 313494607, 0, 0, 0, 0, 0, 2.257928E-06, 0, 0, 0, 19, 229, 0, 0
NKF5, 313494607, 0, 0, 0, 0, 0.21, 0.13, 0, 0.19, 0.5, 3.62126E-05, 0.0007598995, 0.001674019
NKQ1, 313494607, 0.6866675, -0.008469708, -0.0006084622, 0.726922
AHR2, 313494651, -0.18, 0.27, 92.71, -0.65, 0, 0, 0.6901626, -0.002836983, 0.0005005578, 0.7236487
MOTB, 313494658, 1, 1, 0, 1
RCIN, 313494662, 0, 0, 0, 0, 0, 0, 0, 0, 0, 0, 0, 0, 0, 0
RCOU, 313494668, 1180, 1180, 1180, 1180, 0, 0, 0, 0, 0, 0, 0, 0, 0, 0
VIBE, 313494677, 0.06007796, 0.09229359, 0.06282184, 0, 0, 0
CTRL, 313494683, 0.002632768, 0.0001806843, 0.002410885, 0.0001331662, 0.0001159037
PRX, 313494715, 2, 0.89, 0, 1.26, 0, 3.6, 0, 1.2, 0, 0, 0, 0.89
IMU, 313497337, 7.725107E-05, -0.0003222411, 0.01626409, 0.1368446, 0.1167635, -9.830725, 0, 0, 43.57567, 1, 1, 1000, 1000
IMU, 313537367, 0.0003439945, -0.003701972, -0.008130412, 0.1252649, 0.1119411, -9.785147, 0, 0, 43.57567, 1, 1, 1000, 1000
RFND, 313544538, 0.2, 25, 0, 0
IMU, 313577487, 0.002193208, 0.0003642275, -0.0029165, 0.1209109, 0.08859708, -9.800817, 0, 0, 43.57567, 1, 1, 1000, 1000
MAG, 313594867, -14, 351, 201, 0, 0, 0, 0, 0, 0, 1, 313594859
RFND, 313594896, 0.2, 25, 0, 0
BARO, 313594928, -0.7403385, 983.495, 42.53, 0.1960343, 313594, 0, 35
CTUN, 313594941, 0, 0, 0, 0.2997912, 0.08713672, 0.08713672, -0.74, 0, 0.19, 0, 0, 1
ATT, 313594996, 0, -0.24, 0, 0.22, 93.26, 93.26, 0, 1
RATE, 313595002, 1.084388, 0.07757179, 0.001783603, -1.010638, -0.09887076, -0.001977796, -0.002075878, 0.4674701, -0.0003771, -664.9993, 2.736664, 0
NKF1, 313595010, -0.24, 0.22, 93.26, 0.04909244, -0.006552001, -0.01641974, 0, 0, 0, -0.08713672, -0.01, 0, 0
NKF2, 313595010, 2, 0, 0, 0, 0, 0, 0, 0, 0, 0, 0, 0, 0
NKF3, 313595010, 0, 0, 0, 0.08, -0.01, -0.01, 0, 0, 0, 0, 0
NKF4, 313595010, 0, 0, 0, 0, 0, 2.522624E-06, 0, 0, 0, 19, 229, 0, 0
NKF5, 313595010, 0, 0, 0, 0, 0.21, 0.13, 0, 0.19, 0.5, 3.614579E-05, 0.0006331836, 0.001173939
NKQ1, 313595010, 0.6866153, -0.008407325, -0.0005938525, 0.726972
AHR2, 313595130, -0.17, 0.27, 92.72, -0.74, 0, 0, 0.6901178, -0.002763472, 0.0005210658, 0.7236917
MOTB, 313595137, 1, 1, 0, 1
RCIN, 313595142, 0, 0, 0, 0, 0, 0, 0, 0, 0, 0, 0, 0, 0, 0
RCOU, 313595147, 1204, 1204, 1204, 1204, 0, 0, 0, 0, 0, 0, 0, 0, 0, 0
VIBE, 313595156, 0.2714255, 0.3549213, 0.1932643, 0, 0, 0
CTRL, 313595163, 0.002612256, 0.0003518934, 0.002367301, 0.0003200943, 0.0002102618
PRX, 313595195, 2, 0.89, 0, 1.27, 0, 3.6, 0, 1.2, 0, 0, 0, 0.89
IMU, 313617448, -0.0008039559, 0.001749527, -0.0160276, 0.1299181, 0.1289559, -9.799241, 0, 0, 43.57567, 1, 1, 1000, 1000
RFND, 313644971, 0.2, 25, 0, 0
IMU, 313657448, 0.0003516646, -0.0009427979, 0.003573935, 0.0877635, 0.1023506, -9.793217, 0, 0, 43.57567, 1, 1, 1000, 1000
MAG, 313694607, -16, 354, 196, 0, 0, 0, 0, 0, 0, 1, 313694599
RFND, 313694638, 0.2, 25, 0, 0
BARO, 313694671, -0.7403385, 983.495, 42.53, -0.005298183, 313694, 0, 35
CTUN, 313694683, 0, 0, 0, 0.2997912, 0.08734444, 0.08734444, -0.74, 0, 0.19, 0, 0, 1
ATT, 313694738, 0, -0.24, 0, 0.22, 93.24, 93.24, 0, 1
RATE, 313694744, 1.083901, 0.05207847, 0.002844256, -0.9913254, -0.09533809, -0.002032293, -0.002183553, -0.09988084, 0.0001685308, -682.6536, 2.71225, 0
NKF1, 313694752, -0.24, 0.22, 93.24, 0.04993053, -0.005113335, -0.01685564, 0, 0, 0, -0.08734444, -0.01, 0, 0
NKF2, 313694752, 2, 0, 0, 0, 0, 0, 0, 0, 0, 0, 0, 0, 0
NKF3, 313694752, 0, 0, 0, 0.08, -0.01, -0.01, 0, 0, 0, 0, 0
NKF4, 313694752, 0, 0, 0, 0, 0, 2.803341E-06, 0, 0, 0, 19, 229, 0, 0
NKF5, 313694752, 0, 0, 0, 0, 0.21, 0.13, 0, 0.19, 0.5, 3.632352E-05, 0.0006114931, 0.001267996
NKQ1, 313694752, 0.686751, -0.008379859, -0.0006110108, 0.7268443
AHR2, 313694796, -0.17, 0.26, 92.69, -0.74, 0, 0, 0.6902599, -0.002727793, 0.0005094116, 0.7235562
MOTB, 313694802, 1, 1, 0, 1
RCIN, 313694806, 0, 0, 0, 0, 0, 0, 0, 0, 0, 0, 0, 0, 0, 0
RCOU, 313694813, 1221, 1229, 1225, 1224, 0, 0, 0, 0, 0, 0, 0, 0, 0, 0
VIBE, 313694821, 0.4837904, 0.4347996, 0.3709474, 0, 0, 0
CTRL, 313694827, 0.002563259, 0.0003936431, 0.002351882, 0.000391139, 0.0002461573
PRX, 313694861, 2, 0.89, 0, 1.27, 0, 3.6, 0, 1.2, 0, 0, 0, 0.89
IMU, 313698401, 0.000584072, -0.001851747, -0.002045479, 0.1278106, 0.07386898, -9.812747, 0, 0, 43.57567, 1, 1, 1000, 1000
IMU, 313737399, 0.00470441, -0.002212387, -0.01035734, 0.1201846, 0.07914421, -9.777629, 0, 0, 43.57567, 1, 1, 1000, 1000
RFND, 313744659, 0.2, 25, 0, 0
IMU, 313777698, 0.003178964, 0.003188215, 0.008600742, 0.09167104, 0.1004063, -9.77121, 0, 0, 43.57567, 1, 1, 1000, 1000
MAG, 313794940, -22, 351, 201, 0, 0, 0, 0, 0, 0, 1, 313794932
RFND, 313794970, 0.2, 25, 0, 0
BARO, 313795003, -0.7346871, 983.4945, 42.53, -0.261379, 313794, 0, 35
CTUN, 313795016, 0, 0, 0, 0.2997912, 0.0876039, 0.0876039, -0.73, 0, 0.19, 0, 0, 1
ATT, 313795264, 0, -0.23, 0, 0.21, 93.24, 93.24, 0, 1
RATE, 313795271, 1.059041, 0.0312905, 0.003770541, -0.9617569, -0.3918252, 0.0006596735, -0.002014868, 0.1233579, -9.192108E-05, -653.965, -2.630424, 0
NKF1, 313795279, -0.23, 0.21, 93.24, 0.05111992, -0.005517185, -0.01614728, 0, 0, 0, -0.08760389, -0.01, 0, 0
NKF2, 313795279, 2, 0, 0, 0, 0, 0, 0, 0, 0, 0, 0, 0, 0
NKF3, 313795279, 0, 0, 0, 0.08, -0.01, -0.01, 0, 0, 0, 0, 0
NKF4, 313795279, 0, 0, 0, 0, 0, 3.084867E-06, 0, 0, 0, 19, 229, 0, 0
NKF5, 313795279, 0, 0, 0, 0, 0.21, 0.13, 0, 0.19, 0.5, 3.618716E-05, 0.0005752022, 0.001032306
NKQ1, 313795279, 0.6867389, -0.008302206, -0.000617702, 0.7268566
AHR2, 313795329, -0.16, 0.26, 92.69, -0.73, 0, 0, 0.6902547, -0.002648381, 0.0005129559, 0.7235615
MOTB, 313795336, 1, 1, 0, 1
RCIN, 313795341, 0, 0, 0, 0, 0, 0, 0, 0, 0, 0, 0, 0, 0, 0
RCOU, 313795346, 1222, 1227, 1228, 1221, 0, 0, 0, 0, 0, 0, 0, 0, 0, 0
VIBE, 313795355, 0.41374, 0.3615282, 0.3794835, 0, 0, 0
CTRL, 313795361, 0.002493888, 0.0007365843, 0.002338327, 0.0006499563, 0.0002611335
PRX, 313795394, 2, 0.89, 0, 1.26, 0, 3.6, 0, 1.2, 0, 0, 0, 0.89
IMU, 313817493, -0.0001950637, 0.001882984, -0.00402728, 0.08469137, 0.1608767, -9.745895, 0, 0, 43.57567, 1, 1, 1000, 1000
RFND, 313845343, 0.2, 25, 0, 0
IMU, 313857401, -0.003332659, -0.005366566, 0.003158798, 0.07042688, 0.08129147, -9.737901, 0, 0, 43.57567, 1, 1, 1000, 1000
MAG, 313894605, -19, 350, 199, 0, 0, 0, 0, 0, 0, 1, 313894596
RFND, 313894635, 0.2, 25, 0, 0
BARO, 313894667, -0.7064299, 983.4916, 42.52, -0.2755076, 313894, 0, 35
CTUN, 313894679, 0, 0, 0, 0.2997912, 0.08741847, 0.08741847, -0.7, 0, 0.19, 0, 0, 1
DU32, 313894699, 7, 33580536
ATT, 313894792, 0, -0.23, 0, 0.2, 93.26, 93.26, 0, 1
RATE, 313894798, 1.038062, 0.1457474, 0.001555949, -0.9432431, -0.35258, 0.0006228895, -0.001892166, 0.8127782, -0.0005877698, -502.0226, -5.316448, 0
NKF1, 313894806, -0.23, 0.2, 93.26, 0.0520905, -0.005246197, -0.01239562, 0, 0, 0, -0.08741847, -0.01, 0, 0
NKF2, 313894806, 2, 0, 0, 0, 0, 0, 0, 0, 0, 0, 0, 0, 0
NKF3, 313894806, 0, 0, 0, 0.09, -0.01, -0.01, 0, 0, 0, 0, 0
NKF4, 313894806, 0, 0, 0, 0, 0, 3.442429E-06, 0, 0, 0, 19, 229, 0, 0
NKF5, 313894806, 0, 0, 0, 0, 0.21, 0.13, 0, 0.19, 0.5, 3.643923E-05, 0.0004759429, 0.0008644614
NKQ1, 313894806, 0.6866566, -0.008251246, -0.0006212402, 0.7269349
AHR2, 313894850, -0.16, 0.25, 92.71, -0.7, 0, 0, 0.6901796, -0.002594434, 0.000515339, 0.7236333
MOTB, 313894857, 1, 1, 0, 1
RCIN, 313894861, 0, 0, 0, 0, 0, 0, 0, 0, 0, 0, 0, 0, 0, 0
RCOU, 313894867, 1221, 1222, 1224, 1221, 0, 0, 0, 0, 0, 0, 0, 0, 0, 0
VIBE, 313894876, 0.3194276, 0.2964151, 0.2853294, 0, 0, 0
CTRL, 313894882, 0.002502385, 0.000917681, 0.002296078, 0.0009168559, 0.0002514917
PRX, 313894914, 2, 0.89, 0, 1.26, 0, 3.6, 0, 1.2, 0, 0, 0, 0.89
IMU, 313897502, 0.001963101, -0.006136453, 0.01191164, 0.06781122, 0.09049906, -9.731812, 0, 0, 43.57567, 1, 1, 1000, 1000
IMU, 313937263, 0.00548429, 0.006850949, 0.02522064, 0.04302103, 0.1402406, -9.734968, 0, 0, 43.57561, 1, 1, 1000, 1000
RFND, 313944510, 0.2, 25, 0, 0
IMU, 313977768, 0.005244229, 0.005731919, -0.01569732, 0.1793203, 0.1439006, -9.728269, 0, 0, 43.57468, 1, 1, 1000, 1000
MAG, 313994475, -15, 349, 205, 0, 0, 0, 0, 0, 0, 1, 313994466
RFND, 313994503, 0.2, 25, 0, 0
BARO, 313994534, -0.6329612, 983.4835, 42.5, -0.05651444, 313994, 0, 35
CTUN, 313994546, 0, 0, 0, 0.2997912, 0.08722767, 0.08722767, -0.63, 0, 0.19, 0, 0, 1
ATT, 313994596, 0, -0.22, 0, 0.22, 93.26, 93.26, 0, 1
RATE, 313994601, 1.020283, -0.02819933, 0.003519326, -1.002953, 0.07959014, -0.001312109, -0.001999639, 1.512032, 0.0001156413, -424.7419, 1.817799, 0
NKF1, 313994609, -0.22, 0.22, 93.26, 0.05309467, -0.00696545, -0.01048745, 0, 0, 0, -0.08722766, -0.01, 0, 0
NKF2, 313994609, 2, 0, 0, 0, 0, 0, 0, 0, 0, 0, 0, 0, 0
NKF3, 313994609, 0, 0, 0, 0.1, -0.01, -0.01, 0, 0, 0, 0, 0
NKF4, 313994609, 0, 0, 0, 0, 0, 3.749227E-06, 0, 0, 0, 19, 229, 0, 0
NKF5, 313994609, 0, 0, 0, 0, 0.21, 0.13, 0, 0.19, 0.5, 3.709265E-05, 0.0007083477, 0.001775022
NKQ1, 313994609, 0.6866184, -0.008307815, -0.0005246141, 0.7269704
AHR2, 313994654, -0.15, 0.26, 92.71, -0.63, 0, 0, 0.6901494, -0.002643409, 0.0006037776, 0.7236619
MOTB, 313994661, 1, 1, 0, 1
RCIN, 313994666, 0, 0, 0, 0, 0, 0, 0, 0, 0, 0, 0, 0, 0, 0
RCOU, 313994672, 1221, 1229, 1227, 1223, 0, 0, 0, 0, 0, 0, 0, 0, 0, 0
VIBE, 313994680, 0.3326605, 0.3996539, 0.3455371, 0, 0, 0
CTRL, 313994687, 0.002471392, 0.001070917, 0.002400293, 0.001112211, 0.0003984253
PRX, 313994719, 2, 0.89, 0, 1.26, 0, 3.6, 0, 1.2, 0, 0, 0, 0.89
IMU, 314017693, -0.001801085, 0.0007193013, -0.02909606, 0.195595, 0.1335168, -9.81889, 0, 0, 43.57029, 1, 1, 1000, 1000
RFND, 314045394, 0.2, 25, 0, 0
IMU, 314057252, -0.001260643, 0.002259741, -0.005943835, 0.1897525, 0.05619574, -9.731639, 0, 0, 43.55935, 1, 1, 1000, 1000
MAG, 314094500, -16, 350, 204, 0, 0, 0, 0, 0, 0, 1, 314094491
RFND, 314094532, 0.2, 25, 0, 0
BARO, 314094560, -0.6725212, 983.488, 42.47, 0.1819057, 314094, 0, 35
CTUN, 314094572, 0, 0, 0, 0.2997912, 0.08642078, 0.08642078, -0.67, 0, 0.19, 0, 0, 0
ATT, 314094622, 0, -0.22, 0, 0.23, 93.23, 93.23, 0, 1
RATE, 314094628, 1.019842, 0.29849, 0.001272361, -1.034556, 0.5715038, -0.006756702, -0.00213784, -0.7761667, 0.0006051885, -242.6461, -2.76165, 0
NKF1, 314094635, -0.22, 0.23, 93.23, 0.05261476, -0.005715366, -0.005991261, 0, 0, 0, -0.08642078, -0.01, 0, 0
NKF2, 314094635, 2, 0, 0, 0, 0, 0, 0, 0, 0, 0, 0, 0, 0
NKF3, 314094635, 0, 0, 0, 0.1, -0.01, -0.01, 0, 0, 0, 0, 0
NKF4, 314094635, 0, 0, 0, 0, 0, 4.166339E-06, 0, 0, 0, 19, 229, 0, 0
NKF5, 314094635, 0, 0, 0, 0, 0.21, 0.13, 0, 0.19, 0.5, 3.672299E-05, 0.0003806326, 0.0005632052
NKQ1, 314094635, 0.6868425, -0.008355516, -0.000454752, 0.7267582
AHR2, 314094680, -0.15, 0.27, 92.67, -0.67, 0, 0, 0.6903801, -0.00268098, 0.0006665887, 0.7234416
MOTB, 314094687, 1, 1, 0, 1
RCIN, 314094691, 0, 0, 0, 0, 0, 0, 0, 0, 0, 0, 0, 0, 0, 0
RCOU, 314094697, 1221, 1235, 1222, 1231, 0, 0, 0, 0, 0, 0, 0, 0, 0, 0
VIBE, 314094706, 0.3652759, 0.4122542, 0.3215414, 0, 0, 0
CTRL, 314094712, 0.002451759, 0.001105241, 0.002429545, 0.001244223, 0.0004092053
PRX, 314094744, 2, 0.89, 0, 1.26, 0, 3.6, 0, 1.21, 0, 0, 0, 0.89
IMU, 314097485, 0.003655934, 0.01002849, -0.01207447, 0.1432086, 0.1484651, -9.747116, 0, 0, 43.54202, 1, 1, 1000, 1000
IMU, 314137229, 0.001925461, -0.0003099249, -0.007284167, -0.005155216, 0.1594138, -9.726896, 0, 0, 43.51785, 1, 1, 1000, 1000
RFND, 314144515, 0.2, 25, 0, 0
IMU, 314177281, -0.005005834, -0.008881411, 0.006166802, -0.01642863, 0.09390137, -9.750988, 0, 0, 43.49108, 1, 1, 1000, 1000
MAG, 314194466, -19, 353, 204, 0, 0, 0, 0, 0, 0, 1, 314194458
RFND, 314194497, 0.2, 25, 0, 0
BARO, 314194526, -0.6499155, 983.4856, 42.44, 0.2719755, 314194, 0, 35
CTUN, 314194538, 0, 0, 0, 0.2997912, 0.08543846, 0.08543846, -0.64, 0, 0.19, 0, 0, 0
ATT, 314194587, 0, -0.23, 0, 0.22, 93.22, 93.22, 0, 1
RATE, 314194593, 1.045027, 0.2868758, 3.34084E-05, -1.028507, 0.3304026, -0.006289149, -0.002137645, -0.4194399, 0.0001718954, -113.8659, -3.589916, 0
NKF1, 314194600, -0.23, 0.22, 93.22, 0.05448608, -0.004153654, -0.002811505, 0, 0, 0, -0.08543846, -0.01, 0, 0
NKF2, 314194600, 2, 0, 0, 0, 0, 0, 0, 0, 0, 0, 0, 0, 0
NKF3, 314194600, 0, 0, 0, 0.11, -0.01, -0.01, 0, 0, 0, 0, 0
NKF4, 314194600, 0, 0, 0, 0, 0, 4.559105E-06, 0, 0, 0, 19, 229, 0, 0
