FMT, 128, 89, FMT, BBnNZ, Type,Length,Name,Format,Columns
FMT, 129, 31, PARM, QNf, TimeUS,Name,Value
FMT, 130, 46, GPS, QBIHBcLLefffB, TimeUS,Status,GMS,GWk,NSats,HDop,Lat,Lng,Alt,Spd,GCrs,VZ,U
FMT, 131, 46, GPS2, QBIHBcLLefffB, TimeUS,Status,GMS,GWk,NSats,HDop,Lat,Lng,Alt,Spd,GCrs,VZ,U
FMT, 132, 46, GPSB, QBIHBcLLefffB, TimeUS,Status,GMS,GWk,NSats,HDop,Lat,Lng,Alt,Spd,GCrs,VZ,U
FMT, 193, 24, GPA, QCCCCBI, TimeUS,VDop,HAcc,VAcc,SAcc,VV,SMS
FMT, 194, 24, GPA2, QCCCCBI, TimeUS,VDop,HAcc,VAcc,SAcc,VV,SMS
FMT, 195, 24, GPAB, QCCCCBI, TimeUS,VDop,HAcc,VAcc,SAcc,VV,SMS
FMT, 133, 53, IMU, QffffffIIfBBHH, TimeUS,GyrX,GyrY,GyrZ,AccX,AccY,AccZ,EG,EA,T,GH,AH,GHz,AHz
FMT, 134, 75, MSG, QZ, TimeUS,Message
FMT, 135, 39, RCIN, QHHHHHHHHHHHHHH, TimeUS,C1,C2,C3,C4,C5,C6,C7,C8,C9,C10,C11,C12,C13,C14
FMT, 136, 39, RCOU, QHHHHHHHHHHHHHH, TimeUS,C1,C2,C3,C4,C5,C6,C7,C8,C9,C10,C11,C12,C13,C14
FMT, 137, 15, RSSI, Qf, TimeUS,RXRSSI
FMT, 139, 37, BARO, QffcfIff, TimeUS,Alt,Press,Temp,CRt,SMS,Offset,GndTemp
FMT, 140, 22, POWR, QffHB, TimeUS,Vcc,VServo,Flags,Safety
FMT, 143, 45, CMD, QHHHfffffff, TimeUS,CTot,CNum,CId,Prm1,Prm2,Prm3,Prm4,Lat,Lng,Alt
FMT, 144, 20, RAD, QBBBBBHH, TimeUS,RSSI,RemRSSI,TxBuf,Noise,RemNoise,RxErrors,Fixed
FMT, 146, 43, CAM, QIHLLeeeccC, TimeUS,GPSTime,GPSWeek,Lat,Lng,Alt,RelAlt,GPSAlt,Roll,Pitch,Yaw
FMT, 232, 43, TRIG, QIHLLeeeccC, TimeUS,GPSTime,GPSWeek,Lat,Lng,Alt,RelAlt,GPSAlt,Roll,Pitch,Yaw
FMT, 162, 30, ARSP, QffcffB, TimeUS,Airspeed,DiffPress,Temp,RawPress,Offset,U
FMT, 164, 45, CURR, QfffcHHHHHHHHHH, TimeUS,Volt,Curr,CurrTot,Temp,V1,V2,V3,V4,V5,V6,V7,V8,V9,V10
FMT, 165, 45, CUR2, QfffcHHHHHHHHHH, TimeUS,Volt,Curr,CurrTot,Temp,V1,V2,V3,V4,V5,V6,V7,V8,V9,V10
FMT, 163, 27, ATT, QccccCCCC, TimeUS,DesRoll,Roll,DesPitch,Pitch,DesYaw,Yaw,ErrRP,ErrYaw
FMT, 166, 34, MAG, QhhhhhhhhhBI, TimeUS,MagX,MagY,MagZ,OfsX,OfsY,OfsZ,MOfsX,MOfsY,MOfsZ,Health,S
FMT, 169, 14, MODE, QMBB, TimeUS,Mode,ModeNum,Rsn
FMT, 196, 17, RFND, QCBCB, TimeUS,Dist1,Orient1,Dist2,Orient2
FMT, 223, 33, DMS, IIIIIBBBBBBBBBB, TimeMS,N,Dp,RT,RS,Er,Fa,Fmn,Fmx,Pa,Pmn,Pmx,Sa,Smn,Smx
FMT, 240, 41, BCN, QBBfffffff, TimeUS,Health,Cnt,D0,D1,D2,D3,PosX,PosY,PosZ
FMT, 138, 53, IMU2, QffffffIIfBBHH, TimeUS,GyrX,GyrY,GyrZ,AccX,AccY,AccZ,EG,EA,T,GH,AH,GHz,AHz
FMT, 147, 53, IMU3, QffffffIIfBBHH, TimeUS,GyrX,GyrY,GyrZ,AccX,AccY,AccZ,EG,EA,T,GH,AH,GHz,AHz
FMT, 141, 45, AHR2, QccCfLLffff, TimeUS,Roll,Pitch,Yaw,Alt,Lat,Lng,Q1,Q2,Q3,Q4
FMT, 180, 31, POS, QLLfff, TimeUS,Lat,Lng,Alt,RelHomeAlt,RelOriginAlt
FMT, 142, 45, SIM, QccCfLLffff, TimeUS,Roll,Pitch,Yaw,Alt,Lat,Lng,Q1,Q2,Q3,Q4
FMT, 198, 51, NKF1, QccCfffffffccc, TimeUS,Roll,Pitch,Yaw,VN,VE,VD,dPD,PN,PE,PD,GX,GY,GZ
FMT, 199, 35, NKF2, QbccccchhhhhhB, TimeUS,AZbias,GSX,GSY,GSZ,VWN,VWE,MN,ME,MD,MX,MY,MZ,MI
FMT, 200, 33, NKF3, Qcccccchhhcc, TimeUS,IVN,IVE,IVD,IPN,IPE,IPD,IMX,IMY,IMZ,IYAW,IVT
FMT, 201, 35, NKF4, QcccccfbbHBHHb, TimeUS,SV,SP,SH,SM,SVT,errRP,OFN,OFE,FS,TS,SS,GPS,PI
FMT, 202, 40, NKF5, QBhhhcccCCfff, TimeUS,NI,FIX,FIY,AFI,HAGL,offset,RI,rng,Herr,eAng,eVel,ePos
FMT, 203, 51, NKF6, QccCfffffffccc, TimeUS,Roll,Pitch,Yaw,VN,VE,VD,dPD,PN,PE,PD,GX,GY,GZ
FMT, 204, 35, NKF7, QbccccchhhhhhB, TimeUS,AZbias,GSX,GSY,GSZ,VWN,VWE,MN,ME,MD,MX,MY,MZ,MI
FMT, 205, 33, NKF8, Qcccccchhhcc, TimeUS,IVN,IVE,IVD,IPN,IPE,IPD,IMX,IMY,IMZ,IYAW,IVT
FMT, 206, 35, NKF9, QcccccfbbHBHHb, TimeUS,SV,SP,SH,SM,SVT,errRP,OFN,OFE,FS,TS,SS,GPS,PI
FMT, 207, 36, NKF0, QBccCCcccccccc, TimeUS,ID,rng,innov,SIV,TR,BPN,BPE,BPD,OFH,OFL,OFN,OFE,OFD
FMT, 208, 27, NKQ1, Qffff, TimeUS,Q1,Q2,Q3,Q4
FMT, 209, 27, NKQ2, Qffff, TimeUS,Q1,Q2,Q3,Q4
FMT, 210, 51, XKF1, QccCfffffffccc, TimeUS,Roll,Pitch,Yaw,VN,VE,VD,dPD,PN,PE,PD,GX,GY,GZ
FMT, 211, 34, XKF2, QccccchhhhhhB, TimeUS,AX,AY,AZ,VWN,VWE,MN,ME,MD,MX,MY,MZ,MI
FMT, 212, 33, XKF3, Qcccccchhhcc, TimeUS,IVN,IVE,IVD,IPN,IPE,IPD,IMX,IMY,IMZ,IYAW,IVT
FMT, 213, 35, XKF4, QcccccfbbHBHHb, TimeUS,SV,SP,SH,SM,SVT,errRP,OFN,OFE,FS,TS,SS,GPS,PI
FMT, 214, 40, XKF5, QBhhhcccCCfff, TimeUS,NI,FIX,FIY,AFI,HAGL,offset,RI,rng,Herr,eAng,eVel,ePos
FMT, 215, 51, XKF6, QccCfffffffccc, TimeUS,Roll,Pitch,Yaw,VN,VE,VD,dPD,PN,PE,PD,GX,GY,GZ
FMT, 216, 34, XKF7, QccccchhhhhhB, TimeUS,AX,AY,AZ,VWN,VWE,MN,ME,MD,MX,MY,MZ,MI
FMT, 217, 33, XKF8, Qcccccchhhcc, TimeUS,IVN,IVE,IVD,IPN,IPE,IPD,IMX,IMY,IMZ,IYAW,IVT
FMT, 218, 35, XKF9, QcccccfbbHBHHb, TimeUS,SV,SP,SH,SM,SVT,errRP,OFN,OFE,FS,TS,SS,GPS,PI
FMT, 219, 36, XKF0, QBccCCcccccccc, TimeUS,ID,rng,innov,SIV,TR,BPN,BPE,BPD,OFH,OFL,OFN,OFE,OFD
FMT, 220, 27, XKQ1, Qffff, TimeUS,Q1,Q2,Q3,Q4
FMT, 221, 27, XKQ2, Qffff, TimeUS,Q1,Q2,Q3,Q4
FMT, 222, 35, XKFD, Qffffff, TimeUS,IX,IY,IZ,IVX,IVY,IVZ
FMT, 148, 34, TERR, QBLLHffHH, TimeUS,Status,Lat,Lng,Spacing,TerrH,CHeight,Pending,Loaded
FMT, 149, 18, UBX1, QBHBBH, TimeUS,Instance,noisePerMS,jamInd,aPower,agcCnt
FMT, 150, 16, UBX2, QBbBbB, TimeUS,Instance,ofsI,magI,ofsQ,magQ
FMT, 151, 18, UBY1, QBHBBH, TimeUS,Instance,noisePerMS,jamInd,aPower,agcCnt
FMT, 152, 16, UBY2, QBbBbB, TimeUS,Instance,ofsI,magI,ofsQ,magQ
FMT, 170, 42, GRAW, QIHBBddfBbB, TimeUS,WkMS,Week,numSV,sv,cpMes,prMes,doMes,mesQI,cno,lli
FMT, 171, 24, GRXH, QdHbBB, TimeUS,rcvTime,week,leapS,numMeas,recStat
FMT, 172, 41, GRXS, QddfBBBHBBBBB, TimeUS,prMes,cpMes,doMes,gnss,sv,freq,lock,cno,prD,cpD,doD,trk
FMT, 173, 63, SBFE, QIHBBdddfffff, TimeUS,TOW,WN,Mode,Err,Lat,Lng,Height,Undul,Vn,Ve,Vu,COG
FMT, 153, 19, ESC1, Qcccc, TimeUS,RPM,Volt,Curr,Temp
FMT, 154, 19, ESC2, Qcccc, TimeUS,RPM,Volt,Curr,Temp
FMT, 155, 19, ESC3, Qcccc, TimeUS,RPM,Volt,Curr,Temp
FMT, 156, 19, ESC4, Qcccc, TimeUS,RPM,Volt,Curr,Temp
FMT, 157, 19, ESC5, Qcccc, TimeUS,RPM,Volt,Curr,Temp
FMT, 158, 19, ESC6, Qcccc, TimeUS,RPM,Volt,Curr,Temp
FMT, 159, 19, ESC7, Qcccc, TimeUS,RPM,Volt,Curr,Temp
FMT, 160, 19, ESC8, Qcccc, TimeUS,RPM,Volt,Curr,Temp
FMT, 167, 34, MAG2, QhhhhhhhhhBI, TimeUS,MagX,MagY,MagZ,OfsX,OfsY,OfsZ,MOfsX,MOfsY,MOfsZ,Health,S
FMT, 168, 34, MAG3, QhhhhhhhhhBI, TimeUS,MagX,MagY,MagZ,OfsX,OfsY,OfsZ,MOfsX,MOfsY,MOfsZ,Health,S
FMT, 174, 31, ACC1, QQfff, TimeUS,SampleUS,AccX,AccY,AccZ
FMT, 175, 31, ACC2, QQfff, TimeUS,SampleUS,AccX,AccY,AccZ
FMT, 176, 31, ACC3, QQfff, TimeUS,SampleUS,AccX,AccY,AccZ
FMT, 177, 31, GYR1, QQfff, TimeUS,SampleUS,GyrX,GyrY,GyrZ
FMT, 178, 31, GYR2, QQfff, TimeUS,SampleUS,GyrX,GyrY,GyrZ
FMT, 179, 31, GYR3, QQfff, TimeUS,SampleUS,GyrX,GyrY,GyrZ
FMT, 181, 35, PIDR, Qffffff, TimeUS,Des,P,I,D,FF,AFF
FMT, 182, 35, PIDP, Qffffff, TimeUS,Des,P,I,D,FF,AFF
FMT, 183, 35, PIDY, Qffffff, TimeUS,Des,P,I,D,FF,AFF
FMT, 184, 35, PIDA, Qffffff, TimeUS,Des,P,I,D,FF,AFF
FMT, 185, 35, PIDS, Qffffff, TimeUS,Des,P,I,D,FF,AFF
FMT, 186, 35, PIDL, Qffffff, TimeUS,Des,P,I,D,FF,AFF
FMT, 161, 37, BAR2, QffcfIff, TimeUS,Alt,Press,Temp,CRt,SMS,Offset,GndTemp
FMT, 197, 37, BAR3, QffcfIff, TimeUS,Alt,Press,Temp,CRt,SMS,Offset,GndTemp
FMT, 187, 35, VIBE, QfffIII, TimeUS,VibeX,VibeY,VibeZ,Clip0,Clip1,Clip2
FMT, 188, 47, IMT, Qfffffffff, TimeUS,DelT,DelvT,DelaT,DelAX,DelAY,DelAZ,DelVX,DelVY,DelVZ
FMT, 189, 47, IMT2, Qfffffffff, TimeUS,DelT,DelvT,DelaT,DelAX,DelAY,DelAZ,DelVX,DelVY,DelVZ
FMT, 190, 47, IMT3, Qfffffffff, TimeUS,DelT,DelvT,DelaT,DelAX,DelAY,DelAZ,DelVX,DelVY,DelVZ
FMT, 191, 24, ORGN, QBLLe, TimeUS,Type,Lat,Lng,Alt
FMT, 192, 19, RPM, Qff, TimeUS,rpm1,rpm2
FMT, 233, 47, GMB1, Iffffffffff, TimeMS,dt,dax,day,daz,dvx,dvy,dvz,jx,jy,jz
FMT, 234, 44, GMB2, IBfffffffff, TimeMS,es,ex,ey,ez,rx,ry,rz,tx,ty,tz
FMT, 235, 13, GMB3, Ihhh, TimeMS,rl_torque_cmd,el_torque_cmd,az_torque_cmd
FMT, 236, 59, RATE, Qffffffffffff, TimeUS,RDes,R,ROut,PDes,P,POut,YDes,Y,YOut,ADes,A,AOut
FMT, 237, 23, RALY, QBBLLh, TimeUS,Tot,Seq,Lat,Lng,Alt
FMT, 238, 43, VISO, Qffffffff, TimeUS,dt,AngDX,AngDY,AngDZ,PosDX,PosDY,PosDZ,conf
FMT, 224, 23, SBPH, QIII, TimeUS,CrcError,LastInject,IARhyp
FMT, 229, 80, SBR1, QHHBZ, TimeUS,msg_type,sender_id,msg_len,d1
FMT, 230, 205, SBR2, QHZZZ, TimeUS,msg_type,d2,d3,d4
FMT, 25, 41, ATUN, QBBfffffff, TimeUS,Axis,TuneStep,Targ,Min,Max,RP,RD,SP,ddt
FMT, 26, 19, ATDE, Qff, TimeUS,Angle,Rate
FMT, 31, 22, PTUN, QBfHHH, TimeUS,Param,TunVal,CtrlIn,TunLo,TunHi
FMT, 12, 28, OF, QBffff, TimeUS,Qual,flowX,flowY,bodyX,bodyY
FMT, 5, 51, NTUN, Qffffffffff, TimeUS,DPosX,DPosY,PosX,PosY,DVelX,DVelY,VelX,VelY,DAccX,DAccY
FMT, 4, 51, CTUN, Qffffffeccfhh, TimeUS,ThI,ABst,ThO,ThH,DAlt,Alt,BAlt,DSAlt,SAlt,TAlt,DCRt,CRt
FMT, 6, 32, PM, QHHIhBHII, TimeUS,NLon,NLoop,MaxT,PMT,I2CErr,INSErr,LogDrop,Mem
FMT, 30, 27, MOTB, Qffff, TimeUS,LiftMax,BatVolt,BatRes,ThLimit
FMT, 13, 12, EV, QB, TimeUS,Id
FMT, 20, 14, D16, QBh, TimeUS,Id,Value
FMT, 21, 14, DU16, QBH, TimeUS,Id,Value
FMT, 22, 16, D32, QBi, TimeUS,Id,Value
FMT, 23, 16, DU32, QBI, TimeUS,Id,Value
FMT, 24, 16, DFLT, QBf, TimeUS,Id,Value
FMT, 19, 13, ERR, QBB, TimeUS,Subsys,ECode
FMT, 32, 19, HELI, Qff, TimeUS,DRRPM,ERRPM
FMT, 33, 29, PL, QBBffff, TimeUS,Heal,TAcq,pX,pY,vX,vY
FMT, 34, 36, GUID, QBffffff, TimeUS,Type,pX,pY,pZ,vX,vY,vZ
FMT, 35, 32, THRO, QBffffbbbb, TimeUS,Stage,Vel,VelZ,Acc,AccEfZ,Throw,AttOk,HgtOk,PosOk
FMT, 36, 56, PRX, QBfffffffffff, TimeUS,Health,D0,D45,D90,D135,D180,D225,D270,D315,DUp,CAn,CDis
MODE, 18964806, 100, 100, 1
IMU, 18967409, -0.000782967, -0.000222355, 6.830852E-05, 0.1017911, 0.1109921, -9.800881, 0, 0, 42.33459, 1, 1, 1000, 1000
FMT, 254, 47, NKT1, QIffffffff, TimeUS,Cnt,IMUMin,IMUMax,EKFMin,EKFMax,AngMin,AngMax,VelMin,VelM
FMT, 253, 31, CTRL, Qfffff, TimeUS,RMSRollP,RMSRollD,RMSPitchP,RMSPitchD,RMSYaw
IMU, 19087410, 3.917724E-05, -0.001469627, -0.001162728, 0.08528145, 0.1197652, -9.797055, 0, 0, 42.33456, 1, 1, 1000, 1000
MSG, 19087812, APM:Copter V3.5.7 (791a96c7)
MSG, 19087817, New mission
MSG, 19087827, Frame: QUAD
MODE, 19087832, 100, 100, 1
MAG, 19127375, -14, 339, 204, 0, 0, 0, 0, 0, 0, 1, 19127366
RFND, 19127409, 0.2, 25, 0, 0
BARO, 19127533, -0.1469374, 983.5461, 41.27, -0.4621421, 19127, 0, 35
CTUN, 19127548, 0, 0, 0, 0.2988867, 0.06965081, 0.06965081, -0.14, 0, 0.19, 0, 0, 0
ATT, 19127629, 0, -0.21, 0, 0.14, 0.03, 0.02, 0, 1
RATE, 19127634, 0.9782348, 0.02299151, 0.002074352, -0.6603759, 0.02346926, -0.001649906, 0.0004217302, -0.02075885, -4.752032E-08, -235.1977, -1.340771, 0
NKF1, 19127642, -0.21, 0.14, 0.02, -0.001739708, 0.003116288, -0.00580735, 0, 0, 0, -0.06965081, 0, -0.01, 0
NKF2, 19127642, 1, 0, 0, 0, 0, 0, 0, 0, 0, 0, 0, 0, 0
NKF3, 19127642, 0, 0, 0, 0, 0, 0, 0, 0, 0, 0, 0
NKF4, 19127642, 0, 0, 0, 0, 0, 3.679064E-06, 0, 0, 0, 19, 229, 0, 0
NKF5, 19127642, 0, 0, 0, 0, 0.2, 0.13, 0, 0.19, 0.5, 4.328108E-05, 0.0005903858, 0.0008780839
NKQ1, 19127642, 0.9999694, -0.005996329, 0.005029161, 0.0002815922
AHR2, 19127688, -0.23, 0.12, 0.02, -0.14, 0, 0, 0.9999973, -0.002025753, 0.001127577, 0.0002558019
MOTB, 19127695, 1, 1, 0, 1
RCIN, 19127699, 0, 0, 0, 0, 0, 0, 0, 0, 0, 0, 0, 0, 0, 0
RCOU, 19127705, 1101, 1101, 1101, 1101, 0, 0, 0, 0, 0, 0, 0, 0, 0, 0
VIBE, 19127713, 0.01955152, 0.02168845, 0.03194216, 0, 0, 0
CTRL, 19127720, 0.002295296, 0.000152978, 0.001552209, 0.0001242435, 3.347549E-05
PRX, 19127752, 2, 0.91, 0, 1.18, 0, 3.6, 0, 1.27, 0, 0, 0, 0.91
IMU, 19127759, 0.0004434006, 7.794521E-05, -0.0003663675, 0.09855551, 0.1035909, -9.78109, 0, 0, 42.33459, 1, 1, 1000, 1000
IMU, 19167702, -0.001005267, 0.0003668592, -0.0002083377, 0.09341896, 0.117269, -9.801055, 0, 0, 42.33456, 1, 1, 1000, 1000
RFND, 19177319, 0.2, 25, 0, 0
IMU, 19207532, -0.0001750914, -0.0007123633, 0.0001670394, 0.1023758, 0.1175161, -9.79933, 0, 0, 42.33456, 1, 1, 1000, 1000
MAG, 19227314, -9, 334, 200, 0, 0, 0, 0, 0, 0, 1, 19227304
RFND, 19227348, 0.2, 25, 0, 0
BARO, 19227383, -0.1864975, 983.55, 41.27, -0.233804, 19227, 0, 35
CTUN, 19227395, 0, 0, 0, 0.2988867, 0.07011073, 0.07011073, -0.18, 0, 0.19, 0, 0, 0
ATT, 19227578, 0, -0.21, 0, 0.14, 0.03, 0.03, 0, 1
RATE, 19227585, 0.9885179, -0.004540261, 0.00222141, -0.6630958, -0.03336415, -0.001381592, -0.001712505, 0.04954699, -4.067494E-05, -281.6032, 2.950954, 0
NKF1, 19227593, -0.21, 0.14, 0.03, -0.001434641, 0.003180826, -0.006953166, 0, 0, 0, -0.07011073, 0, -0.01, 0
NKF2, 19227593, 1, 0, 0, 0, 0, 0, 0, 0, 0, 0, 0, 0, 0
NKF3, 19227593, 0, 0, 0, 0, 0, 0, 0, 0, 0, 0, 0
NKF4, 19227593, 0, 0, 0, 0, 0, 2.452515E-06, 0, 0, 0, 19, 229, 0, 0
NKF5, 19227593, 0, 0, 0, 0, 0.2, 0.13, 0, 0.19, 0.5, 4.141315E-05, 0.0005994388, 0.0009157382
NKQ1, 19227593, 0.9999693, -0.006017215, 0.005034171, 0.0002953871
AHR2, 19227640, -0.23, 0.12, 0.03, -0.18, 0, 0, 0.9999973, -0.002035287, 0.001118912, 0.0002695752
MOTB, 19227647, 1, 1, 0, 1
RCIN, 19227652, 0, 0, 0, 0, 0, 0, 0, 0, 0, 0, 0, 0, 0, 0
RCOU, 19227657, 1101, 1101, 1101, 1101, 0, 0, 0, 0, 0, 0, 0, 0, 0, 0
VIBE, 19227666, 0.02221555, 0.02147326, 0.03755413, 0, 0, 0
CTRL, 19227672, 0.002319684, 0.000148352, 0.00156615, 0.0001224154, 2.877486E-05
PRX, 19227703, 2, 0.92, 0, 1.18, 0, 3.6, 0, 1.28, 0, 0, 0, 0.92
IMU, 19247523, 0.001802497, 0.000107712, 0.0002900558, 0.09840744, 0.1114698, -9.814718, 0, 0, 42.33456, 1, 1, 1000, 1000
RFND, 19277394, 0.2, 25, 0, 0
IMU, 19287528, -0.002293532, -0.0006217175, 0.0007970179, 0.08960752, 0.1233169, -9.804951, 0, 0, 42.33459, 1, 1, 1000, 1000
MAG, 19327539, -14, 335, 206, 0, 0, 0, 0, 0, 0, 1, 19327530
RFND, 19327571, 0.2, 25, 0, 0
BARO, 19327607, -0.1130288, 983.5419, 41.27, -0.02143573, 19327, 0, 35
CTUN, 19327620, 0, 0, 0, 0.2988867, 0.07067634, 0.07067634, -0.11, 0, 0.19, 0, 0, 0
ATT, 19327694, 0, -0.21, 0, 0.14, 0.03, 0.03, 0, 1
RATE, 19327700, 0.9905141, 0.03242887, 0.002122247, -0.6660995, 0.02980525, -0.001737067, -0.002679812, -0.008828453, -5.676736E-05, -302.3209, 0.4015923, 0
NKF1, 19327707, -0.21, 0.14, 0.03, -0.001572027, 0.002983742, -0.007464714, 0, 0, 0, -0.07067634, 0, -0.01, 0
NKF2, 19327707, 1, 0, 0, 0, 0, 0, 0, 0, 0, 0, 0, 0, 0
NKF3, 19327707, 0, 0, 0, 0, 0, 0, 0, 0, 0, 0, 0
NKF4, 19327707, 0, 0, 0, 0, 0, 1.640209E-06, 0, 0, 0, 19, 229, 0, 0
NKF5, 19327707, 0, 0, 0, 0, 0.2, 0.13, 0, 0.19, 0.5, 3.997448E-05, 0.0006241135, 0.00102548
NKQ1, 19327707, 0.9999691, -0.00601893, 0.005039004, 0.000314017
AHR2, 19327752, -0.23, 0.12, 0.03, -0.11, 0, 0, 0.9999973, -0.002028003, 0.001112232, 0.0002881309
MOTB, 19327759, 1, 1, 0, 1
RCIN, 19327763, 0, 0, 0, 0, 0, 0, 0, 0, 0, 0, 0, 0, 0, 0
RCOU, 19327769, 1101, 1101, 1101, 1101, 0, 0, 0, 0, 0, 0, 0, 0, 0, 0
VIBE, 19327777, 0.02125105, 0.02330152, 0.03372057, 0, 0, 0
CTRL, 19327784, 0.002324583, 0.0002197629, 0.001566615, 0.0001290717, 4.46564E-05
PRX, 19327815, 2, 0.92, 0, 1.18, 0, 3.6, 0, 1.27, 0, 0, 0, 0.92
IMU, 19327822, 0.0006080901, 0.0001888034, -0.0001581395, 0.09820305, 0.113291, -9.79845, 0, 0, 42.33456, 1, 1, 1000, 1000
IMU, 19367241, -0.0008542836, -0.0001204313, -0.0004652877, 0.09724496, 0.1128465, -9.792588, 0, 0, 42.33456, 1, 1, 1000, 1000
RFND, 19377299, 0.2, 25, 0, 0
IMU, 19407652, -0.001397433, -0.0003157233, 0.0009896597, 0.1039687, 0.117545, -9.796394, 0, 0, 42.33456, 1, 1, 1000, 1000
MAG, 19427201, -13, 335, 204, 0, 0, 0, 0, 0, 0, 1, 19427192
RFND, 19427233, 0.2, 25, 0, 0
BARO, 19427267, -0.1243317, 983.5437, 41.27, 0.06151384, 19427, 0, 35
CTUN, 19427280, 0, 0, 0, 0.2988867, 0.07119638, 0.07119638, -0.12, 0, 0.19, 0, 0, 0
ATT, 19427353, 0, -0.22, 0, 0.14, 0.03, 0.03, 0, 1
RATE, 19427359, 1.00851, -0.0517706, 0.002367073, -0.6688917, 0.02174472, -0.001770858, -0.002097124, 0.0710156, -7.685386E-05, -313.5821, -0.2278328, 0
NKF1, 19427366, -0.22, 0.14, 0.03, -0.00111729, 0.002531389, -0.007742768, 0, 0, 0, -0.07119638, 0, -0.01, 0
NKF2, 19427366, 1, 0, 0, 0, 0, 0, 0, 0, 0, 0, 0, 0, 0
NKF3, 19427366, 0, 0, 0, 0, 0, 0, 0, 0, 0, 0, 0
NKF4, 19427366, 0, 0, 0, 0, 0, 1.120433E-06, 0, 0, 0, 19, 229, 0, 0
NKF5, 19427366, 0, 0, 0, 0, 0.2, 0.13, 0, 0.19, 0.5, 3.875167E-05, 0.0005928999, 0.0009321008
NKQ1, 19427366, 0.9999689, -0.006054329, 0.005043696, 0.000332273
AHR2, 19427410, -0.23, 0.12, 0.03, -0.12, 0, 0, 0.9999973, -0.002054743, 0.001105643, 0.0003064453
MOTB, 19427417, 1, 1, 0, 1
RCIN, 19427493, 0, 0, 0, 0, 0, 0, 0, 0, 0, 0, 0, 0, 0, 0
RCOU, 19427499, 1101, 1101, 1101, 1101, 0, 0, 0, 0, 0, 0, 0, 0, 0, 0
VIBE, 19427508, 0.01991603, 0.02052376, 0.02938456, 0, 0, 0
CTRL, 19427515, 0.002359606, 0.0001980989, 0.001568433, 0.0001199907, 4.484316E-05
PRX, 19427546, 2, 0.92, 0, 1.17, 0, 3.6, 0, 1.27, 0, 0, 0, 0.92
IMU, 19447313, -0.0001664928, 0.0002069638, -0.0001650724, 0.09986176, 0.120877, -9.796978, 0, 0, 42.33456, 1, 1, 1000, 1000
RFND, 19477322, 0.2, 25, 0, 0
IMU, 19487282, -0.0007236203, 0.000180802, -0.0003204406, 0.09105895, 0.1191989, -9.779674, 0, 0, 42.33456, 1, 1, 1000, 1000
MAG, 19527277, -15, 334, 198, 0, 0, 0, 0, 0, 0, 1, 19527268
RFND, 19527310, 0.2, 25, 0, 0
BARO, 19527346, -0.2543148, 983.5576, 41.28, 0.08118653, 19527, 0, 35
CTUN, 19527359, 0, 0, 0, 0.2988867, 0.07170441, 0.07170441, -0.25, 0, 0.19, 0, 0, 0
ATT, 19527520, 0, -0.22, 0, 0.14, 0.03, 0.03, 0, 1
RATE, 19527527, 1.02249, -0.00892802, 0.002252069, -0.6714056, -0.03411229, -0.001354022, -0.0009273373, 0.001245292, 7.193467E-06, -320.8998, 0.9357452, 0
NKF1, 19527534, -0.22, 0.14, 0.03, -0.0009999392, 0.002535301, -0.007923453, 0, 0, 0, -0.07170441, 0, -0.01, 0
NKF2, 19527534, 1, 0, 0, 0, 0, 0, 0, 0, 0, 0, 0, 0, 0
NKF3, 19527534, 0, 0, 0, 0, 0, 0, 0, 0, 0, 0, 0
NKF4, 19527534, 0, 0, 0, 0, 0, 7.741531E-07, 0, 0, 0, 19, 229, 0, 0
NKF5, 19527534, 0, 0, 0, 0, 0.2, 0.13, 0, 0.19, 0.5, 3.775032E-05, 0.0006109353, 0.001044532
NKQ1, 19527534, 0.9999687, -0.006082326, 0.005050014, 0.0003201442
AHR2, 19527580, -0.23, 0.12, 0.03, -0.25, 0, 0, 0.9999972, -0.00207522, 0.00110103, 0.00029435
MOTB, 19527587, 1, 1, 0, 1
RCIN, 19527592, 0, 0, 0, 0, 0, 0, 0, 0, 0, 0, 0, 0, 0, 0
RCOU, 19527597, 1101, 1101, 1101, 1101, 0, 0, 0, 0, 0, 0, 0, 0, 0, 0
VIBE, 19527606, 0.02077497, 0.02359951, 0.03659709, 0, 0, 0
CTRL, 19527612, 0.002393987, 0.0001800016, 0.00158201, 0.0001138351, 4.465501E-05
PRX, 19527644, 2, 0.92, 0, 1.18, 0, 3.6, 0, 1.27, 0, 0, 0, 0.92
IMU, 19527652, -0.0001136703, -0.0009271129, 1.76762E-05, 0.1048118, 0.1277938, -9.803561, 0, 0, 42.33456, 1, 1, 1000, 1000
IMU, 19567272, -0.001921647, -0.001197605, 0.0002910267, 0.08933614, 0.1186693, -9.806643, 0, 0, 42.33456, 1, 1, 1000, 1000
RFND, 19577244, 0.2, 25, 0, 0
IMU, 19607337, -0.0003635304, -0.0007347112, 0.001597638, 0.1070565, 0.1172479, -9.795134, 0, 0, 42.33456, 1, 1, 1000, 1000
MAG, 19627289, -13, 335, 207, 0, 0, 0, 0, 0, 0, 1, 19627220
RFND, 19627324, 0.2, 25, 0, 0
BARO, 19627358, -0.2769205, 983.5602, 41.28, -0.07235029, 19627, 0, 35
CTUN, 19627370, 0, 0, 0, 0.2988867, 0.0722806, 0.0722806, -0.27, 0, 0.19, 0, 0, 0
ATT, 19627508, 0, -0.23, 0, 0.14, 0.03, 0.03, 0, 1
RATE, 19627514, 1.03949, 0.01801086, 0.002176424, -0.6569548, -0.03583623, -0.00138759, 8.63705E-05, 0.006195249, -8.013134E-05, -366.5304, 1.60923, 0
NKF1, 19627523, -0.23, 0.14, 0.03, -0.00103307, 0.002541689, -0.009050133, 0, 0, 0, -0.0722806, 0, -0.01, 0
NKF2, 19627523, 1, 0, 0, 0, 0, 0, 0, 0, 0, 0, 0, 0, 0
NKF3, 19627523, 0, 0, 0, 0, 0, 0, 0, 0, 0, 0, 0
NKF4, 19627523, 0, 0, 0, 0, 0, 5.434998E-07, 0, 0, 0, 19, 229, 0, 0
NKF5, 19627523, 0, 0, 0, 0, 0.2, 0.13, 0, 0.19, 0.5, 3.711358E-05, 0.0005661749, 0.0009114001
NKQ1, 19627523, 0.9999687, -0.006117256, 0.00502297, 0.0003377812
AHR2, 19627569, -0.24, 0.12, 0.03, -0.27, 0, 0, 0.9999972, -0.002102702, 0.001063457, 0.0003121906
MOTB, 19627576, 1, 1, 0, 1
RCIN, 19627580, 0, 0, 0, 0, 0, 0, 0, 0, 0, 0, 0, 0, 0, 0
RCOU, 19627585, 1101, 1101, 1101, 1101, 0, 0, 0, 0, 0, 0, 0, 0, 0, 0
VIBE, 19627594, 0.02220544, 0.02087517, 0.0399083, 0, 0, 0
CTRL, 19627600, 0.00244343, 0.0001891297, 0.001554829, 0.0001335812, 4.4338E-05
PRX, 19627631, 2, 0.92, 0, 1.19, 0, 3.6, 0, 1.28, 0, 0, 0, 0.92
IMU, 19647538, -0.0002422965, -0.001410828, 0.0006456518, 0.1052027, 0.113732, -9.802439, 0, 0, 42.33456, 1, 1, 1000, 1000
RFND, 19677336, 0.2, 25, 0, 0
IMU, 19687258, -0.00139708, -1.199229E-05, -0.000208381, 0.09764063, 0.1191667, -9.792913, 0, 0, 42.33456, 1, 1, 1000, 1000
MAG, 19727297, -17, 334, 201, 0, 0, 0, 0, 0, 0, 1, 19727287
RFND, 19727329, 0.2, 25, 0, 0
BARO, 19727365, -0.231709, 983.5551, 41.28, -0.3602792, 19727, 0, 35
CTUN, 19727378, 0, 0, 0, 0.2988867, 0.07282627, 0.07282627, -0.23, 0, 0.19, 0, 0, 0
DU32, 19727417, 7, 50390488
ATT, 19727581, 0, -0.23, 0, 0.14, 0.03, 0.03, 0, 1
RATE, 19727587, 1.053573, 0.009240451, 0.002526649, -0.6526278, -0.01266782, -0.001500016, -0.002686101, 0.008967487, -4.668688E-05, -351.9949, -0.415802, 0
NKF1, 19727595, -0.23, 0.14, 0.03, -0.0007967643, 0.002331743, -0.008691233, 0, 0, 0, -0.07282627, 0, -0.01, 0
NKF2, 19727595, 1, 0, 0, 0, 0, 0, 0, 0, 0, 0, 0, 0, 0
NKF3, 19727595, 0, 0, 0, 0, 0, 0, 0, 0, 0, 0, 0
NKF4, 19727595, 0, 0, 0, 0, 0, 3.970734E-07, 0, 0, 0, 19, 229, 0, 0
NKF5, 19727595, 0, 0, 0, 0, 0.2, 0.13, 0, 0.19, 0.5, 3.663964E-05, 0.0005890767, 0.001055789
NKQ1, 19727595, 0.9999685, -0.006142592, 0.005013188, 0.0003475455
AHR2, 19727641, -0.24, 0.11, 0.03, -0.23, 0, 0, 0.9999971, -0.002121092, 0.001044296, 0.000322058
MOTB, 19727648, 1, 1, 0, 1
RCIN, 19727652, 0, 0, 0, 0, 0, 0, 0, 0, 0, 0, 0, 0, 0, 0
RCOU, 19727658, 1101, 1101, 1101, 1101, 0, 0, 0, 0, 0, 0, 0, 0, 0, 0
VIBE, 19727666, 0.02316932, 0.02140534, 0.03497563, 0, 0, 0
CTRL, 19727672, 0.002466229, 0.0001855713, 0.001541038, 0.0001296562, 4.525689E-05
PRX, 19727703, 2, 0.92, 0, 1.18, 0, 3.6, 0, 1.28, 0, 0, 0, 0.92
IMU, 19727710, 0.0002034688, -0.0005530413, 0.0001524514, 0.09201902, 0.1214693, -9.79027, 0, 0, 42.33456, 1, 1, 1000, 1000
IMU, 19767251, -0.0004499518, 0.0005698664, 0.001896784, 0.09789912, 0.107529, -9.797668, 0, 0, 42.33456, 1, 1, 1000, 1000
RFND, 19777313, 0.2, 25, 0, 0
IMU, 19807358, 0.0004721156, -0.0001250359, -0.000227285, 0.0936771, 0.1143891, -9.80068, 0, 0, 42.33456, 1, 1, 1000, 1000
MAG, 19827250, -15, 333, 205, 0, 0, 0, 0, 0, 0, 1, 19827241
RFND, 19827283, 0.2, 25, 0, 0
BARO, 19827318, -0.2825719, 983.5609, 41.29, -0.4167936, 19827, 0, 35
CTUN, 19827331, 0, 0, 0, 0.2988867, 0.07340728, 0.07340728, -0.28, 0, 0.19, 0, 0, 0
ATT, 19827400, 0, -0.23, 0, 0.14, 0.04, 0.03, 0, 1
RATE, 19827405, 1.067937, -0.09125155, 0.003188391, -0.6596627, 0.002846706, -0.001520759, -0.001762019, -0.00368032, -7.841038E-05, -384.0235, 1.108456, 0
NKF1, 19827413, -0.23, 0.14, 0.03, -0.0005935699, 0.001532561, -0.009482061, 0, 0, 0, -0.07340728, 0, -0.01, 0
NKF2, 19827413, 1, 0, 0, 0, 0, 0, 0, 0, 0, 0, 0, 0, 0
NKF3, 19827413, 0, 0, 0, 0, 0, 0, 0, 0, 0, 0, 0
NKF4, 19827413, 0, 0, 0, 0, 0, 3.040335E-07, 0, 0, 0, 19, 229, 0, 0
NKF5, 19827413, 0, 0, 0, 0, 0.2, 0.13, 0, 0.19, 0.5, 3.635377E-05, 0.000531487, 0.0008767259
NKQ1, 19827413, 0.9999683, -0.006171267, 0.005027206, 0.0003750052
AHR2, 19827530, -0.24, 0.12, 0.03, -0.28, 0, 0, 0.9999971, -0.002142175, 0.001048996, 0.000349535
MOTB, 19827537, 1, 1, 0, 1
RCIN, 19827541, 0, 0, 0, 0, 0, 0, 0, 0, 0, 0, 0, 0, 0, 0
RCOU, 19827547, 1101, 1101, 1101, 1101, 0, 0, 0, 0, 0, 0, 0, 0, 0, 0
VIBE, 19827555, 0.02111845, 0.02272037, 0.03195045, 0, 0, 0
CTRL, 19827561, 0.002489675, 0.0001843541, 0.001558727, 0.0001224078, 6.606228E-05
PRX, 19827592, 2, 0.92, 0, 1.19, 0, 3.6, 0, 1.28, 0, 0, 0, 0.92
IMU, 19847272, -0.001462365, -0.001337131, 0.0009474164, 0.1048614, 0.1231371, -9.823421, 0, 0, 42.33456, 1, 1, 1000, 1000
RFND, 19877222, 0.2, 25, 0, 0
IMU, 19887249, -0.001246506, 0.0003958508, -0.0002879096, 0.08607122, 0.1145227, -9.789782, 0, 0, 42.33456, 1, 1, 1000, 1000
MAG, 19927270, -14, 336, 198, 0, 0, 0, 0, 0, 0, 1, 19927261
RFND, 19927302, 0.2, 25, 0, 0
BARO, 19927336, -0.2543148, 983.5577, 41.29, -0.2066308, 19927, 0, 35
CTUN, 19927348, 0, 0, 0, 0.2988867, 0.07394993, 0.07394993, -0.25, 0, 0.19, 0, 0, 1
ATT, 19927495, 0, -0.24, 0, 0.14, 0.04, 0.04, 0, 1
RATE, 19927503, 1.08116, 0.06784962, 0.002162029, -0.6561621, 0.03787731, -0.001793477, -0.002786976, 0.07149584, -6.35642E-05, -408.7159, 0.1870155, 0
NKF1, 19927511, -0.24, 0.14, 0.04, -0.0006183659, 0.0008332687, -0.01009175, 0, 0, 0, -0.07394993, 0, -0.01, 0
NKF2, 19927511, 1, 0, 0, 0, 0, 0, 0, 0, 0, 0, 0, 0, 0
NKF3, 19927511, 0, 0, 0, 0, 0, 0, 0, 0, 0, 0, 0
NKF4, 19927511, 0, 0, 0, 0, 0, 2.519047E-07, 0, 0, 0, 19, 229, 0, 0
NKF5, 19927511, 0, 0, 0, 0, 0.2, 0.13, 0, 0.19, 0.5, 3.63752E-05, 0.0005629483, 0.001052508
NKQ1, 19927511, 0.9999682, -0.006199973, 0.005021238, 0.0003932765
AHR2, 19927559, -0.24, 0.11, 0.04, -0.25, 0, 0, 0.9999971, -0.002159833, 0.001033572, 0.0003679107
MOTB, 19927566, 1, 1, 0, 1
RCIN, 19927570, 0, 0, 0, 0, 0, 0, 0, 0, 0, 0, 0, 0, 0, 0
RCOU, 19927575, 1101, 1101, 1101, 1101, 0, 0, 0, 0, 0, 0, 0, 0, 0, 0
VIBE, 19927584, 0.0225229, 0.02229061, 0.03294291, 0, 0, 0
CTRL, 19927590, 0.002546575, 0.0001832464, 0.001546138, 0.0001325612, 6.364314E-05
PRX, 19927622, 2, 0.91, 0, 1.19, 0, 3.6, 0, 1.27, 0, 0, 0, 0.91
IMU, 19927630, 0.00122643, 0.0003289782, 0.001243775, 0.09231621, 0.1125435, -9.796434, 0, 0, 42.33456, 1, 1, 1000, 1000
IMU, 19967246, -0.0002874836, -0.0002912586, 0.000366868, 0.08993714, 0.1191918, -9.776385, 0, 0, 42.33456, 1, 1, 1000, 1000
RFND, 19977370, 0.2, 25, 0, 0
IMU, 20007281, -0.0008913422, -0.000560434, 1.847E-05, 0.1097227, 0.1118801, -9.794197, 0, 0, 42.33456, 1, 1, 1000, 1000
MAG, 20027324, -13, 334, 200, 0, 0, 0, 0, 0, 0, 1, 20027315
RFND, 20027356, 0.2, 25, 0, 0
BARO, 20027391, -0.1978004, 983.5514, 41.29, -0.03178931, 20027, 0, 35
CTUN, 20027403, 0, 0, 0, 0.2988867, 0.07456907, 0.07456907, -0.19, 0, 0.19, 0, 0, 0
ATT, 20027855, 0, -0.24, 0, 0.14, 0.04, 0.04, 0, 1
RATE, 20027863, 1.085366, -0.01389279, 0.002422359, -0.6613014, 0.01734961, -0.001566574, -0.001097881, 0.03903334, -7.062071E-05, -391.0797, -0.2455711, 0
NKF1, 20027871, -0.24, 0.14, 0.04, -0.0006687752, 4.625468E-05, -0.009656288, 0, 0, 0, -0.07456907, 0, -0.01, 0
NKF2, 20027871, 1, 0, 0, 0, 0, 0, 0, 0, 0, 0, 0, 0, 0
NKF3, 20027871, 0, 0, 0, 0, 0, 0, 0, 0, 0, 0, 0
NKF4, 20027871, 0, 0, 0, 0, 0, 2.189772E-07, 0, 0, 0, 19, 229, 0, 0
NKF5, 20027871, 0, 0, 0, 0, 0.2, 0.13, 0, 0.19, 0.5, 3.634096E-05, 0.0004940385, 0.0008346617
NKQ1, 20027871, 0.9999681, -0.006206082, 0.005030182, 0.0004086797
AHR2, 20027997, -0.24, 0.11, 0.04, -0.19, 0, 0, 0.9999971, -0.002154576, 0.001032762, 0.0003832758
MOTB, 20028004, 1, 1, 0, 1
RCIN, 20028009, 0, 0, 0, 0, 0, 0, 0, 0, 0, 0, 0, 0, 0, 0
RCOU, 20028015, 1101, 1101, 1101, 1101, 0, 0, 0, 0, 0, 0, 0, 0, 0, 0
VIBE, 20028024, 0.02121412, 0.01880826, 0.03488072, 0, 0, 0
CTRL, 20028031, 0.002550341, 0.0001742001, 0.001562407, 0.0001525973, 6.711781E-05
PRX, 20028063, 2, 0.92, 0, 1.18, 0, 3.6, 0, 1.27, 0, 0, 0, 0.92
IMU, 20047303, 0.001014116, -0.0009067854, 0.0005715194, 0.09501892, 0.1205747, -9.793317, 0, 0, 42.33456, 1, 1, 1000, 1000
RFND, 20077326, 0.2, 25, 0, 0
IMU, 20087287, -0.0005792883, -0.0008244552, 0.0006426407, 0.09924849, 0.1199775, -9.798462, 0, 0, 42.33456, 1, 1, 1000, 1000
MAG, 20127285, -13, 337, 209, 0, 0, 0, 0, 0, 0, 1, 20127276
RFND, 20127684, 0.2, 25, 0, 0
BARO, 20127723, -0.1864975, 983.5502, 41.29, 0.08477162, 20127, 0, 35
CTUN, 20127737, 0, 0, 0, 0.2988867, 0.07494824, 0.07494824, -0.18, 0, 0.19, 0, 0, 0
ATT, 20127816, 0, -0.23, 0, 0.14, 0.04, 0.04, 0, 1
RATE, 20127822, 1.074244, 0.05084231, 0.002196988, -0.6614552, 0.02447703, -0.001633714, -0.001198609, -0.058311, -9.152769E-05, -369.5972, -0.5251884, 0
NKF1, 20127829, -0.23, 0.14, 0.04, -0.0009278151, -0.0006364615, -0.009125858, 0, 0, 0, -0.07494824, 0, -0.01, 0
NKF2, 20127829, 1, 0, 0, 0, 0, 0, 0, 0, 0, 0, 0, 0, 0
NKF3, 20127829, 0, 0, 0, 0, 0, 0, 0, 0, 0, 0, 0
NKF4, 20127829, 0, 0, 0, 0, 0, 2.10648E-07, 0, 0, 0, 19, 229, 0, 0
NKF5, 20127829, 0, 0, 0, 0, 0.2, 0.13, 0, 0.19, 0.5, 3.65638E-05, 0.0005338598, 0.001043068
NKQ1, 20127829, 0.9999682, -0.006185644, 0.005032204, 0.0004176102
AHR2, 20127963, -0.24, 0.11, 0.04, -0.18, 0, 0, 0.9999971, -0.002120942, 0.001023502, 0.0003921014
MOTB, 20127970, 1, 1, 0, 1
RCIN, 20127975, 0, 0, 0, 0, 0, 0, 0, 0, 0, 0, 0, 0, 0, 0
RCOU, 20127981, 1101, 1101, 1101, 1101, 0, 0, 0, 0, 0, 0, 0, 0, 0, 0
VIBE, 20127990, 0.02163372, 0.02178664, 0.03265613, 0, 0, 0
CTRL, 20127997, 0.002533757, 0.0001748745, 0.001557885, 0.0001532762, 6.956053E-05
PRX, 20128029, 2, 0.91, 0, 1.18, 0, 3.6, 0, 1.28, 0, 0, 0, 0.91
IMU, 20128036, 0.0009296341, 9.49734E-05, -0.001021784, 0.1028415, 0.1162012, -9.789191, 0, 0, 42.33456, 1, 1, 1000, 1000
IMU, 20167257, 0.001276198, 0.0002996938, 0.0001524021, 0.08699596, 0.1126367, -9.795477, 0, 0, 42.33456, 1, 1, 1000, 1000
RFND, 20177206, 0.2, 25, 0, 0
IMU, 20207226, -0.0003953055, 4.245699E-05, 0.001368991, 0.1017522, 0.1162515, -9.778315, 0, 0, 42.33456, 1, 1, 1000, 1000
MAG, 20227198, -15, 334, 202, 0, 0, 0, 0, 0, 0, 1, 20227189
RFND, 20227229, 0.2, 25, 0, 0
BARO, 20227263, -0.1864975, 983.5502, 41.29, 0.2172272, 20227, 0, 35
CTUN, 20227276, 0, 0, 0, 0.2988867, 0.07533277, 0.07533277, -0.18, 0, 0.19, 0, 0, 0
ATT, 20227343, 0, -0.23, 0, 0.14, 0.04, 0.04, 0, 1
RATE, 20227348, 1.067042, 0.05343376, 0.002318251, -0.6730247, 0.02508887, -0.00166161, -0.001547947, -0.00504373, -0.0001035888, -347.1258, 1.899338, 0
NKF1, 20227355, -0.23, 0.14, 0.04, -0.001435073, -0.001076532, -0.008571008, 0, 0, 0, -0.07533277, 0, -0.01, 0
NKF2, 20227355, 1, 0, 0, 0, 0, 0, 0, 0, 0, 0, 0, 0, 0
NKF3, 20227355, 0, 0, 0, 0, 0, 0, 0, 0, 0, 0, 0
NKF4, 20227355, 0, 0, 0, 0, 0, 2.078448E-07, 0, 0, 0, 19, 229, 0, 0
NKF5, 20227355, 0, 0, 0, 0, 0.2, 0.13, 0, 0.19, 0.5, 3.67434E-05, 0.0006772944, 0.001499545
NKQ1, 20227355, 0.9999681, -0.006171004, 0.005053474, 0.0004400176
AHR2, 20227399, -0.23, 0.11, 0.04, -0.18, 0, 0, 0.9999972, -0.002093278, 0.001033147, 0.0004143422
MOTB, 20227406, 1, 1, 0, 1
RCIN, 20227410, 0, 0, 0, 0, 0, 0, 0, 0, 0, 0, 0, 0, 0, 0
RCOU, 20227416, 1101, 1101, 1101, 1101, 0, 0, 0, 0, 0, 0, 0, 0, 0, 0
VIBE, 20227498, 0.02148721, 0.02047155, 0.04117568, 0, 0, 0
CTRL, 20227505, 0.002510058, 0.0002134933, 0.001582082, 0.0001352901, 6.960877E-05
PRX, 20227537, 2, 0.92, 0, 1.18, 0, 3.6, 0, 1.28, 0, 0, 0, 0.92
IMU, 20247394, 0.0002532955, -0.0006769859, 0.0005706793, 0.09624454, 0.1051359, -9.783608, 0, 0, 42.33456, 1, 1, 1000, 1000
RFND, 20277220, 0.2, 25, 0, 0
IMU, 20287231, 8.72858E-05, -0.0007719251, -0.0009805129, 0.09218161, 0.1182637, -9.792501, 0, 0, 42.33456, 1, 1, 1000, 1000
MAG, 20327580, -9, 335, 203, 0, 0, 0, 0, 0, 0, 1, 20327570
RFND, 20327614, 0.2, 25, 0, 0
BARO, 20327652, -0.2543148, 983.5574, 41.3, 0.2189932, 20327, 0, 35
CTUN, 20327664, 0, 0, 0, 0.2988867, 0.07554585, 0.07554585, -0.25, 0, 0.19, 0, 0, 0
ATT, 20327746, 0, -0.23, 0, 0.14, 0.04, 0.04, 0, 1
RATE, 20327751, 1.069615, -0.02754276, 0.002841547, -0.6689248, 0.02183593, -0.001728186, -0.0008491408, 0.01988575, -1.438576E-05, -323.0352, -1.06144, 0
NKF1, 20327759, -0.23, 0.14, 0.04, -0.001778933, -0.001418856, -0.007976178, 0, 0, 0, -0.07554585, 0, -0.01, 0
NKF2, 20327759, 1, 0, 0, 0, 0, 0, 0, 0, 0, 0, 0, 0, 0
NKF3, 20327759, 0, 0, 0, 0, 0, 0, 0, 0, 0, 0, 0
NKF4, 20327759, 0, 0, 0, 0, 0, 2.175705E-07, 0, 0, 0, 19, 229, 0, 0
NKF5, 20327759, 0, 0, 0, 0, 0.2, 0.13, 0, 0.19, 0.5, 3.690086E-05, 0.0005033538, 0.00102499
NKQ1, 20327759, 0.9999682, -0.006172838, 0.005043242, 0.0004417999
AHR2, 20327804, -0.23, 0.11, 0.04, -0.25, 0, 0, 0.9999973, -0.002083657, 0.00100838, 0.0004161352
MOTB, 20327811, 1, 1, 0, 1
RCIN, 20327816, 0, 0, 0, 0, 0, 0, 0, 0, 0, 0, 0, 0, 0, 0
RCOU, 20327821, 1101, 1101, 1101, 1101, 0, 0, 0, 0, 0, 0, 0, 0, 0, 0
VIBE, 20327830, 0.01982016, 0.02195374, 0.03970223, 0, 0, 0
CTRL, 20327837, 0.002502451, 0.0001862964, 0.001569633, 0.0001381172, 6.73362E-05
PRX, 20327950, 2, 0.92, 0, 1.18, 0, 3.6, 0, 1.27, 0, 0, 0, 0.92
IMU, 20327959, -0.0004384924, 4.946576E-05, 0.0003430142, 0.09425841, 0.1309735, -9.783791, 0, 0, 42.33452, 1, 1, 1000, 1000
IMU, 20367587, 0.001366211, 0.0007109753, 0.0004458237, 0.1047711, 0.1211238, -9.807548, 0, 0, 42.33452, 1, 1, 1000, 1000
RFND, 20377706, 0.2, 25, 0, 0
IMU, 20407390, 0.0002217518, -0.0004790439, -0.0004273586, 0.1061274, 0.127301, -9.791076, 0, 0, 42.33456, 1, 1, 1000, 1000
MAG, 20427328, -14, 339, 202, 0, 0, 0, 0, 0, 0, 1, 20427319
EV, 20427348, 11
EV, 42812397, 10
MODE, 42812409, 100, 100, 1
EV, 42827706, 15
MAG, 42827753, -17, 331, 201, 0, 0, 0, 0, 0, 0, 1, 42827744
RFND, 42827778, 0.2, 25, 0, 0
BARO, 42827816, -0.1808461, 983.5496, 41.61, 0.344774, 42827, 0, 35
CTUN, 42827829, 0, 0, 0, 0.2988867, 0.05481444, 0.05481444, -0.18, 0, 0.19, 0, 0, 0
ATT, 42827987, 0, -0.24, 0, 0.19, 0.07, 0.07, 0, 1
RATE, 42827994, 1.083671, 0.008550414, 0.002283883, -0.8846508, 0.02535672, -0.002066002, -0.002424346, 0.04506093, -3.448574E-06, 253.1158, -0.1384735, 0
NKF1, 42828001, -0.24, 0.19, 0.07, -0.01007319, 0.0004830386, 0.006249774, 0, 0, 0, -0.05481444, 0, -0.01, 0
NKF2, 42828001, 1, 0, 0, 0, 0, 0, 0, 0, 0, 0, 0, 0, 0
NKF3, 42828001, 0, 0, 0, 0, 0, 0.01, 0, 0, 0, 0, 0
NKF4, 42828001, 0, 0, 0, 0, 0, 2.187056E-05, 0, 0, 0, 19, 229, 0, 0
NKF5, 42828001, 0, 0, 0, 0, 0.19, 0.13, 0, 0.19, 0.5, 9.759077E-05, 0.0006233882, 0.001238918
NKQ1, 42828001, 0.9999657, -0.006201655, 0.005459838, 0.0006744149
NKT1, 42828001, 2380, 0.0025, 0.0025, 0.009940071, 0.01006885, 0.006996993, 0.01299761, 0.006997002, 0.01299762
AHR2, 42828059, -0.23, 0.14, 0.08, -0.18, 0, 0, 0.999997, -0.002014659, 0.001244062, 0.0007242586
MOTB, 42828065, 1, 1, 0, 1
RCIN, 42828070, 0, 0, 0, 0, 0, 0, 0, 0, 0, 0, 0, 0, 0, 0
RCOU, 42828075, 1101, 1101, 1101, 1101, 0, 0, 0, 0, 0, 0, 0, 0, 0, 0
VIBE, 42828084, 0.02250069, 0.02187712, 0.04042717, 0, 0, 0
CTRL, 42828090, 0.002529731, 0.0001490138, 0.002095724, 0.0001455369, 3.834748E-05
PRX, 42828117, 2, 0.91, 0, 1.19, 0, 3.6, 0, 1.28, 0, 0, 0, 0.91
IMU, 42847254, -0.0002929188, 0.0001240694, 0.0002758173, 0.1024405, 0.1228456, -9.810274, 0, 0, 42.58838, 1, 1, 1000, 1000
RFND, 42877298, 0.2, 25, 0, 0
IMU, 42887255, 0.0002219488, 0.0001765064, 0.0001239725, 0.1082056, 0.1178058, -9.783772, 0, 0, 42.58978, 1, 1, 1000, 1000
MAG, 42927373, -13, 333, 207, 0, 0, 0, 0, 0, 0, 1, 42927363
RFND, 42927401, 0.2, 25, 0, 0
BARO, 42927550, -0.1864975, 983.55, 41.61, 0.7082667, 42927, 0, 35
CTUN, 42927565, 0, 0, 0, 0.2988867, 0.05515603, 0.05515603, -0.18, 0, 0.19, 0, 0, 0
ATT, 42927644, 0, -0.24, 0, 0.19, 0.07, 0.07, 0, 1
RATE, 42927649, 1.087657, 0.03088051, 0.002304252, -0.8842455, -0.02208873, -0.001852485, -0.002176719, -0.03808552, -9.441675E-06, 218.1516, 0.4389763, 0
NKF1, 42927657, -0.24, 0.19, 0.07, -0.009713908, 0.0001392961, 0.005386459, 0, 0, 0, -0.05515603, 0, -0.01, 0
NKF2, 42927657, 1, 0, 0, 0, 0, 0, 0, 0, 0, 0, 0, 0, 0
NKF3, 42927657, 0, 0, 0, 0, 0, 0.01, 0, 0, 0, 0, 0
NKF4, 42927657, 0, 0, 0, 0, 0, 2.168255E-05, 0, 0, 0, 19, 229, 0, 0
NKF5, 42927657, 0, 0, 0, 0, 0.19, 0.13, 0, 0.19, 0.5, 8.548094E-05, 0.0003091292, 0.0007151417
NKQ1, 42927657, 0.9999657, -0.006210997, 0.00546149, 0.0006737066
AHR2, 42927704, -0.23, 0.14, 0.08, -0.18, 0, 0, 0.999997, -0.002015886, 0.001248777, 0.0007247658
MOTB, 42927711, 1, 1, 0, 1
RCIN, 42927716, 0, 0, 0, 0, 0, 0, 0, 0, 0, 0, 0, 0, 0, 0
RCOU, 42927721, 1101, 1101, 1101, 1101, 0, 0, 0, 0, 0, 0, 0, 0, 0, 0
VIBE, 42927730, 0.02076561, 0.02056353, 0.03890207, 0, 0, 0
CTRL, 42927737, 0.002545413, 0.0001371556, 0.002101108, 0.000135535, 3.811675E-05
PRX, 42927769, 2, 0.92, 0, 1.18, 0, 3.6, 0, 1.29, 0, 0, 0, 0.92
IMU, 42927775, 0.0005385285, -0.0006346148, -0.0006620699, 0.1009598, 0.1199389, -9.797838, 0, 0, 42.59179, 1, 1, 1000, 1000
IMU, 42967506, -0.0003069872, -0.0002898262, -0.0004845294, 0.1023386, 0.1031118, -9.80659, 0, 0, 42.59385, 1, 1, 1000, 1000
RFND, 42977537, 0.2, 25, 0, 0
IMU, 43007582, -0.0005090346, -0.001304689, -0.0001524331, 0.08788586, 0.1174128, -9.80818, 0, 0, 42.59602, 1, 1, 1000, 1000
MAG, 43027352, -16, 337, 203, 0, 0, 0, 0, 0, 0, 1, 43027343
RFND, 43027381, 0.2, 25, 0, 0
BARO, 43027418, -0.1978004, 983.5517, 41.61, 0.6375529, 43027, 0, 35
CTUN, 43027537, 0, 0, 0, 0.2988867, 0.05560519, 0.05560519, -0.19, 0, 0.19, 0, 0, 0
ATT, 43027616, 0, -0.24, 0, 0.19, 0.07, 0.07, 0, 1
RATE, 43027622, 1.08852, 0.05251938, 0.002284882, -0.8741446, 0.02717408, -0.002362894, -0.0007227127, 0.04215604, -5.715794E-06, 134.7446, 1.518345, 0
NKF1, 43027629, -0.24, 0.19, 0.07, -0.0102817, -0.0006830122, 0.003327026, 0, 0, 0, -0.05560519, 0, -0.01, 0
NKF2, 43027629, 1, 0, 0, 0, 0, 0, 0, 0, 0, 0, 0, 0, 0
NKF3, 43027629, 0, 0, 0, 0, 0, 0.01, 0, 0, 0, 0, 0
NKF4, 43027629, 0, 0, 0, 0, 0, 1.776232E-05, 0, 0, 0, 19, 229, 0, 0
NKF5, 43027629, 0, 0, 0, 0, 0.19, 0.13, 0, 0.19, 0.5, 7.335318E-05, 0.0004172139, 0.0007356907
NKQ1, 43027629, 0.9999657, -0.006213884, 0.005441728, 0.0006789367
AHR2, 43027674, -0.23, 0.14, 0.08, -0.19, 0, 0, 0.999997, -0.002012986, 0.001231262, 0.0007310989
MOTB, 43027681, 1, 1, 0, 1
RCIN, 43027685, 0, 0, 0, 0, 0, 0, 0, 0, 0, 0, 0, 0, 0, 0
RCOU, 43027691, 1101, 1101, 1101, 1101, 0, 0, 0, 0, 0, 0, 0, 0, 0, 0
VIBE, 43027699, 0.01908672, 0.02227415, 0.03590924, 0, 0, 0
CTRL, 43027706, 0.002545329, 0.0001508791, 0.002070944, 0.0001400327, 3.231843E-05
PRX, 43027738, 2, 0.92, 0, 1.18, 0, 3.6, 0, 1.28, 0, 0, 0, 0.92
IMU, 43047391, 0.0002759945, -0.0004377181, -0.0006110757, 0.1116423, 0.1170209, -9.793778, 0, 0, 42.59835, 1, 1, 1000, 1000
RFND, 43077346, 0.2, 25, 0, 0
IMU, 43087555, 0.0004850664, -7.866873E-05, -0.0001087501, 0.1044919, 0.1217863, -9.793928, 0, 0, 42.60053, 1, 1, 1000, 1000
MAG, 43127398, -10, 332, 202, 0, 0, 0, 0, 0, 0, 1, 43127388
RFND, 43127513, 0.2, 25, 0, 0
BARO, 43127552, -0.2938748, 983.5622, 41.62, 0.2578469, 43127, 0, 35
CTUN, 43127565, 0, 0, 0, 0.2988867, 0.0560348, 0.0560348, -0.29, 0, 0.19, 0, 0, 0
ATT, 43127644, 0, -0.24, 0, 0.19, 0.07, 0.07, 0, 1
RATE, 43127649, 1.091772, -0.03372507, 0.002867163, -0.874629, 0.008247813, -0.002063147, -0.002576057, 0.05667781, -2.377381E-05, 152.5667, -1.475143, 0
NKF1, 43127657, -0.24, 0.19, 0.07, -0.01043825, -0.001078371, 0.003767079, 0, 0, 0, -0.0560348, 0, -0.01, 0
NKF2, 43127657, 1, 0, 0, 0, 0, 0, 0, 0, 0, 0, 0, 0, 0
NKF3, 43127657, 0, 0, 0, 0, 0, 0.01, 0, 0, 0, 0, 0
NKF4, 43127657, 0, 0, 0, 0, 0, 1.185717E-05, 0, 0, 0, 19, 229, 0, 0
NKF5, 43127657, 0, 0, 0, 0, 0.19, 0.13, 0, 0.19, 0.5, 6.09738E-05, 0.0006834709, 0.001308708
NKQ1, 43127657, 0.9999656, -0.006220785, 0.00544287, 0.0006850489
AHR2, 43127701, -0.23, 0.14, 0.08, -0.29, 0, 0, 0.9999969, -0.002016877, 0.001234355, 0.0007380668
MOTB, 43127708, 1, 1, 0, 1
RCIN, 43127712, 0, 0, 0, 0, 0, 0, 0, 0, 0, 0, 0, 0, 0, 0
RCOU, 43127718, 1101, 1101, 1101, 1101, 0, 0, 0, 0, 0, 0, 0, 0, 0, 0
VIBE, 43127727, 0.02247836, 0.01943484, 0.03506056, 0, 0, 0
CTRL, 43127734, 0.002545293, 0.0001502525, 0.002073537, 0.0001426838, 2.697945E-05
PRX, 43127766, 2, 0.91, 0, 1.18, 0, 3.6, 0, 1.29, 0, 0, 0, 0.91
IMU, 43127772, -0.0005890487, -0.0001041241, 0.0009918521, 0.09291545, 0.121765, -9.778792, 0, 0, 42.60429, 1, 1, 1000, 1000
IMU, 43167573, 0.000340519, -0.0004421002, -0.0001077385, 0.1157157, 0.1185879, -9.789822, 0, 0, 42.60925, 1, 1, 1000, 1000
RFND, 43177419, 0.2, 25, 0, 0
IMU, 43207601, -0.0007743385, -0.0001722808, -0.0005313454, 0.0896681, 0.1155454, -9.793653, 0, 0, 42.61474, 1, 1, 1000, 1000
MAG, 43227332, -14, 335, 205, 0, 0, 0, 0, 0, 0, 1, 43227322
RFND, 43227366, 0.2, 25, 0, 0
BARO, 43227402, -0.3447378, 983.5678, 41.62, -0.141286, 43227, 0, 35
CTUN, 43227414, 0, 0, 0, 0.2988867, 0.05660311, 0.05660311, -0.34, 0, 0.19, 0, 0, 0
ATT, 43227599, 0, -0.24, 0, 0.19, 0.07, 0.07, 0, 1
RATE, 43227606, 1.103776, -0.03734616, 0.002565273, -0.8686147, -0.02643974, -0.001839582, -0.001475831, -0.02394174, 3.25648E-05, 149.7708, -0.2946854, 0
NKF1, 43227614, -0.24, 0.19, 0.07, -0.01102576, -0.001211454, 0.003698044, 0, 0, 0, -0.05660311, 0, -0.01, 0
NKF2, 43227614, 1, 0, 0, 0, 0, 0, 0, 0, 0, 0, 0, 0, 0
NKF3, 43227614, 0, 0, 0, 0, 0, 0, 0, 0, 0, 0, 0
NKF4, 43227614, 0, 0, 0, 0, 0, 7.993991E-06, 0, 0, 0, 19, 229, 0, 0
NKF5, 43227614, 0, 0, 0, 0, 0.19, 0.13, 0, 0.19, 0.5, 5.068753E-05, 0.0007909929, 0.001448707
NKQ1, 43227614, 0.9999656, -0.006242646, 0.005431331, 0.000664813
AHR2, 43227660, -0.23, 0.14, 0.08, -0.34, 0, 0, 0.999997, -0.002036609, 0.001222493, 0.0007186004
MOTB, 43227667, 1, 1, 0, 1
RCIN, 43227671, 0, 0, 0, 0, 0, 0, 0, 0, 0, 0, 0, 0, 0, 0
RCOU, 43227677, 1101, 1101, 1101, 1101, 0, 0, 0, 0, 0, 0, 0, 0, 0, 0
VIBE, 43227685, 0.02239762, 0.01956415, 0.03193472, 0, 0, 0
CTRL, 43227692, 0.002581751, 0.0001505081, 0.002064506, 0.0001234381, 2.592712E-05
PRX, 43227723, 2, 0.91, 0, 1.18, 0, 3.6, 0, 1.28, 0, 0, 0, 0.91
IMU, 43247646, 0.0002253327, -0.0007641945, -0.001072506, 0.09519529, 0.1157912, -9.805215, 0, 0, 42.61895, 1, 1, 1000, 1000
RFND, 43277306, 0.2, 25, 0, 0
IMU, 43287380, 0.0004277551, 0.0001083356, 0.001199569, 0.1021581, 0.1145713, -9.78393, 0, 0, 42.62249, 1, 1, 1000, 1000
MAG, 43327812, -10, 334, 203, 0, 0, 0, 0, 0, 0, 1, 43327803
RFND, 43327920, 0.2, 25, 0, 0
BARO, 43327963, -0.2373604, 983.556, 41.62, -0.3850043, 43327, 0, 35
CTUN, 43327978, 0, 0, 0, 0.2988867, 0.05700009, 0.05700009, -0.23, 0, 0.19, 0, 0, 0
ATT, 43328058, 0, -0.24, 0, 0.19, 0.07, 0.07, 0, 1
RATE, 43328063, 1.114914, -0.06166857, 0.003140995, -0.8635114, -0.04235089, -0.001562571, -0.003852455, 0.02448953, -6.685511E-05, 130.6172, 0.1673698, 0
NKF1, 43328071, -0.24, 0.19, 0.07, -0.01139014, -0.001964047, 0.003225116, 0, 0, 0, -0.05700009, 0, -0.01, 0
NKF2, 43328071, 1, 0, 0, 0, 0, 0, 0, 0, 0, 0, 0, 0, 0
NKF3, 43328071, 0, 0, 0, -0.01, 0, 0, 0, 0, 0, 0, 0
NKF4, 43328071, 0, 0, 0, 0, 0, 5.379543E-06, 0, 0, 0, 19, 229, 0, 0
NKF5, 43328071, 0, 0, 0, 0, 0.19, 0.13, 0, 0.19, 0.5, 4.341641E-05, 0.0008850266, 0.001641276
NKQ1, 43328071, 0.9999655, -0.006262336, 0.005419054, 0.0006859626
AHR2, 43328118, -0.23, 0.13, 0.08, -0.23, 0, 0, 0.9999969, -0.002054703, 0.001207316, 0.0007403636
MOTB, 43328126, 1, 1, 0, 1
RCIN, 43328130, 0, 0, 0, 0, 0, 0, 0, 0, 0, 0, 0, 0, 0, 0
RCOU, 43328136, 1101, 1101, 1101, 1101, 0, 0, 0, 0, 0, 0, 0, 0, 0, 0
VIBE, 43328145, 0.01959697, 0.02095192, 0.03393428, 0, 0, 0
CTRL, 43328151, 0.002594981, 0.0001751332, 0.002054131, 0.0001357457, 3.837253E-05
PRX, 43328183, 2, 0.91, 0, 1.19, 0, 3.6, 0, 1.28, 0, 0, 0, 0.91
IMU, 43328190, -0.001076752, -0.0009872898, 0.0004300626, 0.1045505, 0.1131361, -9.795168, 0, 0, 42.62421, 1, 1, 1000, 1000
IMU, 43367536, 0.0007054401, -0.00122697, -0.0003254998, 0.1091029, 0.1241789, -9.80027, 0, 0, 42.6246, 1, 1, 1000, 1000
RFND, 43377253, 0.2, 25, 0, 0
IMU, 43407231, 0.0001198663, 0.0008929765, 0.00142023, 0.1017676, 0.1142226, -9.814311, 0, 0, 42.62291, 1, 1, 1000, 1000
MAG, 43427348, -12, 330, 206, 0, 0, 0, 0, 0, 0, 1, 43427339
RFND, 43427380, 0.2, 25, 0, 0
BARO, 43427416, -0.2599662, 983.5581, 41.62, -0.3178934, 43427, 0, 35
CTUN, 43427496, 0, 0, 0, 0.2988867, 0.05754309, 0.05754309, -0.25, 0, 0.19, 0, 0, 0
ATT, 43427574, 0, -0.24, 0, 0.19, 0.07, 0.07, 0, 1
RATE, 43427579, 1.109422, -0.01749466, 0.002621703, -0.8659865, 0.003022994, -0.001766146, -0.001481144, -0.03588864, -0.0001032187, 93.70848, -1.080036, 0
NKF1, 43427587, -0.24, 0.19, 0.07, -0.01139532, -0.002331128, 0.002313789, 0, 0, 0, -0.05754309, 0, -0.01, 0
NKF2, 43427587, 1, 0, 0, 0, 0, 0, 0, 0, 0, 0, 0, 0, 0
NKF3, 43427587, 0, 0, 0, -0.01, 0, 0, 0, 0, 0, 0, 0
NKF4, 43427587, 0, 0, 0, 0, 0, 3.626983E-06, 0, 0, 0, 19, 229, 0, 0
NKF5, 43427587, 0, 0, 0, 0, 0.19, 0.13, 0, 0.19, 0.5, 3.8878E-05, 0.0009714407, 0.001881564
NKQ1, 43427587, 0.9999655, -0.00625368, 0.005426043, 0.0007029696
AHR2, 43427651, -0.23, 0.13, 0.08, -0.25, 0, 0, 0.9999969, -0.002043891, 0.001211542, 0.0007577064
MOTB, 43427658, 1, 1, 0, 1
RCIN, 43427663, 0, 0, 0, 0, 0, 0, 0, 0, 0, 0, 0, 0, 0, 0
RCOU, 43427668, 1101, 1101, 1101, 1101, 0, 0, 0, 0, 0, 0, 0, 0, 0, 0
VIBE, 43427677, 0.02079611, 0.02181553, 0.03755567, 0, 0, 0
CTRL, 43427683, 0.002601289, 0.0001770051, 0.002053194, 0.0001609889, 6.029365E-05
PRX, 43427715, 2, 0.91, 0, 1.19, 0, 3.6, 0, 1.28, 0, 0, 0, 0.91
IMU, 43447516, -0.0004666697, -0.00089303, 7.172818E-05, 0.1016514, 0.1213438, -9.799988, 0, 0, 42.62073, 1, 1, 1000, 1000
RFND, 43477204, 0.2, 25, 0, 0
IMU, 43487544, -0.0001430187, -0.000813023, -0.0004900746, 0.08957468, 0.1126633, -9.798515, 0, 0, 42.61892, 1, 1, 1000, 1000
MAG, 43527253, -13, 336, 204, 0, 0, 0, 0, 0, 0, 1, 43527243
RFND, 43527280, 0.2, 25, 0, 0
BARO, 43527317, -0.231709, 983.5549, 41.62, -0.003532161, 43527, 0, 35
CTUN, 43527329, 0, 0, 0, 0.2988867, 0.05812243, 0.05812243, -0.23, 0, 0.19, 0, 0, 0
ATT, 43527399, 0, -0.24, 0, 0.18, 0.07, 0.07, 0, 1
RATE, 43527404, 1.11821, -0.05230493, 0.002703666, -0.8546023, -0.005031673, -0.002063158, 0.001631276, -0.07220572, 2.559113E-05, 47.277, 0.1418114, 0
NKF1, 43527412, -0.24, 0.18, 0.07, -0.01166543, -0.002958109, 0.001167333, 0, 0, 0, -0.05812243, 0, -0.01, 0
NKF2, 43527412, 1, 0, 0, 0, 0, 0, 0, 0, 0, 0, 0, 0, 0
NKF3, 43527412, 0, 0, 0, -0.01, 0, 0, 0, 0, 0, 0, 0
NKF4, 43527412, 0, 0, 0, 0, 0, 2.493897E-06, 0, 0, 0, 19, 229, 0, 0
NKF5, 43527412, 0, 0, 0, 0, 0.19, 0.13, 0, 0.19, 0.5, 3.634096E-05, 0.0009774861, 0.001880354
NKQ1, 43527412, 0.9999655, -0.006268566, 0.005402941, 0.0006860587
AHR2, 43527536, -0.23, 0.13, 0.08, -0.23, 0, 0, 0.9999969, -0.002055313, 0.00118638, 0.0007412595
MOTB, 43527543, 1, 1, 0, 1
RCIN, 43527548, 0, 0, 0, 0, 0, 0, 0, 0, 0, 0, 0, 0, 0, 0
RCOU, 43527553, 1101, 1101, 1101, 1101, 0, 0, 0, 0, 0, 0, 0, 0, 0, 0
VIBE, 43527562, 0.02110451, 0.02138192, 0.03650049, 0, 0, 0
CTRL, 43527568, 0.002618257, 0.0001816278, 0.002021398, 0.000145838, 5.639818E-05
PRX, 43527601, 2, 0.92, 0, 1.19, 0, 3.6, 0, 1.28, 0, 0, 0, 0.92
IMU, 43527608, -0.0009133243, -0.0003359854, -0.001257587, 0.1098121, 0.1218691, -9.794731, 0, 0, 42.61604, 1, 1, 1000, 1000
IMU, 43567234, -0.000609773, -0.0003931643, -0.0005063117, 0.1084125, 0.1060639, -9.790847, 0, 0, 42.61394, 1, 1, 1000, 1000
RFND, 43577257, 0.2, 25, 0, 0
IMU, 43607226, -0.0008212145, -0.0007614415, -0.0005861619, 0.1089915, 0.1212831, -9.774544, 0, 0, 42.61289, 1, 1, 1000, 1000
MAG, 43627223, -18, 331, 200, 0, 0, 0, 0, 0, 0, 1, 43627214
RFND, 43627251, 0.2, 25, 0, 0
BARO, 43627288, -0.2995263, 983.5624, 41.63, 0.1783736, 43627, 0, 35
CTUN, 43627300, 0, 0, 0, 0.2988867, 0.05866407, 0.05866407, -0.29, 0, 0.19, 0, 0, 0
ATT, 43627370, 0, -0.25, 0, 0.18, 0.07, 0.07, 0, 1
RATE, 43627376, 1.134904, -0.05054716, 0.002898642, -0.8464854, -0.02963043, -0.001740687, -0.002295342, -0.03039569, 3.736768E-05, 69.05699, -0.7922173, 0
NKF1, 43627383, -0.25, 0.18, 0.07, -0.01147936, -0.003595785, 0.001705111, 0, 0, 0, -0.05866407, 0, -0.01, 0
NKF2, 43627383, 1, 0, 0, 0, 0, 0, 0, 0, 0, 0, 0, 0, 0
NKF3, 43627383, 0, 0, 0, -0.01, 0, 0, 0, 0, 0, 0, 0
NKF4, 43627383, 0, 0, 0, 0, 0, 1.71898E-06, 0, 0, 0, 19, 229, 0, 0
NKF5, 43627383, 0, 0, 0, 0, 0.19, 0.13, 0, 0.19, 0.5, 3.512079E-05, 0.001038671, 0.002097686
NKQ1, 43627383, 0.9999654, -0.006302404, 0.00538784, 0.000674304
AHR2, 43627500, -0.23, 0.13, 0.08, -0.29, 0, 0, 0.9999969, -0.002085536, 0.001169616, 0.0007299558
MOTB, 43627510, 1, 1, 0, 1
RCIN, 43627515, 0, 0, 0, 0, 0, 0, 0, 0, 0, 0, 0, 0, 0, 0
RCOU, 43627520, 1101, 1101, 1101, 1101, 0, 0, 0, 0, 0, 0, 0, 0, 0, 0
VIBE, 43627529, 0.02044341, 0.02143966, 0.03808404, 0, 0, 0
CTRL, 43627535, 0.002653039, 0.0001678432, 0.002005184, 0.0001571903, 5.906244E-05
PRX, 43627567, 2, 0.92, 0, 1.18, 0, 3.6, 0, 1.29, 0, 0, 0, 0.92
IMU, 43647507, -0.0006839226, -0.0005516256, -0.0005792209, 0.1022172, 0.1145064, -9.811598, 0, 0, 42.61508, 1, 1, 1000, 1000
RFND, 43677323, 0.2, 25, 0, 0
IMU, 43687404, 0.0001735908, 0.0003498147, 6.687894E-05, 0.09630767, 0.1164601, -9.810095, 0, 0, 42.61855, 1, 1, 1000, 1000
MAG, 43727347, -14, 338, 206, 0, 0, 0, 0, 0, 0, 1, 43727338
RFND, 43727375, 0.2, 25, 0, 0
BARO, 43727413, -0.2656176, 983.5591, 41.63, 0.07417516, 43727, 0, 35
CTUN, 43727498, 0, 0, 0, 0.2988867, 0.05929508, 0.05929508, -0.26, 0, 0.19, 0, 0, 0
DU32, 43727537, 7, 50357752
ATT, 43727635, 0, -0.25, 0, 0.19, 0.07, 0.07, 0, 1
RATE, 43727641, 1.128413, 0.01771146, 0.002625311, -0.8551248, 0.03601694, -0.002177108, -0.002728392, 0.03996121, -3.114799E-05, 42.45107, -0.1823425, 0
NKF1, 43727649, -0.25, 0.19, 0.07, -0.0118681, -0.004096242, 0.001048175, 0, 0, 0, -0.05929508, 0, -0.01, 0
NKF2, 43727649, 1, 0, 0, 0, 0, 0, 0, 0, 0, 0, 0, 0, 0
NKF3, 43727649, 0, 0, 0, -0.01, 0, 0, 0, 0, 0, 0, 0
NKF4, 43727649, 0, 0, 0, 0, 0, 1.220385E-06, 0, 0, 0, 19, 229, 0, 0
NKF5, 43727649, 0, 0, 0, 0, 0.19, 0.13, 0, 0.19, 0.5, 3.466987E-05, 0.0009987206, 0.001991953
NKQ1, 43727649, 0.9999654, -0.006290574, 0.005404167, 0.0006823449
AHR2, 43727695, -0.23, 0.13, 0.08, -0.26, 0, 0, 0.9999969, -0.002069545, 0.001185387, 0.0007381544
MOTB, 43727702, 1, 1, 0, 1
RCIN, 43727706, 0, 0, 0, 0, 0, 0, 0, 0, 0, 0, 0, 0, 0, 0
RCOU, 43727712, 1101, 1101, 1101, 1101, 0, 0, 0, 0, 0, 0, 0, 0, 0, 0
VIBE, 43727720, 0.02082171, 0.02288119, 0.03992199, 0, 0, 0
CTRL, 43727726, 0.002652112, 0.0001546561, 0.002017469, 0.0001667316, 5.322494E-05
PRX, 43727758, 2, 0.92, 0, 1.19, 0, 3.6, 0, 1.28, 0, 0, 0, 0.92
IMU, 43727765, 0.0003086938, 0.0003803979, 0.0007000979, 0.09578547, 0.1242266, -9.791597, 0, 0, 42.62231, 1, 1, 1000, 1000
IMU, 43767270, 0.0007186656, 0.0002088762, -0.0009744744, 0.1020232, 0.1271977, -9.791979, 0, 0, 42.62445, 1, 1, 1000, 1000
RFND, 43777244, 0.2, 25, 0, 0
IMU, 43807274, 0.0003954991, 0.0004197877, 7.745552E-05, 0.1046002, 0.1086622, -9.793803, 0, 0, 42.62591, 1, 1, 1000, 1000
MAG, 43827338, -14, 336, 196, 0, 0, 0, 0, 0, 0, 1, 43827329
RFND, 43827366, 0.2, 25, 0, 0
BARO, 43827403, -0.3334349, 983.5662, 41.63, -0.09360196, 43827, 0, 35
CTUN, 43827415, 0, 0, 0, 0.2988867, 0.05976781, 0.05976781, -0.33, 0, 0.19, 0, 0, 0
ATT, 43827565, 0, -0.25, 0, 0.19, 0.07, 0.07, 0, 1
RATE, 43827570, 1.128352, -0.04177693, 0.002892928, -0.8644416, -0.0001497589, -0.001994954, -0.00109067, -0.01484592, 9.553538E-06, 32.15624, 1.356411, 0
NKF1, 43827578, -0.25, 0.19, 0.07, -0.01242466, -0.004718677, 0.0007939812, 0, 0, 0, -0.05976781, 0, -0.01, 0
NKF2, 43827578, 1, 0, 0, 0, 0, 0, 0, 0, 0, 0, 0, 0, 0
NKF3, 43827578, 0, 0, 0, -0.01, 0, 0, 0, 0, 0, 0, 0
NKF4, 43827578, 0, 0, 0, 0, 0, 8.890993E-07, 0, 0, 0, 19, 229, 0, 0
NKF5, 43827578, 0, 0, 0, 0, 0.19, 0.13, 0, 0.19, 0.5, 3.465487E-05, 0.0009607478, 0.001902101
NKQ1, 43827578, 0.9999654, -0.006288739, 0.005421926, 0.0006571887
AHR2, 43827622, -0.23, 0.13, 0.08, -0.33, 0, 0, 0.9999969, -0.002064258, 0.001202431, 0.0007131753
MOTB, 43827629, 1, 1, 0, 1
RCIN, 43827634, 0, 0, 0, 0, 0, 0, 0, 0, 0, 0, 0, 0, 0, 0
RCOU, 43827639, 1101, 1101, 1101, 1101, 0, 0, 0, 0, 0, 0, 0, 0, 0, 0
VIBE, 43827647, 0.02309398, 0.02005298, 0.0378187, 0, 0, 0
CTRL, 43827654, 0.002642456, 0.0001384931, 0.002036937, 0.0001529363, 4.939747E-05
PRX, 43827685, 2, 0.91, 0, 1.19, 0, 3.6, 0, 1.29, 0, 0, 0, 0.91
IMU, 43847411, -0.0001497791, -0.0003138816, -0.0005725312, 0.09702335, 0.1274349, -9.8061, 0, 0, 42.62822, 1, 1, 1000, 1000
RFND, 43877217, 0.2, 25, 0, 0
IMU, 43887239, 0.0009970965, 0.0004913017, 0.0003078086, 0.09876147, 0.09778345, -9.796688, 0, 0, 42.63048, 1, 1, 1000, 1000
MAG, 43927312, -17, 328, 200, 0, 0, 0, 0, 0, 0, 1, 43927304
RFND, 43927342, 0.2, 25, 0, 0
BARO, 43927380, -0.4182065, 983.5754, 41.64, -0.2013325, 43927, 0, 35
CTUN, 43927393, 0, 0, 0, 0.2988867, 0.0603769, 0.0603769, -0.41, 0, 0.19, 0, 0, 0
ATT, 43927556, 0, -0.25, 0, 0.19, 0.07, 0.07, 0, 1
RATE, 43927563, 1.125282, -0.054632, 0.002837649, -0.8638521, -0.0317175, -0.001783453, -0.00381696, 0.05481767, 1.093517E-05, 16.79782, -0.5774498, 0
NKF1, 43927572, -0.25, 0.19, 0.07, -0.01278056, -0.005323299, 0.0004147611, 0, 0, 0, -0.06037691, 0, -0.01, 0
NKF2, 43927572, 1, 0, 0, 0, 0, 0, 0, 0, 0, 0, 0, 0, 0
NKF3, 43927572, 0, 0, 0, -0.01, 0, 0, 0, 0, 0, 0, 0
NKF4, 43927572, 0, 0, 0, 0, 0, 6.924408E-07, 0, 0, 0, 19, 229, 0, 0
NKF5, 43927572, 0, 0, 0, 0, 0.19, 0.13, 0, 0.19, 0.5, 3.490384E-05, 0.0009850374, 0.002035669
NKQ1, 43927572, 0.9999654, -0.006283851, 0.005420671, 0.000657135
AHR2, 43927617, -0.23, 0.13, 0.08, -0.41, 0, 0, 0.999997, -0.002057004, 0.001200687, 0.0007133672
MOTB, 43927624, 1, 1, 0, 1
RCIN, 43927629, 0, 0, 0, 0, 0, 0, 0, 0, 0, 0, 0, 0, 0, 0
RCOU, 43927635, 1101, 1101, 1101, 1101, 0, 0, 0, 0, 0, 0, 0, 0, 0, 0
VIBE, 43927644, 0.01958923, 0.0208713, 0.03841283, 0, 0, 0
CTRL, 43927651, 0.002640042, 0.0001551843, 0.002039538, 0.0001386941, 4.722505E-05
PRX, 43927682, 2, 0.92, 0, 1.18, 0, 3.6, 0, 1.28, 0, 0, 0, 0.92
IMU, 43927689, -0.0009539362, -0.0008018219, 0.0009593941, 0.1086563, 0.1252132, -9.787481, 0, 0, 42.63391, 1, 1, 1000, 1000
IMU, 43967319, -0.000200552, -0.0002791048, 0.0009458043, 0.1044608, 0.1242966, -9.804747, 0, 0, 42.63644, 1, 1, 1000, 1000
RFND, 43977232, 0.2, 25, 0, 0
IMU, 44007629, -0.000145713, -0.0005958102, 0.000270455, 0.1002326, 0.1236997, -9.806349, 0, 0, 42.63978, 1, 1, 1000, 1000
MAG, 44027670, -15, 330, 200, 0, 0, 0, 0, 0, 0, 1, 44027661
RFND, 44027700, 0.2, 25, 0, 0
BARO, 44027738, -0.3899493, 983.5726, 41.64, -0.3267238, 44027, 0, 35
CTUN, 44027751, 0, 0, 0, 0.2988867, 0.06089224, 0.06089224, -0.38, 0, 0.19, 0, 0, 0
ATT, 44027831, 0, -0.25, 0, 0.19, 0.07, 0.07, 0, 1
RATE, 44027836, 1.126268, 0.02832583, 0.002393709, -0.8579489, -0.004772434, -0.002055383, -0.003392826, -0.02343605, -3.071403E-05, -16.70076, 1.193142, 0
NKF1, 44027843, -0.25, 0.19, 0.07, -0.01334129, -0.005648549, -0.0004123645, 0, 0, 0, -0.06089224, 0, -0.01, 0
NKF2, 44027843, 1, 0, 0, 0, 0, 0, 0, 0, 0, 0, 0, 0, 0
NKF3, 44027843, 0, 0, 0, -0.01, 0, 0, 0, 0, 0, 0, 0
NKF4, 44027843, 0, 0, 0, 0, 0, 5.674362E-07, 0, 0, 0, 19, 229, 0, 0
NKF5, 44027843, 0, 0, 0, 0, 0.19, 0.13, 0, 0.19, 0.5, 3.524789E-05, 0.0009189419, 0.001869709
NKQ1, 44027843, 0.9999654, -0.006284554, 0.005409305, 0.0006611581
AHR2, 44027965, -0.23, 0.13, 0.08, -0.38, 0, 0, 0.999997, -0.002054256, 0.001187611, 0.0007176997
MOTB, 44027972, 1, 1, 0, 1
RCIN, 44027977, 0, 0, 0, 0, 0, 0, 0, 0, 0, 0, 0, 0, 0, 0
RCOU, 44027983, 1101, 1101, 1101, 1101, 0, 0, 0, 0, 0, 0, 0, 0, 0, 0
VIBE, 44027992, 0.01951399, 0.02101249, 0.03759059, 0, 0, 0
CTRL, 44027999, 0.002649853, 0.0001724183, 0.00202314, 0.0001277531, 4.285499E-05
PRX, 44028030, 2, 0.92, 0, 1.18, 0, 3.6, 0, 1.28, 0, 0, 0, 0.92
IMU, 44047327, -0.0001143961, -0.0005472054, 0.0007316002, 0.1004849, 0.1075669, -9.811331, 0, 0, 42.64222, 1, 1, 1000, 1000
RFND, 44077319, 0.2, 25, 0, 0
IMU, 44087251, 0.0001117077, -0.0008123862, 0.0008654746, 0.1081496, 0.1207233, -9.788649, 0, 0, 42.64496, 1, 1, 1000, 1000
MAG, 44127205, -17, 335, 204, 0, 0, 0, 0, 0, 0, 1, 44127195
RFND, 44127233, 0.2, 25, 0, 0
BARO, 44127269, -0.3390864, 983.567, 41.64, -0.3850043, 44127, 0, 35
CTUN, 44127281, 0, 0, 0, 0.2988867, 0.06148753, 0.06148753, -0.33, 0, 0.19, 0, 0, 0
ATT, 44127350, 0, -0.25, 0, 0.18, 0.07, 0.07, 0, 1
RATE, 44127355, 1.128676, -0.03645471, 0.002867553, -0.8454342, -0.05240187, -0.001702074, -0.002017857, -0.02381885, -3.535287E-05, -24.55044, -0.2462387, 0
NKF1, 44127362, -0.25, 0.18, 0.07, -0.01309996, -0.006480129, -0.0006061837, 0, 0, 0, -0.06148753, 0, -0.01, 0
NKF2, 44127362, 1, 0, 0, 0, 0, 0, 0, 0, 0, 0, 0, 0, 0
NKF3, 44127362, 0, 0, 0, -0.01, 0, 0, 0, 0, 0, 0, 0
NKF4, 44127362, 0, 0, 0, 0, 0, 5.053717E-07, 0, 0, 0, 19, 229, 0, 0
NKF5, 44127362, 0, 0, 0, 0, 0.19, 0.13, 0, 0.19, 0.5, 3.561724E-05, 0.0009520214, 0.002030953
NKQ1, 44127362, 0.9999655, -0.006290002, 0.005385447, 0.0006780416
AHR2, 44127406, -0.23, 0.13, 0.08, -0.33, 0, 0, 0.999997, -0.002054044, 0.001159518, 0.0007349659
MOTB, 44127413, 1, 1, 0, 1
RCIN, 44127417, 0, 0, 0, 0, 0, 0, 0, 0, 0, 0, 0, 0, 0, 0
RCOU, 44127498, 1101, 1101, 1101, 1101, 0, 0, 0, 0, 0, 0, 0, 0, 0, 0
VIBE, 44127507, 0.02035928, 0.02480114, 0.03442287, 0, 0, 0
CTRL, 44127514, 0.002649569, 0.0001564437, 0.002003802, 0.000113385, 5.090771E-05
PRX, 44127546, 2, 0.91, 0, 1.18, 0, 3.6, 0, 1.28, 0, 0, 0, 0.91
IMU, 44127553, -0.0006366811, -0.001162821, -0.0004130701, 0.1123706, 0.1221956, -9.790782, 0, 0, 42.64915, 1, 1, 1000, 1000
IMU, 44167274, 3.708192E-05, 0.0008240278, 0.0007683838, 0.09925129, 0.1172302, -9.800526, 0, 0, 42.65247, 1, 1, 1000, 1000
RFND, 44177255, 0.2, 25, 0, 0
IMU, 44207255, 0.001299469, -5.133789E-05, 0.0004391279, 0.1139348, 0.1226768, -9.790307, 0, 0, 42.65495, 1, 1, 1000, 1000
MAG, 44227314, -15, 331, 204, 0, 0, 0, 0, 0, 0, 1, 44227247
RFND, 44227343, 0.2, 25, 0, 0
BARO, 44227380, -0.3447378, 983.5675, 41.64, -0.1942682, 44227, 0, 35
CTUN, 44227393, 0, 0, 0, 0.2988867, 0.0620684, 0.0620684, -0.34, 0, 0.19, 0, 0, 0
ATT, 44227526, 0, -0.24, 0, 0.19, 0.07, 0.07, 0, 1
RATE, 44227532, 1.119484, 0.07225615, 0.002433934, -0.8575751, 0.02656307, -0.002067687, -0.003243306, -0.01357623, -2.584102E-05, -48.00147, -0.7459641, 0
NKF1, 44227540, -0.24, 0.19, 0.07, -0.01305582, -0.00687814, -0.001185222, 0, 0, 0, -0.0620684, 0, -0.01, 0
NKF2, 44227540, 1, 0, 0, 0, 0, 0, 0, 0, 0, 0, 0, 0, 0
NKF3, 44227540, 0, 0, 0, -0.02, 0, 0, 0, 0, 0, 0, 0
NKF4, 44227540, 0, 0, 0, 0, 0, 4.792132E-07, 0, 0, 0, 19, 229, 0, 0
NKF5, 44227540, 0, 0, 0, 0, 0.19, 0.13, 0, 0.19, 0.5, 3.591404E-05, 0.0008750283, 0.001835504
NKQ1, 44227540, 0.9999655, -0.006271392, 0.005408265, 0.0006793289
AHR2, 44227586, -0.23, 0.13, 0.08, -0.34, 0, 0, 0.999997, -0.00203079, 0.001180019, 0.0007363843
MOTB, 44227593, 1, 1, 0, 1
RCIN, 44227597, 0, 0, 0, 0, 0, 0, 0, 0, 0, 0, 0, 0, 0, 0
RCOU, 44227602, 1101, 1101, 1101, 1101, 0, 0, 0, 0, 0, 0, 0, 0, 0, 0
VIBE, 44227611, 0.02454521, 0.02277416, 0.03595549, 0, 0, 0
CTRL, 44227617, 0.002637017, 0.0001612638, 0.002019214, 0.0001180251, 4.318234E-05
PRX, 44227648, 2, 0.92, 0, 1.18, 0, 3.6, 0, 1.28, 0, 0, 0, 0.92
IMU, 44247334, 0.0009634627, -0.0003691618, -0.0003882374, 0.09201996, 0.1144709, -9.813665, 0, 0, 42.65744, 1, 1, 1000, 1000
RFND, 44277223, 0.2, 25, 0, 0
IMU, 44287260, 0.0002461153, -0.0002592755, -0.0001448264, 0.1002772, 0.1148257, -9.791814, 0, 0, 42.66003, 1, 1, 1000, 1000
MAG, 44327329, -19, 334, 203, 0, 0, 0, 0, 0, 0, 1, 44327320
RFND, 44327358, 0.2, 25, 0, 0
BARO, 44327396, -0.4238579, 983.5761, 41.64, 0.06004649, 44327, 0, 35
CTUN, 44327409, 0, 0, 0, 0.2988867, 0.06264861, 0.06264861, -0.42, 0, 0.19, 0, 0, 0
ATT, 44327596, 0, -0.24, 0, 0.18, 0.07, 0.07, 0, 1
RATE, 44327603, 1.116197, 0.006390836, 0.002555504, -0.8525866, -0.03685364, -0.002019517, -0.001299876, 0.02900647, -5.762135E-05, -56.39465, -1.207638, 0
NKF1, 44327611, -0.24, 0.18, 0.07, -0.013671, -0.007338166, -0.00139246, 0, 0, 0, -0.06264861, 0, -0.01, 0
NKF2, 44327611, 1, 0, 0, 0, 0, 0, 0, 0, 0, 0, 0, 0, 0
NKF3, 44327611, 0, 0, 0, -0.02, 0, 0, 0, 0, 0, 0, 0
NKF4, 44327611, 0, 0, 0, 0, 0, 4.805877E-07, 0, 0, 0, 19, 229, 0, 0
NKF5, 44327611, 0, 0, 0, 0, 0.19, 0.13, 0, 0.19, 0.5, 3.617633E-05, 0.0009131722, 0.002006826
NKQ1, 44327611, 0.9999655, -0.006268428, 0.005400502, 0.0006920561
AHR2, 44327655, -0.23, 0.13, 0.08, -0.42, 0, 0, 0.999997, -0.002025433, 0.001174462, 0.0007494292
MOTB, 44327662, 1, 1, 0, 1
RCIN, 44327666, 0, 0, 0, 0, 0, 0, 0, 0, 0, 0, 0, 0, 0, 0
RCOU, 44327672, 1101, 1101, 1101, 1101, 0, 0, 0, 0, 0, 0, 0, 0, 0, 0
VIBE, 44327681, 0.02281497, 0.02295061, 0.03387955, 0, 0, 0
CTRL, 44327687, 0.002629143, 0.0001466056, 0.002010549, 0.0001239948, 3.999823E-05
PRX, 44327719, 2, 0.92, 0, 1.18, 0, 3.6, 0, 1.29, 0, 0, 0, 0.92
IMU, 44327726, 0.0001111159, -0.000891471, 0.0005089087, 0.1105714, 0.1255915, -9.781133, 0, 0, 42.66339, 1, 1, 1000, 1000
IMU, 44367618, 3.47288E-05, -0.001739805, -0.000391139, 0.09982798, 0.1074633, -9.775137, 0, 0, 42.66748, 1, 1, 1000, 1000
RFND, 44377285, 0.2, 25, 0, 0
IMU, 44407582, -0.0005910894, 0.001032029, 0.000207369, 0.1057646, 0.1117908, -9.815321, 0, 0, 42.67072, 1, 1, 1000, 1000
MAG, 44427509, -16, 335, 202, 0, 0, 0, 0, 0, 0, 1, 44427414
RFND, 44427539, 0.2, 25, 0, 0
BARO, 44427578, -0.3616921, 983.5697, 41.64, 0.05474828, 44427, 0, 35
CTUN, 44427592, 0, 0, 0, 0.2988867, 0.06323592, 0.06323592, -0.36, 0, 0.19, 0, 0, 0
ATT, 44427668, 0, -0.24, 0, 0.18, 0.07, 0.07, 0, 1
RATE, 44427674, 1.121371, -0.0409359, 0.002608055, -0.8504477, 0.0223494, -0.001916109, -0.002280553, -0.01627272, 2.274102E-06, -55.88636, -1.702785, 0
NKF1, 44427681, -0.24, 0.18, 0.07, -0.01429576, -0.008347278, -0.00137991, 0, 0, 0, -0.06323592, 0, -0.01, 0
NKF2, 44427681, 1, 0, 0, 0, 0, 0, 0, 0, 0, 0, 0, 0, 0
NKF3, 44427681, 0, 0, 0, -0.02, 0, 0, 0, 0, 0, 0, 0
NKF4, 44427681, 0, 0, 0, 0, 0, 5.106095E-07, 0, 0, 0, 19, 229, 0, 0
NKF5, 44427681, 0, 0, 0, 0, 0.19, 0.13, 0, 0.19, 0.5, 3.636808E-05, 0.0008395837, 0.001822288
NKQ1, 44427681, 0.9999655, -0.006275415, 0.005394686, 0.0006859294
AHR2, 44427726, -0.23, 0.13, 0.08, -0.36, 0, 0, 0.999997, -0.002029652, 0.001169554, 0.0007436512
MOTB, 44427733, 1, 1, 0, 1
RCIN, 44427738, 0, 0, 0, 0, 0, 0, 0, 0, 0, 0, 0, 0, 0, 0
