FMT, 128, 89, FMT, BBnNZ, Type,Length,Name,Format,Columns
FMT, 129, 31, PARM, QNf, TimeUS,Name,Value
FMT, 130, 46, GPS, QBIHBcLLefffB, TimeUS,Status,GMS,GWk,NSats,HDop,Lat,Lng,Alt,Spd,GCrs,VZ,U
FMT, 131, 46, GPS2, QBIHBcLLefffB, TimeUS,Status,GMS,GWk,NSats,HDop,Lat,Lng,Alt,Spd,GCrs,VZ,U
FMT, 132, 46, GPSB, QBIHBcLLefffB, TimeUS,Status,GMS,GWk,NSats,HDop,Lat,Lng,Alt,Spd,GCrs,VZ,U
FMT, 193, 24, GPA, QCCCCBI, TimeUS,VDop,HAcc,VAcc,SAcc,VV,SMS
FMT, 194, 24, GPA2, QCCCCBI, TimeUS,VDop,HAcc,VAcc,SAcc,VV,SMS
FMT, 195, 24, GPAB, QCCCCBI, TimeUS,VDop,HAcc,VAcc,SAcc,VV,SMS
FMT, 133, 53, IMU, QffffffIIfBBHH, TimeUS,GyrX,GyrY,GyrZ,AccX,AccY,AccZ,EG,EA,T,GH,AH,GHz,AHz
FMT, 134, 75, MSG, QZ, TimeUS,Message
FMT, 135, 39, RCIN, QHHHHHHHHHHHHHH, TimeUS,C1,C2,C3,C4,C5,C6,C7,C8,C9,C10,C11,C12,C13,C14
FMT, 136, 39, RCOU, QHHHHHHHHHHHHHH, TimeUS,C1,C2,C3,C4,C5,C6,C7,C8,C9,C10,C11,C12,C13,C14
FMT, 137, 15, RSSI, Qf, TimeUS,RXRSSI
FMT, 139, 37, BARO, QffcfIff, TimeUS,Alt,Press,Temp,CRt,SMS,Offset,GndTemp
FMT, 140, 22, POWR, QffHB, TimeUS,Vcc,VServo,Flags,Safety
FMT, 143, 45, CMD, QHHHfffffff, TimeUS,CTot,CNum,CId,Prm1,Prm2,Prm3,Prm4,Lat,Lng,Alt
FMT, 144, 20, RAD, QBBBBBHH, TimeUS,RSSI,RemRSSI,TxBuf,Noise,RemNoise,RxErrors,Fixed
FMT, 146, 43, CAM, QIHLLeeeccC, TimeUS,GPSTime,GPSWeek,Lat,Lng,Alt,RelAlt,GPSAlt,Roll,Pitch,Yaw
FMT, 232, 43, TRIG, QIHLLeeeccC, TimeUS,GPSTime,GPSWeek,Lat,Lng,Alt,RelAlt,GPSAlt,Roll,Pitch,Yaw
FMT, 162, 30, ARSP, QffcffB, TimeUS,Airspeed,DiffPress,Temp,RawPress,Offset,U
FMT, 164, 45, CURR, QfffcHHHHHHHHHH, TimeUS,Volt,Curr,CurrTot,Temp,V1,V2,V3,V4,V5,V6,V7,V8,V9,V10
FMT, 165, 45, CUR2, QfffcHHHHHHHHHH, TimeUS,Volt,Curr,CurrTot,Temp,V1,V2,V3,V4,V5,V6,V7,V8,V9,V10
FMT, 163, 27, ATT, QccccCCCC, TimeUS,DesRoll,Roll,DesPitch,Pitch,DesYaw,Yaw,ErrRP,ErrYaw
FMT, 166, 34, MAG, QhhhhhhhhhBI, TimeUS,MagX,MagY,MagZ,OfsX,OfsY,OfsZ,MOfsX,MOfsY,MOfsZ,Health,S
FMT, 169, 14, MODE, QMBB, TimeUS,Mode,ModeNum,Rsn
FMT, 196, 17, RFND, QCBCB, TimeUS,Dist1,Orient1,Dist2,Orient2
FMT, 223, 33, DMS, IIIIIBBBBBBBBBB, TimeMS,N,Dp,RT,RS,Er,Fa,Fmn,Fmx,Pa,Pmn,Pmx,Sa,Smn,Smx
FMT, 240, 41, BCN, QBBfffffff, TimeUS,Health,Cnt,D0,D1,D2,D3,PosX,PosY,PosZ
FMT, 138, 53, IMU2, QffffffIIfBBHH, TimeUS,GyrX,GyrY,GyrZ,AccX,AccY,AccZ,EG,EA,T,GH,AH,GHz,AHz
FMT, 147, 53, IMU3, QffffffIIfBBHH, TimeUS,GyrX,GyrY,GyrZ,AccX,AccY,AccZ,EG,EA,T,GH,AH,GHz,AHz
FMT, 141, 45, AHR2, QccCfLLffff, TimeUS,Roll,Pitch,Yaw,Alt,Lat,Lng,Q1,Q2,Q3,Q4
FMT, 180, 31, POS, QLLfff, TimeUS,Lat,Lng,Alt,RelHomeAlt,RelOriginAlt
FMT, 142, 45, SIM, QccCfLLffff, TimeUS,Roll,Pitch,Yaw,Alt,Lat,Lng,Q1,Q2,Q3,Q4
FMT, 198, 51, NKF1, QccCfffffffccc, TimeUS,Roll,Pitch,Yaw,VN,VE,VD,dPD,PN,PE,PD,GX,GY,GZ
FMT, 199, 35, NKF2, QbccccchhhhhhB, TimeUS,AZbias,GSX,GSY,GSZ,VWN,VWE,MN,ME,MD,MX,MY,MZ,MI
FMT, 200, 33, NKF3, Qcccccchhhcc, TimeUS,IVN,IVE,IVD,IPN,IPE,IPD,IMX,IMY,IMZ,IYAW,IVT
FMT, 201, 35, NKF4, QcccccfbbHBHHb, TimeUS,SV,SP,SH,SM,SVT,errRP,OFN,OFE,FS,TS,SS,GPS,PI
FMT, 202, 40, NKF5, QBhhhcccCCfff, TimeUS,NI,FIX,FIY,AFI,HAGL,offset,RI,rng,Herr,eAng,eVel,ePos
FMT, 203, 51, NKF6, QccCfffffffccc, TimeUS,Roll,Pitch,Yaw,VN,VE,VD,dPD,PN,PE,PD,GX,GY,GZ
FMT, 204, 35, NKF7, QbccccchhhhhhB, TimeUS,AZbias,GSX,GSY,GSZ,VWN,VWE,MN,ME,MD,MX,MY,MZ,MI
FMT, 205, 33, NKF8, Qcccccchhhcc, TimeUS,IVN,IVE,IVD,IPN,IPE,IPD,IMX,IMY,IMZ,IYAW,IVT
FMT, 206, 35, NKF9, QcccccfbbHBHHb, TimeUS,SV,SP,SH,SM,SVT,errRP,OFN,OFE,FS,TS,SS,GPS,PI
FMT, 207, 36, NKF0, QBccCCcccccccc, TimeUS,ID,rng,innov,SIV,TR,BPN,BPE,BPD,OFH,OFL,OFN,OFE,OFD
FMT, 208, 27, NKQ1, Qffff, TimeUS,Q1,Q2,Q3,Q4
FMT, 209, 27, NKQ2, Qffff, TimeUS,Q1,Q2,Q3,Q4
FMT, 210, 51, XKF1, QccCfffffffccc, TimeUS,Roll,Pitch,Yaw,VN,VE,VD,dPD,PN,PE,PD,GX,GY,GZ
FMT, 211, 34, XKF2, QccccchhhhhhB, TimeUS,AX,AY,AZ,VWN,VWE,MN,ME,MD,MX,MY,MZ,MI
FMT, 212, 33, XKF3, Qcccccchhhcc, TimeUS,IVN,IVE,IVD,IPN,IPE,IPD,IMX,IMY,IMZ,IYAW,IVT
FMT, 213, 35, XKF4, QcccccfbbHBHHb, TimeUS,SV,SP,SH,SM,SVT,errRP,OFN,OFE,FS,TS,SS,GPS,PI
FMT, 214, 40, XKF5, QBhhhcccCCfff, TimeUS,NI,FIX,FIY,AFI,HAGL,offset,RI,rng,Herr,eAng,eVel,ePos
FMT, 215, 51, XKF6, QccCfffffffccc, TimeUS,Roll,Pitch,Yaw,VN,VE,VD,dPD,PN,PE,PD,GX,GY,GZ
FMT, 216, 34, XKF7, QccccchhhhhhB, TimeUS,AX,AY,AZ,VWN,VWE,MN,ME,MD,MX,MY,MZ,MI
FMT, 217, 33, XKF8, Qcccccchhhcc, TimeUS,IVN,IVE,IVD,IPN,IPE,IPD,IMX,IMY,IMZ,IYAW,IVT
FMT, 218, 35, XKF9, QcccccfbbHBHHb, TimeUS,SV,SP,SH,SM,SVT,errRP,OFN,OFE,FS,TS,SS,GPS,PI
FMT, 219, 36, XKF0, QBccCCcccccccc, TimeUS,ID,rng,innov,SIV,TR,BPN,BPE,BPD,OFH,OFL,OFN,OFE,OFD
FMT, 220, 27, XKQ1, Qffff, TimeUS,Q1,Q2,Q3,Q4
FMT, 221, 27, XKQ2, Qffff, TimeUS,Q1,Q2,Q3,Q4
FMT, 222, 35, XKFD, Qffffff, TimeUS,IX,IY,IZ,IVX,IVY,IVZ
FMT, 148, 34, TERR, QBLLHffHH, TimeUS,Status,Lat,Lng,Spacing,TerrH,CHeight,Pending,Loaded
FMT, 149, 18, UBX1, QBHBBH, TimeUS,Instance,noisePerMS,jamInd,aPower,agcCnt
FMT, 150, 16, UBX2, QBbBbB, TimeUS,Instance,ofsI,magI,ofsQ,magQ
FMT, 151, 18, UBY1, QBHBBH, TimeUS,Instance,noisePerMS,jamInd,aPower,agcCnt
FMT, 152, 16, UBY2, QBbBbB, TimeUS,Instance,ofsI,magI,ofsQ,magQ
FMT, 170, 42, GRAW, QIHBBddfBbB, TimeUS,WkMS,Week,numSV,sv,cpMes,prMes,doMes,mesQI,cno,lli
FMT, 171, 24, GRXH, QdHbBB, TimeUS,rcvTime,week,leapS,numMeas,recStat
FMT, 172, 41, GRXS, QddfBBBHBBBBB, TimeUS,prMes,cpMes,doMes,gnss,sv,freq,lock,cno,prD,cpD,doD,trk
FMT, 173, 63, SBFE, QIHBBdddfffff, TimeUS,TOW,WN,Mode,Err,Lat,Lng,Height,Undul,Vn,Ve,Vu,COG
FMT, 153, 19, ESC1, Qcccc, TimeUS,RPM,Volt,Curr,Temp
FMT, 154, 19, ESC2, Qcccc, TimeUS,RPM,Volt,Curr,Temp
FMT, 155, 19, ESC3, Qcccc, TimeUS,RPM,Volt,Curr,Temp
FMT, 156, 19, ESC4, Qcccc, TimeUS,RPM,Volt,Curr,Temp
FMT, 157, 19, ESC5, Qcccc, TimeUS,RPM,Volt,Curr,Temp
FMT, 158, 19, ESC6, Qcccc, TimeUS,RPM,Volt,Curr,Temp
FMT, 159, 19, ESC7, Qcccc, TimeUS,RPM,Volt,Curr,Temp
FMT, 160, 19, ESC8, Qcccc, TimeUS,RPM,Volt,Curr,Temp
FMT, 167, 34, MAG2, QhhhhhhhhhBI, TimeUS,MagX,MagY,MagZ,OfsX,OfsY,OfsZ,MOfsX,MOfsY,MOfsZ,Health,S
FMT, 168, 34, MAG3, QhhhhhhhhhBI, TimeUS,MagX,MagY,MagZ,OfsX,OfsY,OfsZ,MOfsX,MOfsY,MOfsZ,Health,S
FMT, 174, 31, ACC1, QQfff, TimeUS,SampleUS,AccX,AccY,AccZ
FMT, 175, 31, ACC2, QQfff, TimeUS,SampleUS,AccX,AccY,AccZ
FMT, 176, 31, ACC3, QQfff, TimeUS,SampleUS,AccX,AccY,AccZ
FMT, 177, 31, GYR1, QQfff, TimeUS,SampleUS,GyrX,GyrY,GyrZ
FMT, 178, 31, GYR2, QQfff, TimeUS,SampleUS,GyrX,GyrY,GyrZ
FMT, 179, 31, GYR3, QQfff, TimeUS,SampleUS,GyrX,GyrY,GyrZ
FMT, 181, 35, PIDR, Qffffff, TimeUS,Des,P,I,D,FF,AFF
FMT, 182, 35, PIDP, Qffffff, TimeUS,Des,P,I,D,FF,AFF
FMT, 183, 35, PIDY, Qffffff, TimeUS,Des,P,I,D,FF,AFF
FMT, 184, 35, PIDA, Qffffff, TimeUS,Des,P,I,D,FF,AFF
FMT, 185, 35, PIDS, Qffffff, TimeUS,Des,P,I,D,FF,AFF
FMT, 186, 35, PIDL, Qffffff, TimeUS,Des,P,I,D,FF,AFF
FMT, 161, 37, BAR2, QffcfIff, TimeUS,Alt,Press,Temp,CRt,SMS,Offset,GndTemp
FMT, 197, 37, BAR3, QffcfIff, TimeUS,Alt,Press,Temp,CRt,SMS,Offset,GndTemp
FMT, 187, 35, VIBE, QfffIII, TimeUS,VibeX,VibeY,VibeZ,Clip0,Clip1,Clip2
FMT, 188, 47, IMT, Qfffffffff, TimeUS,DelT,DelvT,DelaT,DelAX,DelAY,DelAZ,DelVX,DelVY,DelVZ
FMT, 189, 47, IMT2, Qfffffffff, TimeUS,DelT,DelvT,DelaT,DelAX,DelAY,DelAZ,DelVX,DelVY,DelVZ
FMT, 190, 47, IMT3, Qfffffffff, TimeUS,DelT,DelvT,DelaT,DelAX,DelAY,DelAZ,DelVX,DelVY,DelVZ
FMT, 191, 24, ORGN, QBLLe, TimeUS,Type,Lat,Lng,Alt
FMT, 192, 19, RPM, Qff, TimeUS,rpm1,rpm2
FMT, 233, 47, GMB1, Iffffffffff, TimeMS,dt,dax,day,daz,dvx,dvy,dvz,jx,jy,jz
FMT, 234, 44, GMB2, IBfffffffff, TimeMS,es,ex,ey,ez,rx,ry,rz,tx,ty,tz
FMT, 235, 13, GMB3, Ihhh, TimeMS,rl_torque_cmd,el_torque_cmd,az_torque_cmd
FMT, 236, 59, RATE, Qffffffffffff, TimeUS,RDes,R,ROut,PDes,P,POut,YDes,Y,YOut,ADes,A,AOut
FMT, 237, 23, RALY, QBBLLh, TimeUS,Tot,Seq,Lat,Lng,Alt
FMT, 238, 43, VISO, Qffffffff, TimeUS,dt,AngDX,AngDY,AngDZ,PosDX,PosDY,PosDZ,conf
FMT, 224, 23, SBPH, QIII, TimeUS,CrcError,LastInject,IARhyp
FMT, 229, 80, SBR1, QHHBZ, TimeUS,msg_type,sender_id,msg_len,d1
FMT, 230, 205, SBR2, QHZZZ, TimeUS,msg_type,d2,d3,d4
FMT, 25, 41, ATUN, QBBfffffff, TimeUS,Axis,TuneStep,Targ,Min,Max,RP,RD,SP,ddt
FMT, 26, 19, ATDE, Qff, TimeUS,Angle,Rate
FMT, 31, 22, PTUN, QBfHHH, TimeUS,Param,TunVal,CtrlIn,TunLo,TunHi
FMT, 12, 28, OF, QBffff, TimeUS,Qual,flowX,flowY,bodyX,bodyY
FMT, 5, 51, NTUN, Qffffffffff, TimeUS,DPosX,DPosY,PosX,PosY,DVelX,DVelY,VelX,VelY,DAccX,DAccY
FMT, 4, 51, CTUN, Qffffffeccfhh, TimeUS,ThI,ABst,ThO,ThH,DAlt,Alt,BAlt,DSAlt,SAlt,TAlt,DCRt,CRt
FMT, 6, 32, PM, QHHIhBHII, TimeUS,NLon,NLoop,MaxT,PMT,I2CErr,INSErr,LogDrop,Mem
FMT, 30, 27, MOTB, Qffff, TimeUS,LiftMax,BatVolt,BatRes,ThLimit
FMT, 13, 12, EV, QB, TimeUS,Id
FMT, 20, 14, D16, QBh, TimeUS,Id,Value
FMT, 21, 14, DU16, QBH, TimeUS,Id,Value
FMT, 22, 16, D32, QBi, TimeUS,Id,Value
FMT, 23, 16, DU32, QBI, TimeUS,Id,Value
FMT, 24, 16, DFLT, QBf, TimeUS,Id,Value
FMT, 19, 13, ERR, QBB, TimeUS,Subsys,ECode
FMT, 32, 19, HELI, Qff, TimeUS,DRRPM,ERRPM
FMT, 33, 29, PL, QBBffff, TimeUS,Heal,TAcq,pX,pY,vX,vY
FMT, 34, 36, GUID, QBffffff, TimeUS,Type,pX,pY,pZ,vX,vY,vZ
FMT, 35, 32, THRO, QBffffbbbb, TimeUS,Stage,Vel,VelZ,Acc,AccEfZ,Throw,AttOk,HgtOk,PosOk
FMT, 36, 56, PRX, QBfffffffffff, TimeUS,Health,D0,D45,D90,D135,D180,D225,D270,D315,DUp,CAn,CDis
MODE, 30788104, 100, 100, 1
EV, 30796365, 15
MAG, 30796412, -16, 335, 189, 0, 0, 0, 0, 0, 0, 1, 30796404
RFND, 30796442, 0.2, 25, 0, 0
BARO, 30796479, -1.192454, 983.6445, 42.57, -0.1927791, 30796, 0, 35
CTUN, 30796491, 0, 0, 0, 0.3012225, 0.06070935, 0.06070935, -1.19, 0, 0.19, 0, 0, 0
ATT, 30796571, 0, -0.14, 0, 0.15, 359.66, 359.67, 0, 1
RATE, 30796576, 0.6432078, -0.03331942, 0.001717255, -0.7145418, 0.01794719, -0.001879221, -0.001485632, -0.04754322, 4.022635E-05, 338.8453, -1.887703, 0
NKF1, 30796584, -0.14, 0.15, 359.66, 0.005229561, -0.006300929, 0.00836655, 0, 0, 0, -0.06070935, 0, 0, 0
NKF2, 30796584, 1, 0, 0, 0, 0, 0, 0, 0, 0, 0, 0, 0, 0
NKF3, 30796584, 0, 0, 0, 0, 0, 0, 0, 0, 0, 0, 0
NKF4, 30796584, 0, 0, 0, 0, 0, 1.795827E-05, 0, 0, 0, 19, 229, 0, 0
NKF5, 30796584, 0, 0, 0, 0, 0.19, 0.13, 0, 0.19, 0.5, 3.530872E-05, 0.0008609862, 0.001963972
NKQ1, 30796584, 0.9999683, -0.005325619, 0.005146558, -0.002912832
FMT, 254, 47, NKT1, QIffffffff, TimeUS,Cnt,IMUMin,IMUMax,EKFMin,EKFMax,AngMin,AngMax,VelMin,VelM
NKT1, 30796584, 2389, 0.0025, 0.0025, 0.009941767, 0.01014501, 0.003000113, 0.01399957, 0.003000114, 0.01399956
AHR2, 30796689, -0.09, 0.16, 359.64, -1.19, 0, 0, 0.999994, -0.0008593279, 0.001414911, -0.003064436
MOTB, 30796697, 1, 1, 0, 1
RCIN, 30796702, 1500, 1500, 1500, 1500, 1500, 1500, 1500, 1500, 0, 0, 0, 0, 0, 0
RCOU, 30796708, 1101, 1101, 1101, 1101, 0, 0, 0, 0, 0, 0, 0, 0, 0, 0
VIBE, 30796717, 0.02216338, 0.01964448, 0.03716608, 0, 0, 0
FMT, 253, 31, CTRL, Qfffff, TimeUS,RMSRollP,RMSRollD,RMSPitchP,RMSPitchD,RMSYaw
CTRL, 30796723, 0.001503099, 0.000152261, 0.001671672, 0.0001336974, 5.586516E-05
PRX, 30796759, 2, 0.73, 0, 0.76, 0, 3.6, 0, 0.8, 0, 0, 0, 0.73
DU32, 30896796, 7, 50356728
IMU, 30936846, 0.0003823334, 0.0006631556, 0.0002366101, 0.09440816, 0.09995055, -9.790772, 0, 0, 43.57657, 1, 1, 1000, 1000
MSG, 30937751, APM:Copter V3.5.7 (791a96c7)
MSG, 30937756, New mission
MSG, 30937766, Frame: QUAD
MODE, 30937770, 100, 100, 1
RFND, 30946846, 0.2, 25, 0, 0
IMU, 30976939, 0.0003699037, 0.0006687504, 6.059411E-05, 0.09720005, 0.1025886, -9.788408, 0, 0, 43.57642, 1, 1, 1000, 1000
MAG, 30996760, -11, 334, 183, 0, 0, 0, 0, 0, 0, 1, 30996751
RFND, 30996793, 0.2, 25, 0, 0
BARO, 30996830, -1.130288, 983.6378, 42.57, 0.09069918, 30996, 0, 35
CTUN, 30996843, 0, 0, 0, 0.3012225, 0.05965432, 0.05965432, -1.13, 0, 0.19, 0, 0, 0
ATT, 30996920, 0, -0.14, 0, 0.16, 359.66, 359.67, 0, 1
RATE, 30996926, 0.6593962, 0.001282756, 0.001638685, -0.7329113, 0.0525706, -0.00199432, -0.0002099286, -0.02527144, 3.027177E-06, 313.4751, 0.3411293, 0
NKF1, 30996933, -0.14, 0.16, 359.66, 0.005361436, -0.006938741, 0.007740126, 0, 0, 0, -0.05965432, 0, 0, 0
NKF2, 30996933, 1, 0, 0, 0, 0, 0, 0, 0, 0, 0, 0, 0, 0
NKF3, 30996933, 0, 0, 0, 0, 0, 0, 0, 0, 0, 0, 0
NKF4, 30996933, 0, 0, 0, 0, 0, 8.24617E-06, 0, 0, 0, 19, 229, 0, 0
NKF5, 30996933, 0, 0, 0, 0, 0.19, 0.13, 0, 0.19, 0.5, 2.798693E-05, 0.0009974641, 0.001955761
NKQ1, 30996933, 0.999968, -0.005355553, 0.005180679, -0.002926616
AHR2, 30996978, -0.1, 0.16, 359.64, -1.13, 0, 0, 0.9999939, -0.0008796722, 0.001451681, -0.003078498
MOTB, 30996986, 1, 1, 0, 1
RCIN, 30996990, 1500, 1500, 1500, 1500, 1500, 1500, 1500, 1500, 0, 0, 0, 0, 0, 0
RCOU, 30996995, 1101, 1101, 1101, 1101, 0, 0, 0, 0, 0, 0, 0, 0, 0, 0
VIBE, 30997004, 0.02281298, 0.02238888, 0.03420538, 0, 0, 0
CTRL, 30997011, 0.001541078, 0.0001552214, 0.001704724, 0.0001130675, 4.560949E-05
PRX, 30997043, 2, 0.72, 0, 0.75, 0, 3.6, 0, 0.8, 0, 0, 0, 0.72
IMU, 31016762, 0.001727784, 0.0001362447, -0.0004740209, 0.1021842, 0.0936884, -9.785916, 0, 0, 43.57664, 1, 1, 1000, 1000
RFND, 31047018, 0.2, 25, 0, 0
IMU, 31056716, -0.0002245761, 0.0007392761, -0.0003289663, 0.1043305, 0.1043256, -9.806204, 0, 0, 43.5764, 1, 1, 1000, 1000
MAG, 31097019, -16, 337, 183, 0, 0, 0, 0, 0, 0, 1, 31097011
RFND, 31097051, 0.2, 25, 0, 0
BARO, 31097087, -1.141591, 983.6386, 42.57, 0.2938831, 31097, 0, 35
CTUN, 31097100, 0, 0, 0, 0.3012225, 0.05922151, 0.05922151, -1.14, 0, 0.19, 0, 0, 0
ATT, 31097238, 0, -0.14, 0, 0.16, 359.66, 359.67, 0, 1
RATE, 31097244, 0.6586406, 0.0368862, 0.001261108, -0.7389899, 0.01819513, -0.001969968, -0.0004897111, -0.02776306, 2.023057E-05, 309.8817, -0.6449699, 0
NKF1, 31097253, -0.14, 0.16, 359.66, 0.00564378, -0.007191819, 0.0076514, 0, 0, 0, -0.05922151, 0, 0, 0
NKF2, 31097253, 1, 0, 0, 0, 0, 0, 0, 0, 0, 0, 0, 0, 0
NKF3, 31097253, 0, 0, 0, 0, 0, 0, 0, 0, 0, 0, 0
NKF4, 31097253, 0, 0, 0, 0, 0, 5.294983E-06, 0, 0, 0, 19, 229, 0, 0
NKF5, 31097253, 0, 0, 0, 0, 0.19, 0.13, 0, 0.19, 0.5, 2.994875E-05, 0.001109229, 0.002227976
NKQ1, 31097253, 0.9999679, -0.005354409, 0.005192936, -0.002934899
AHR2, 31097298, -0.1, 0.16, 359.64, -1.14, 0, 0, 0.9999938, -0.0008732931, 0.001465813, -0.003086946
MOTB, 31097306, 1, 1, 0, 1
RCIN, 31097311, 1500, 1500, 1500, 1500, 1500, 1500, 1500, 1500, 0, 0, 0, 0, 0, 0
RCOU, 31097317, 1101, 1101, 1101, 1101, 0, 0, 0, 0, 0, 0, 0, 0, 0, 0
VIBE, 31097325, 0.01933708, 0.01937637, 0.03395307, 0, 0, 0
CTRL, 31097332, 0.001547029, 0.0001826628, 0.001725015, 0.0001216469, 3.917664E-05
PRX, 31097364, 2, 0.72, 0, 0.75, 0, 3.6, 0, 0.8, 0, 0, 0, 0.72
IMU, 31097371, 0.0008148403, 0.0003134981, -0.0004852681, 0.106141, 0.1023682, -9.781461, 0, 0, 43.57663, 1, 1, 1000, 1000
IMU, 31136638, -0.000157661, 0.0009587044, -8.501818E-05, 0.1010298, 0.1077857, -9.792398, 0, 0, 43.57644, 1, 1, 1000, 1000
RFND, 31146600, 0.2, 25, 0, 0
IMU, 31177123, 7.842344E-05, -0.001034427, 0.0006352179, 0.1060119, 0.09129737, -9.808186, 0, 0, 43.57654, 1, 1, 1000, 1000
MAG, 31196683, -13, 340, 185, 0, 0, 0, 0, 0, 0, 1, 31196674
RFND, 31196716, 0.2, 25, 0, 0
BARO, 31196751, -1.096379, 983.6339, 42.58, 0.3222817, 31196, 0, 35
CTUN, 31196763, 0, 0, 0, 0.3012225, 0.0588555, 0.0588555, -1.09, 0, 0.19, 0, 0, 0
ATT, 31196839, 0, -0.14, 0, 0.16, 359.66, 359.67, 0, 1
RATE, 31196844, 0.6724414, -0.02868473, 0.001717073, -0.7426735, -0.01172731, -0.001840483, -0.001340122, 0.01210344, -3.597327E-05, 306.2992, -1.109886, 0
NKF1, 31196852, -0.14, 0.16, 359.66, 0.005670409, -0.008151833, 0.007562943, 0, 0, 0, -0.0588555, 0, 0, 0
NKF2, 31196852, 1, 0, 0, 0, 0, 0, 0, 0, 0, 0, 0, 0, 0
NKF3, 31196852, 0, 0, 0, 0, 0, 0, 0, 0, 0, 0, 0
NKF4, 31196852, 0, 0, 0, 0, 0, 3.562434E-06, 0, 0, 0, 19, 229, 0, 0
NKF5, 31196852, 0, 0, 0, 0, 0.19, 0.13, 0, 0.19, 0.5, 3.291764E-05, 0.001096547, 0.002162995
NKQ1, 31196852, 0.9999678, -0.005383248, 0.005201943, -0.002919079
AHR2, 31196896, -0.1, 0.16, 359.64, -1.09, 0, 0, 0.9999938, -0.0008964831, 0.001476506, -0.003071163
MOTB, 31196903, 1, 1, 0, 1
RCIN, 31196907, 1500, 1500, 1500, 1500, 1500, 1500, 1500, 1500, 0, 0, 0, 0, 0, 0
RCOU, 31196913, 1101, 1101, 1101, 1101, 0, 0, 0, 0, 0, 0, 0, 0, 0, 0
VIBE, 31196921, 0.02094526, 0.02006037, 0.03844807, 0, 0, 0
CTRL, 31196928, 0.001572966, 0.0001755955, 0.00174404, 0.0001566126, 3.392439E-05
PRX, 31196960, 2, 0.73, 0, 0.75, 0, 3.6, 0, 0.8, 0, 0, 0, 0.73
IMU, 31216609, -0.0007722716, 0.0003652415, 0.000191293, 0.108098, 0.09871912, -9.78557, 0, 0, 43.57654, 1, 1, 1000, 1000
RFND, 31246586, 0.2, 25, 0, 0
IMU, 31256692, 7.574302E-05, 0.000154449, 0.0002511406, 0.0987507, 0.1061072, -9.772533, 0, 0, 43.57645, 1, 1, 1000, 1000
MAG, 31296692, -13, 337, 185, 0, 0, 0, 0, 0, 0, 1, 31296683
RFND, 31296726, 0.2, 25, 0, 0
BARO, 31296764, -1.079425, 983.6323, 42.58, 0.2721258, 31296, 0, 35
CTUN, 31296777, 0, 0, 0, 0.3012225, 0.05847603, 0.05847603, -1.07, 0, 0.19, 0, 0, 0
ATT, 31296915, 0, -0.15, 0, 0.16, 359.66, 359.67, 0, 1
RATE, 31296921, 0.6919013, 0.0243706, 0.001310223, -0.7408326, -0.05537884, -0.001248296, -0.0008672578, 0.01349861, -2.636377E-05, 309.2955, -1.299191, 0
NKF1, 31296929, -0.15, 0.16, 359.66, 0.005234731, -0.008700396, 0.007636925, 0, 0, 0, -0.05847603, 0, 0, 0
NKF2, 31296929, 1, 0, 0, 0, 0, 0, 0, 0, 0, 0, 0, 0, 0
NKF3, 31296929, 0, 0, 0, 0, 0, 0, 0, 0, 0, 0, 0
NKF4, 31296929, 0, 0, 0, 0, 0, 2.426599E-06, 0, 0, 0, 19, 229, 0, 0
NKF5, 31296929, 0, 0, 0, 0, 0.19, 0.13, 0, 0.19, 0.5, 3.574606E-05, 0.001142767, 0.002307651
NKQ1, 31296929, 0.9999676, -0.005419763, 0.005197137, -0.002911302
AHR2, 31296975, -0.1, 0.16, 359.64, -1.07, 0, 0, 0.9999938, -0.0009255246, 0.0014731, -0.003063338
MOTB, 31296982, 1, 1, 0, 1
RCIN, 31296986, 1500, 1500, 1500, 1500, 1500, 1500, 1500, 1500, 0, 0, 0, 0, 0, 0
RCOU, 31296992, 1101, 1101, 1101, 1101, 0, 0, 0, 0, 0, 0, 0, 0, 0, 0
VIBE, 31297001, 0.02057538, 0.02156814, 0.03946361, 0, 0, 0
CTRL, 31297008, 0.001622004, 0.0001770863, 0.001747958, 0.0001518275, 3.283349E-05
PRX, 31297038, 2, 0.72, 0, 0.75, 0, 3.6, 0, 0.8, 0, 0, 0, 0.72
IMU, 31297046, 0.0005971511, -0.0009706327, 0.0002348808, 0.0957828, 0.1079086, -9.774872, 0, 0, 43.57663, 1, 1, 1000, 1000
IMU, 31336702, -0.001319969, -0.0001617528, 0.0009156485, 0.09550659, 0.08894075, -9.789129, 0, 0, 43.57641, 1, 1, 1000, 1000
RFND, 31346631, 0.2, 25, 0, 0
IMU, 31377318, -1.156798E-05, 0.0005065884, -0.0002135788, 0.1064669, 0.1019937, -9.79888, 0, 0, 43.57664, 1, 1, 1000, 1000
MAG, 31396573, -18, 337, 185, 0, 0, 0, 0, 0, 0, 1, 31396565
RFND, 31396604, 0.2, 25, 0, 0
BARO, 31396639, -1.068122, 983.6311, 42.58, 0.2401861, 31396, 0, 35
CTUN, 31396652, 0, 0, 0, 0.3012225, 0.0582137, 0.0582137, -1.06, 0, 0.19, 0, 0, 0
ATT, 31396720, 0, -0.15, 0, 0.16, 359.66, 359.67, 0, 1
RATE, 31396726, 0.7020657, 0.00901349, 0.001626298, -0.7473252, 0.04154176, -0.001986448, 0.002136989, -0.05095694, -1.58244E-05, 286.9726, 1.299572, 0
NKF1, 31396734, -0.15, 0.16, 359.66, 0.004929199, -0.009536816, 0.007085742, 0, 0, 0, -0.0582137, 0, 0, 0
NKF2, 31396734, 1, 0, 0, 0, 0, 0, 0, 0, 0, 0, 0, 0, 0
NKF3, 31396734, 0, 0, 0, 0, 0, 0, 0, 0, 0, 0, 0
NKF4, 31396734, 0, 0, 0, 0, 0, 1.671361E-06, 0, 0, 0, 19, 229, 0, 0
NKF5, 31396734, 0, 0, 0, 0, 0.19, 0.13, 0, 0.19, 0.5, 3.750416E-05, 0.001101146, 0.002184031
NKQ1, 31396734, 0.9999674, -0.005441864, 0.0052131, -0.00290861
AHR2, 31396776, -0.1, 0.17, 359.64, -1.06, 0, 0, 0.9999938, -0.0009371089, 0.0014893, -0.003060724
MOTB, 31396783, 1, 1, 0, 1
RCIN, 31396787, 1500, 1500, 1500, 1500, 1500, 1500, 1500, 1500, 0, 0, 0, 0, 0, 0
RCOU, 31396793, 1101, 1101, 1101, 1101, 0, 0, 0, 0, 0, 0, 0, 0, 0, 0
VIBE, 31396801, 0.02002702, 0.0216413, 0.03650562, 0, 0, 0
CTRL, 31396808, 0.001644863, 0.0001719001, 0.001754737, 0.0001487858, 4.498222E-05
PRX, 31396840, 2, 0.73, 0, 0.76, 0, 3.6, 0, 0.8, 0, 0, 0, 0.73
IMU, 31416893, 0.0006369174, 0.0005011265, -0.0001448725, 0.08722115, 0.1020944, -9.788887, 0, 0, 43.57645, 1, 1, 1000, 1000
RFND, 31446591, 0.2, 25, 0, 0
IMU, 31457352, 0.0006439851, 0.0004743239, -0.0002646963, 0.110232, 0.09512274, -9.776348, 0, 0, 43.57657, 1, 1, 1000, 1000
MAG, 31496644, -13, 335, 185, 0, 0, 0, 0, 0, 0, 1, 31496635
RFND, 31496675, 0.2, 25, 0, 0
BARO, 31496710, -1.090728, 983.6333, 42.58, 0.2088849, 31496, 0, 35
CTUN, 31496722, 0, 0, 0, 0.3012225, 0.05786672, 0.05786672, -1.09, 0, 0.19, 0, 0, 0
ATT, 31496860, 0, -0.15, 0, 0.16, 359.66, 359.67, 0, 1
RATE, 31496866, 0.7092012, -0.02252537, 0.00179379, -0.745897, -0.003606736, -0.001826799, -0.001346299, -0.02723626, 2.64021E-05, 297.3688, 0.6839752, 0
NKF1, 31496874, -0.15, 0.16, 359.66, 0.004721588, -0.01020711, 0.00734244, 0, 0, 0, -0.05786672, 0, 0, 0
NKF2, 31496874, 1, 0, 0, 0, 0, 0, 0, 0, 0, 0, 0, 0, 0
NKF3, 31496874, 0, 0, 0, 0, 0, 0, 0, 0, 0, 0, 0
NKF4, 31496874, 0, 0, 0, 0, 0, 1.174639E-06, 0, 0, 0, 19, 229, 0, 0
NKF5, 31496874, 0, 0, 0, 0, 0.19, 0.13, 0, 0.19, 0.5, 3.842746E-05, 0.001116192, 0.002256144
NKQ1, 31496874, 0.9999673, -0.005453282, 0.005207572, -0.002910382
AHR2, 31496920, -0.1, 0.16, 359.64, -1.09, 0, 0, 0.9999937, -0.0009385166, 0.001482548, -0.003062538
MOTB, 31496927, 1, 1, 0, 1
RCIN, 31496931, 1500, 1500, 1500, 1500, 1500, 1500, 1500, 1500, 0, 0, 0, 0, 0, 0
RCOU, 31496937, 1101, 1101, 1101, 1101, 0, 0, 0, 0, 0, 0, 0, 0, 0, 0
VIBE, 31496946, 0.01981499, 0.02061313, 0.03596634, 0, 0, 0
CTRL, 31496952, 0.001653377, 0.0001636241, 0.001759046, 0.0001406909, 3.821929E-05
PRX, 31496983, 2, 0.73, 0, 0.75, 0, 3.6, 0, 0.8, 0, 0, 0, 0.73
IMU, 31496990, -0.0002211675, -6.704961E-05, -0.0004760778, 0.1097891, 0.1008459, -9.794602, 0, 0, 43.57654, 1, 1, 1000, 1000
IMU, 31536623, -0.0003068447, -0.0001692615, 0.0002829816, 0.1117423, 0.106884, -9.773928, 0, 0, 43.57645, 1, 1, 1000, 1000
RFND, 31546627, 0.2, 25, 0, 0
IMU, 31576905, -0.0004795539, -0.0004994327, -0.000389547, 0.09867246, 0.1016308, -9.779224, 0, 0, 43.57664, 1, 1, 1000, 1000
MAG, 31596592, -18, 339, 184, 0, 0, 0, 0, 0, 0, 1, 31596583
RFND, 31596626, 0.2, 25, 0, 0
BARO, 31596662, -1.000305, 983.6231, 42.58, 0.1485096, 31596, 0, 35
CTUN, 31596674, 0, 0, 0, 0.3012225, 0.05767946, 0.05767946, -1, 0, 0.19, 0, 0, 0
ATT, 31596744, 0, -0.15, 0, 0.16, 359.66, 359.67, 0, 1
RATE, 31596750, 0.7208965, -0.05969716, 0.001872403, -0.7399777, 0.0008537355, -0.001780173, -0.003377366, -0.003274606, 2.344651E-05, 335.7517, -1.868534, 0
NKF1, 31596757, -0.15, 0.16, 359.66, 0.004678176, -0.01095745, 0.008290164, 0, 0, 0, -0.05767946, 0, 0, 0
NKF2, 31596757, 1, 0, 0, 0, 0, 0, 0, 0, 0, 0, 0, 0, 0
NKF3, 31596757, 0, 0, 0, 0, 0, 0, 0, 0, 0, 0, 0
NKF4, 31596757, 0, 0, 0, 0, 0, 8.595005E-07, 0, 0, 0, 19, 229, 0, 0
NKF5, 31596757, 0, 0, 0, 0, 0.19, 0.13, 0, 0.19, 0.5, 3.851957E-05, 0.001058595, 0.002107158
NKQ1, 31596757, 0.9999673, -0.005478565, 0.005198594, -0.002906741
AHR2, 31596801, -0.1, 0.16, 359.64, -1, 0, 0, 0.9999938, -0.0009551871, 0.001468675, -0.003058881
MOTB, 31596808, 1, 1, 0, 1
RCIN, 31596813, 1500, 1500, 1500, 1500, 1500, 1500, 1500, 1500, 0, 0, 0, 0, 0, 0
RCOU, 31596819, 1101, 1101, 1101, 1101, 0, 0, 0, 0, 0, 0, 0, 0, 0, 0
VIBE, 31596827, 0.0193105, 0.01970449, 0.03411651, 0, 0, 0
CTRL, 31596833, 0.001682843, 0.0001686194, 0.001744797, 0.0001349889, 3.26609E-05
PRX, 31596865, 2, 0.72, 0, 0.75, 0, 3.6, 0, 0.8, 0, 0, 0, 0.72
IMU, 31616620, 6.656052E-05, -9.305762E-05, -0.0006569378, 0.0899531, 0.1005718, -9.782835, 0, 0, 43.5764, 1, 1, 1000, 1000
RFND, 31647607, 0.2, 25, 0, 0
IMU, 31657116, 0.0005704679, 0.000333266, -0.0009099178, 0.1047432, 0.1116614, -9.797012, 0, 0, 43.57664, 1, 1, 1000, 1000
MAG, 31696576, -22, 338, 182, 0, 0, 0, 0, 0, 0, 1, 31696568
RFND, 31696608, 0.2, 25, 0, 0
BARO, 31696642, -0.926836, 983.6155, 42.59, 0.1696553, 31696, 0, 35
CTUN, 31696654, 0, 0, 0, 0.3012225, 0.05732192, 0.05732192, -0.92, 0, 0.19, 0, 0, 0
ATT, 31696817, 0, -0.16, 0, 0.16, 359.66, 359.67, 0, 1
RATE, 31696823, 0.7251529, 0.0340551, 0.001277447, -0.7358019, 0.01103796, -0.00169334, -0.00147204, 0.02705603, 4.629576E-05, 355.3069, -3.825378, 0
NKF1, 31696831, -0.16, 0.16, 359.66, 0.004889174, -0.01192976, 0.00877301, 0, 0, 0, -0.05732192, 0, 0, 0
NKF2, 31696831, 1, 0, 0, 0, 0, 0, 0, 0, 0, 0, 0, 0, 0
NKF3, 31696831, 0, 0, 0, 0.01, -0.01, 0, 0, 0, 0, 0, 0
NKF4, 31696831, 0, 0, 0, 0, 0, 6.532821E-07, 0, 0, 0, 19, 229, 0, 0
NKF5, 31696831, 0, 0, 0, 0, 0.19, 0.13, 0, 0.19, 0.5, 3.816348E-05, 0.001023226, 0.002045475
NKQ1, 31696831, 0.9999672, -0.005488002, 0.005191567, -0.002924211
AHR2, 31696875, -0.11, 0.16, 359.64, -0.92, 0, 0, 0.9999937, -0.0009560927, 0.001458417, -0.0030764
MOTB, 31696883, 1, 1, 0, 1
RCIN, 31696887, 1500, 1500, 1500, 1500, 1500, 1500, 1500, 1500, 0, 0, 0, 0, 0, 0
RCOU, 31696893, 1101, 1101, 1101, 1101, 0, 0, 0, 0, 0, 0, 0, 0, 0, 0
VIBE, 31696901, 0.02088311, 0.0196372, 0.04146857, 0, 0, 0
CTRL, 31696907, 0.001703647, 0.0001732676, 0.001739082, 0.0001351974, 3.959748E-05
PRX, 31696938, 2, 0.72, 0, 0.76, 0, 3.6, 0, 0.8, 0, 0, 0, 0.72
IMU, 31696946, 0.0007666943, 0.0001885204, 0.0004714996, 0.1079374, 0.09455968, -9.749517, 0, 0, 43.57644, 1, 1, 1000, 1000
IMU, 31736626, -0.0003938766, 0.001062942, -0.0007705311, 0.08843739, 0.111623, -9.772899, 0, 0, 43.57657, 1, 1, 1000, 1000
RFND, 31746634, 0.2, 25, 0, 0
IMU, 31777454, 0.0001694641, -0.0001766167, -0.0003668793, 0.1065849, 0.102825, -9.788214, 0, 0, 43.57657, 1, 1, 1000, 1000
MAG, 31796575, -16, 335, 188, 0, 0, 0, 0, 0, 0, 1, 31796566
RFND, 31796606, 0.2, 25, 0, 0
BARO, 31796641, -0.8985788, 983.6122, 42.59, 0.3585132, 31796, 0, 35
CTUN, 31796653, 0, 0, 0, 0.3012225, 0.05702399, 0.05702399, -0.89, 0, 0.19, 0, 0, 0
ATT, 31796728, 0, -0.16, 0, 0.16, 359.66, 359.67, 0, 1
RATE, 31796733, 0.7336088, 0.03904573, 0.001453329, -0.7435741, 0.01205949, -0.001855151, 4.497663E-05, 0.0486328, -4.227454E-05, 360.8455, 0.04911423, 0
NKF1, 31796741, -0.16, 0.16, 359.66, 0.004983869, -0.01249602, 0.008909765, 0, 0, 0, -0.05702399, 0, 0, 0
NKF2, 31796741, 1, 0, 0, 0, 0, 0, 0, 0, 0, 0, 0, 0, 0
NKF3, 31796741, 0, 0, 0, 0.01, -0.01, 0, 0, 0, 0, 0, 0
NKF4, 31796741, 0, 0, 0, 0, 0, 5.372835E-07, 0, 0, 0, 19, 229, 0, 0
NKF5, 31796741, 0, 0, 0, 0, 0.19, 0.13, 0, 0.19, 0.5, 3.784536E-05, 0.0009914817, 0.001975743
NKQ1, 31796741, 0.999967, -0.005504365, 0.005206309, -0.0029109
AHR2, 31796785, -0.11, 0.16, 359.64, -0.89, 0, 0, 0.9999937, -0.0009638739, 0.001474572, -0.00306319
MOTB, 31796791, 1, 1, 0, 1
RCIN, 31796796, 1500, 1500, 1500, 1500, 1500, 1500, 1500, 1500, 0, 0, 0, 0, 0, 0
RCOU, 31796801, 1101, 1101, 1101, 1101, 0, 0, 0, 0, 0, 0, 0, 0, 0, 0
VIBE, 31796809, 0.02128707, 0.0233741, 0.03529534, 0, 0, 0
CTRL, 31796816, 0.001726121, 0.0001623817, 0.001750431, 0.0001532168, 3.407797E-05
PRX, 31796847, 2, 0.73, 0, 0.75, 0, 3.6, 0, 0.8, 0, 0, 0, 0.73
IMU, 31816618, -0.0002369935, 0.00148591, 0.0002607241, 0.09114556, 0.1045723, -9.776353, 0, 0, 43.57645, 1, 1, 1000, 1000
RFND, 31846631, 0.2, 25, 0, 0
IMU, 31856637, -0.000686367, 0.0003757592, 0.0005306322, 0.09646576, 0.1005153, -9.799474, 0, 0, 43.57663, 1, 1, 1000, 1000
MAG, 31896670, -17, 333, 182, 0, 0, 0, 0, 0, 0, 1, 31896661
RFND, 31896703, 0.2, 25, 0, 0
BARO, 31896849, -0.8533673, 983.6075, 42.59, 0.5386527, 31896, 0, 35
CTUN, 31896865, 0, 0, 0, 0.3012225, 0.056716, 0.056716, -0.85, 0, 0.19, 0, 0, 0
DU32, 31896903, 7, 50356728
ATT, 31897090, 0, -0.16, 0, 0.16, 359.66, 359.67, 0, 1
RATE, 31897097, 0.7422733, -0.007813031, 0.001851468, -0.7509631, -0.06055771, -0.001469123, 0.0007257549, -0.03587624, -4.032722E-06, 347.7381, -0.6201744, 0
NKF1, 31897105, -0.16, 0.16, 359.66, 0.004973788, -0.01336414, 0.008586125, 0, 0, 0, -0.056716, 0, 0, 0
NKF2, 31897105, 1, 0, 0, 0, 0, 0, 0, 0, 0, 0, 0, 0, 0
NKF3, 31897105, 0, 0, 0, 0.01, -0.01, 0, 0, 0, 0, 0, 0
NKF4, 31897105, 0, 0, 0, 0, 0, 4.721435E-07, 0, 0, 0, 19, 229, 0, 0
NKF5, 31897105, 0, 0, 0, 0, 0.19, 0.13, 0, 0.19, 0.5, 3.717991E-05, 0.0009468035, 0.001897475
NKQ1, 31897105, 0.9999669, -0.005516541, 0.005217049, -0.002917643
AHR2, 31897149, -0.11, 0.16, 359.64, -0.85, 0, 0, 0.9999937, -0.0009679515, 0.001486309, -0.003070035
MOTB, 31897220, 1, 1, 0, 1
RCIN, 31897228, 1500, 1500, 1500, 1500, 1500, 1500, 1500, 1500, 0, 0, 0, 0, 0, 0
RCOU, 31897234, 1101, 1101, 1101, 1101, 0, 0, 0, 0, 0, 0, 0, 0, 0, 0
VIBE, 31897243, 0.02021196, 0.02117083, 0.04045777, 0, 0, 0
CTRL, 31897249, 0.001727683, 0.0001615653, 0.001774953, 0.0001742173, 3.321346E-05
PRX, 31897281, 2, 0.72, 0, 0.75, 0, 3.6, 0, 0.8, 0, 0, 0, 0.72
IMU, 31897289, 3.616969E-05, -0.001061079, -0.0006268771, 0.1076393, 0.09524044, -9.781527, 0, 0, 43.57641, 1, 1, 1000, 1000
IMU, 31937382, -0.0001265225, 0.0007904784, 0.0007490247, 0.1023151, 0.09367602, -9.798635, 0, 0, 43.57664, 1, 1, 1000, 1000
RFND, 31946614, 0.2, 25, 0, 0
IMU, 31977120, -0.0002657179, -0.0005709772, 1.149468E-05, 0.1087477, 0.1055531, -9.806288, 0, 0, 43.57645, 1, 1, 1000, 1000
MAG, 31996762, -18, 337, 190, 0, 0, 0, 0, 0, 0, 1, 31996754
RFND, 31996798, 0.2, 25, 0, 0
BARO, 31996835, -0.8251101, 983.6041, 42.59, 0.5315883, 31996, 0, 35
CTUN, 31996848, 0, 0, 0, 0.3012225, 0.0565073, 0.0565073, -0.82, 0, 0.19, 0, 0, 0
ATT, 31996929, 0, -0.16, 0, 0.16, 359.66, 359.67, 0, 1
RATE, 31996934, 0.746481, 0.001023529, 0.001694154, -0.7467754, -0.005625077, -0.001951196, -0.001653447, -0.03291338, 1.584707E-05, 285.114, 1.345634, 0
NKF1, 31996943, -0.16, 0.16, 359.66, 0.005128585, -0.01417872, 0.007039853, 0, 0, 0, -0.0565073, 0, 0, 0
NKF2, 31996943, 1, 0, 0, 0, 0, 0, 0, 0, 0, 0, 0, 0, 0
NKF3, 31996943, 0, 0, 0, 0.01, -0.01, 0, 0, 0, 0, 0, 0
NKF4, 31996943, 0, 0, 0, 0, 0, 4.475341E-07, 0, 0, 0, 19, 229, 0, 0
NKF5, 31996943, 0, 0, 0, 0, 0.19, 0.13, 0, 0.19, 0.5, 3.686123E-05, 0.0009161797, 0.001821864
NKQ1, 31996943, 0.9999669, -0.005527667, 0.005211986, -0.002923301
AHR2, 31996987, -0.11, 0.16, 359.64, -0.82, 0, 0, 0.9999937, -0.0009715918, 0.001481373, -0.003075748
MOTB, 31996993, 1, 1, 0, 1
RCIN, 31996997, 1500, 1500, 1500, 1500, 1500, 1500, 1500, 1500, 0, 0, 0, 0, 0, 0
RCOU, 31997003, 1101, 1101, 1101, 1101, 0, 0, 0, 0, 0, 0, 0, 0, 0, 0
VIBE, 31997012, 0.0208517, 0.01972336, 0.04287164, 0, 0, 0
CTRL, 31997018, 0.001747983, 0.0001553481, 0.001762156, 0.0001721899, 3.03746E-05
PRX, 31997050, 2, 0.72, 0, 0.75, 0, 3.6, 0, 0.8, 0, 0, 0, 0.72
IMU, 32016754, 0.001073569, -0.0003555728, 6.836683E-05, 0.09773575, 0.1126618, -9.798538, 0, 0, 43.57651, 1, 1, 1000, 1000
RFND, 32046700, 0.2, 25, 0, 0
IMU, 32056769, -6.622711E-05, 8.38612E-05, -4.028075E-05, 0.1007298, 0.09534849, -9.796689, 0, 0, 43.57657, 1, 1, 1000, 1000
MAG, 32097051, -15, 338, 187, 0, 0, 0, 0, 0, 0, 1, 32097042
RFND, 32097084, 0.2, 25, 0, 0
BARO, 32097121, -0.8590187, 983.608, 42.59, 0.4060767, 32097, 0, 35
CTUN, 32097134, 0, 0, 0, 0.3012225, 0.05646192, 0.05646192, -0.85, 0, 0.19, 0, 0, 0
ATT, 32097427, 0, -0.16, 0, 0.16, 359.66, 359.67, 0, 1
RATE, 32097433, 0.7579834, -0.04661424, 0.001802948, -0.7564011, -0.01807406, -0.001570621, -0.001058128, 0.006594764, 3.370226E-05, 298.1701, -2.516842, 0
NKF1, 32097442, -0.16, 0.16, 359.66, 0.005130708, -0.01451341, 0.007362224, 0, 0, 0, -0.05646192, 0, 0, 0
NKF2, 32097442, 1, 0, 0, 0, 0, 0, 0, 0, 0, 0, 0, 0, 0
NKF3, 32097442, 0, 0, 0, 0.01, -0.01, 0, 0, 0, 0, 0, 0
NKF4, 32097442, 0, 0, 0, 0, 0, 4.542764E-07, 0, 0, 0, 19, 229, 0, 0
NKF5, 32097442, 0, 0, 0, 0, 0.19, 0.13, 0, 0.19, 0.5, 3.613082E-05, 0.0008656725, 0.001729565
NKQ1, 32097442, 0.9999666, -0.005549571, 0.00523002, -0.002931626
AHR2, 32097489, -0.11, 0.17, 359.64, -0.85, 0, 0, 0.9999937, -0.0009859719, 0.001499764, -0.003084168
MOTB, 32097496, 1, 1, 0, 1
RCIN, 32097500, 1500, 1500, 1500, 1500, 1500, 1500, 1500, 1500, 0, 0, 0, 0, 0, 0
RCOU, 32097506, 1101, 1101, 1101, 1101, 0, 0, 0, 0, 0, 0, 0, 0, 0, 0
VIBE, 32097515, 0.0192582, 0.02198871, 0.0411422, 0, 0, 0
CTRL, 32097521, 0.00177429, 0.0001647706, 0.001784323, 0.0001673596, 3.192236E-05
PRX, 32097553, 2, 0.72, 0, 0.76, 0, 3.6, 0, 0.8, 0, 0, 0, 0.72
IMU, 32097559, -0.0006405782, -0.0003196275, 0.0001143797, 0.1075675, 0.1165869, -9.762253, 0, 0, 43.57644, 1, 1, 1000, 1000
IMU, 32136772, -3.259105E-05, -8.95734E-05, -0.0005684126, 0.1079135, 0.1050984, -9.776357, 0, 0, 43.57664, 1, 1, 1000, 1000
RFND, 32146682, 0.2, 25, 0, 0
IMU, 32176767, -8.520098E-05, -0.0007267038, -0.001080232, 0.1099558, 0.1101819, -9.792206, 0, 0, 43.57641, 1, 1, 1000, 1000
MAG, 32197284, -17, 335, 185, 0, 0, 0, 0, 0, 0, 1, 32197275
RFND, 32197319, 0.2, 25, 0, 0
BARO, 32197356, -0.7516414, 983.5961, 42.59, 0.2769331, 32197, 0, 35
CTUN, 32197370, 0, 0, 0, 0.3012225, 0.05626512, 0.05626512, -0.75, 0, 0.19, 0, 0, 0
ATT, 32197449, 0, -0.16, 0, 0.16, 359.65, 359.66, 0, 1
RATE, 32197455, 0.7631526, -0.06949924, 0.002120744, -0.7405215, -0.04246743, -0.001651752, -0.001190903, -0.009162541, 8.828599E-05, 339.776, -1.940441, 0
NKF1, 32197463, -0.16, 0.16, 359.65, 0.005640748, -0.01508363, 0.008389531, 0, 0, 0, -0.05626512, 0, 0, 0
NKF2, 32197463, 1, 0, 0, 0, 0, 0, 0, 0, 0, 0, 0, 0, 0
NKF3, 32197463, 0, 0, 0, 0.01, -0.01, 0, 0, 0, 0, 0, 0
NKF4, 32197463, 0, 0, 0, 0, 0, 4.748884E-07, 0, 0, 0, 19, 229, 0, 0
NKF5, 32197463, 0, 0, 0, 0, 0.19, 0.13, 0, 0.19, 0.5, 3.605253E-05, 0.0008416733, 0.001660378
NKQ1, 32197463, 0.9999666, -0.00556157, 0.00520159, -0.002957204
AHR2, 32197510, -0.11, 0.16, 359.64, -0.75, 0, 0, 0.9999936, -0.0009897661, 0.001472336, -0.003109708
MOTB, 32197517, 1, 1, 0, 1
RCIN, 32197522, 1500, 1500, 1500, 1500, 1500, 1500, 1500, 1500, 0, 0, 0, 0, 0, 0
RCOU, 32197527, 1101, 1101, 1101, 1101, 0, 0, 0, 0, 0, 0, 0, 0, 0, 0
VIBE, 32197535, 0.02348861, 0.01951238, 0.03963629, 0, 0, 0
CTRL, 32197542, 0.001786097, 0.0001714137, 0.001754009, 0.0001502027, 4.3286E-05
PRX, 32197574, 2, 0.72, 0, 0.75, 0, 3.6, 0, 0.8, 0, 0, 0, 0.72
IMU, 32216890, 0.0003807556, 0.0004597633, -0.0002865394, 0.1128646, 0.1014456, -9.789186, 0, 0, 43.57661, 1, 1, 1000, 1000
RFND, 32247543, 0.2, 25, 0, 0
IMU, 32257564, 0.0001745197, 0.0004592007, 0.0009883015, 0.1010402, 0.09531198, -9.780104, 0, 0, 43.57645, 1, 1, 1000, 1000
MAG, 32297552, -14, 337, 185, 0, 0, 0, 0, 0, 0, 1, 32297543
RFND, 32297585, 0.2, 25, 0, 0
BARO, 32297909, -0.7572928, 983.5967, 42.6, 0.2273214, 32297, 0, 35
CTUN, 32297924, 0, 0, 0, 0.3012225, 0.05617552, 0.05617552, -0.75, 0, 0.19, 0, 0, 0
ATT, 32298008, 0, -0.17, 0, 0.16, 359.65, 359.66, 0, 1
RATE, 32298013, 0.7686277, -0.03441044, 0.001898019, -0.7402186, -0.04064673, -0.00149996, -0.001813856, -0.03511987, 1.672304E-05, 311.8903, 1.603222, 0
NKF1, 32298021, -0.17, 0.16, 359.65, 0.00625996, -0.01607912, 0.007700996, 0, 0, 0, -0.05617552, 0, 0, 0
NKF2, 32298021, 1, 0, 0, 0, 0, 0, 0, 0, 0, 0, 0, 0, 0
NKF3, 32298021, 0, 0, 0, 0.01, -0.01, 0, 0, 0, 0, 0, 0
NKF4, 32298021, 0, 0, 0, 0, 0, 5.261451E-07, 0, 0, 0, 19, 229, 0, 0
NKF5, 32298021, 0, 0, 0, 0, 0.19, 0.13, 0, 0.19, 0.5, 3.545908E-05, 0.0007861391, 0.001559324
NKQ1, 32298021, 0.9999666, -0.005571666, 0.005200764, -0.002952348
AHR2, 32298069, -0.11, 0.16, 359.64, -0.75, 0, 0, 0.9999936, -0.000992351, 0.001473701, -0.003104923
MOTB, 32298076, 1, 1, 0, 1
RCIN, 32298080, 1500, 1500, 1500, 1500, 1500, 1500, 1500, 1500, 0, 0, 0, 0, 0, 0
RCOU, 32298086, 1101, 1101, 1101, 1101, 0, 0, 0, 0, 0, 0, 0, 0, 0, 0
VIBE, 32298095, 0.0200795, 0.02325997, 0.03801538, 0, 0, 0
CTRL, 32298101, 0.001800229, 0.0001667959, 0.001754032, 0.0001417744, 4.478682E-05
PRX, 32298133, 2, 0.72, 0, 0.75, 0, 3.6, 0, 0.8, 0, 0, 0, 0.72
IMU, 32298140, -0.0004278309, -0.0007136097, -0.0006136773, 0.1088236, 0.1011858, -9.803619, 0, 0, 43.57654, 1, 1, 1000, 1000
IMU, 32337624, 0.0007225033, 0.000914281, 0.0005422308, 0.09080915, 0.09470849, -9.771384, 0, 0, 43.57651, 1, 1, 1000, 1000
RFND, 32347933, 0.2, 25, 0, 0
IMU, 32377780, 0.0008964236, 0.0005395542, -0.0001158306, 0.1047376, 0.09908812, -9.7988, 0, 0, 43.57648, 1, 1, 1000, 1000
MAG, 32397440, -20, 336, 195, 0, 0, 0, 0, 0, 0, 1, 32397431
RFND, 32397473, 0.2, 25, 0, 0
BARO, 32397509, -0.6216583, 983.5818, 42.6, 0.320411, 32397, 0, 35
CTUN, 32397521, 0, 0, 0, 0.3012225, 0.05596985, 0.05596985, -0.62, 0, 0.19, 0, 0, 0
ATT, 32397596, 0, -0.16, 0, 0.16, 359.66, 359.66, 0, 1
RATE, 32397601, 0.7623401, -0.03462929, 0.002003135, -0.7413591, -0.05210115, -0.001391263, -0.0002269462, -0.02198028, -1.683716E-05, 304.3961, 0.866127, 0
NKF1, 32397609, -0.16, 0.16, 359.65, 0.006079778, -0.017302, 0.007515953, 0, 0, 0, -0.05596985, 0, 0, 0
NKF2, 32397609, 1, 0, 0, 0, 0, 0, 0, 0, 0, 0, 0, 0, 0
NKF3, 32397609, 0, 0, 0, 0.01, -0.01, 0, 0, 0, 0, 0, 0
NKF4, 32397609, 0, 0, 0, 0, 0, 5.706622E-07, 0, 0, 0, 19, 229, 0, 0
NKF5, 32397609, 0, 0, 0, 0, 0.19, 0.13, 0, 0.19, 0.5, 3.5506E-05, 0.0007730813, 0.001507467
NKQ1, 32397609, 0.9999667, -0.005555945, 0.005199272, -0.002945129
AHR2, 32397653, -0.11, 0.16, 359.64, -0.62, 0, 0, 0.9999937, -0.0009709551, 0.001477315, -0.003097868
MOTB, 32397661, 1, 1, 0, 1
RCIN, 32397665, 1500, 1500, 1500, 1500, 1500, 1500, 1500, 1500, 0, 0, 0, 0, 0, 0
RCOU, 32397671, 1101, 1101, 1101, 1101, 0, 0, 0, 0, 0, 0, 0, 0, 0, 0
VIBE, 32397679, 0.02188913, 0.02272421, 0.03560268, 0, 0, 0
CTRL, 32397686, 0.001782878, 0.0001606047, 0.001753241, 0.0001571516, 4.066527E-05
PRX, 32397718, 2, 0.72, 0, 0.75, 0, 3.6, 0, 0.8, 0, 0, 0, 0.72
IMU, 32417498, 9.08911E-05, 0.0004671649, 0.0008912925, 0.1119016, 0.1132318, -9.795825, 0, 0, 43.57663, 1, 1, 1000, 1000
RFND, 32447400, 0.2, 25, 0, 0
IMU, 32457466, -7.190836E-05, -0.0005045891, 0.0006075042, 0.09754863, 0.1003345, -9.777217, 0, 0, 43.5764, 1, 1, 1000, 1000
MAG, 32497490, -7, 335, 186, 0, 0, 0, 0, 0, 0, 1, 32497482
RFND, 32497521, 0.2, 25, 0, 0
BARO, 32497556, -0.5934011, 983.5793, 42.61, 0.4937315, 32497, 0, 35
CTUN, 32497569, 0, 0, 0, 0.3012225, 0.0560465, 0.0560465, -0.59, 0, 0.19, 0, 0, 0
ATT, 32497651, 0, -0.16, 0, 0.16, 359.66, 359.66, 0, 1
RATE, 32497657, 0.7626803, -0.01987864, 0.001746164, -0.7410086, -0.005373122, -0.001675546, -0.0006271072, 0.02446156, 1.63973E-06, 297.8087, -0.1274109, 0
NKF1, 32497664, -0.16, 0.16, 359.65, 0.006348884, -0.01774246, 0.007353301, 0, 0, 0, -0.0560465, 0, 0, 0
NKF2, 32497664, 1, 0, 0, 0, 0, 0, 0, 0, 0, 0, 0, 0, 0
NKF3, 32497664, 0, 0, 0, 0.01, -0.01, 0, 0, 0, 0, 0, 0
NKF4, 32497664, 0, 0, 0, 0, 0, 6.565452E-07, 0, 0, 0, 19, 229, 0, 0
NKF5, 32497664, 0, 0, 0, 0, 0.19, 0.13, 0, 0.19, 0.5, 3.495018E-05, 0.0007111214, 0.001385493
NKQ1, 32497664, 0.9999668, -0.005556119, 0.005197557, -0.002940522
AHR2, 32497709, -0.11, 0.16, 359.64, -0.59, 0, 0, 0.9999937, -0.0009648835, 0.001479626, -0.003093363
MOTB, 32497716, 1, 1, 0, 1
RCIN, 32497720, 1500, 1500, 1500, 1500, 1500, 1500, 1500, 1500, 0, 0, 0, 0, 0, 0
RCOU, 32497726, 1101, 1101, 1101, 1101, 0, 0, 0, 0, 0, 0, 0, 0, 0, 0
VIBE, 32497735, 0.01989041, 0.02185211, 0.0376574, 0, 0, 0
CTRL, 32497741, 0.001789521, 0.0001505102, 0.001746641, 0.0001441047, 3.662448E-05
PRX, 32497772, 2, 0.72, 0, 0.74, 0, 3.6, 0, 0.8, 0, 0, 0, 0.72
IMU, 32497779, -0.0001741481, -9.799537E-05, 0.0004262145, 0.1091778, 0.09994209, -9.786291, 0, 0, 43.57661, 1, 1, 1000, 1000
IMU, 32537428, 0.000253709, 0.0002997048, -0.0004874301, 0.09720892, 0.1013198, -9.788402, 0, 0, 43.57644, 1, 1, 1000, 1000
RFND, 32547389, 0.2, 25, 0, 0
IMU, 32577448, -0.001663438, 9.192356E-05, -3.228306E-05, 0.09946507, 0.1034696, -9.784199, 0, 0, 43.5766, 1, 1, 1000, 1000
MAG, 32597384, -16, 341, 188, 0, 0, 0, 0, 0, 0, 1, 32597376
RFND, 32597415, 0.2, 25, 0, 0
BARO, 32597450, -0.644264, 983.5845, 42.61, 0.5915409, 32597, 0, 35
CTUN, 32597462, 0, 0, 0, 0.3012225, 0.05606638, 0.05606638, -0.64, 0, 0.19, 0, 0, 0
ATT, 32597534, 0, -0.17, 0, 0.16, 359.66, 359.67, 0, 1
RATE, 32597539, 0.7659917, 0.006546485, 0.001543524, -0.74828, -0.04849265, -0.001402537, -0.0009324228, 0.06304878, -7.27845E-06, 233.0145, 1.563644, 0
NKF1, 32597547, -0.17, 0.16, 359.66, 0.006135489, -0.01837431, 0.005753443, 0, 0, 0, -0.05606638, 0, 0, 0
NKF2, 32597547, 1, 0, 0, 0, 0, 0, 0, 0, 0, 0, 0, 0, 0
NKF3, 32597547, 0, 0, 0, 0.01, -0.02, 0, 0, 0, 0, 0, 0
NKF4, 32597547, 0, 0, 0, 0, 0, 7.363085E-07, 0, 0, 0, 19, 229, 0, 0
NKF5, 32597547, 0, 0, 0, 0, 0.19, 0.13, 0, 0.19, 0.5, 3.441441E-05, 0.0007037655, 0.001453095
NKQ1, 32597547, 0.9999667, -0.005567442, 0.005215987, -0.002933066
AHR2, 32597589, -0.11, 0.17, 359.64, -0.64, 0, 0, 0.9999937, -0.0009668123, 0.00149894, -0.003086043
MOTB, 32597596, 1, 1, 0, 1
RCIN, 32597600, 1500, 1500, 1500, 1500, 1500, 1500, 1500, 1500, 0, 0, 0, 0, 0, 0
RCOU, 32597606, 1101, 1101, 1101, 1101, 0, 0, 0, 0, 0, 0, 0, 0, 0, 0
VIBE, 32597614, 0.02055294, 0.02095602, 0.03463981, 0, 0, 0
CTRL, 32597620, 0.001802081, 0.0001778765, 0.001775363, 0.0001569395, 3.2199E-05
PRX, 32597652, 2, 0.73, 0, 0.75, 0, 3.6, 0, 0.8, 0, 0, 0, 0.73
IMU, 32617464, -0.0001742451, -0.0008844261, 0.0006011039, 0.1015325, 0.1018873, -9.779389, 0, 0, 43.57654, 1, 1, 1000, 1000
RFND, 32647401, 0.2, 25, 0, 0
IMU, 32657418, -0.0004386594, -0.0003280015, 0.0001887206, 0.1069162, 0.1153717, -9.786039, 0, 0, 43.57648, 1, 1, 1000, 1000
MAG, 32697531, -19, 337, 182, 0, 0, 0, 0, 0, 0, 1, 32697522
RFND, 32697563, 0.2, 25, 0, 0
BARO, 32697598, -0.6499155, 983.5853, 42.61, 0.4556473, 32697, 0, 35
CTUN, 32697611, 0, 0, 0, 0.3012225, 0.05622835, 0.05622835, -0.64, 0, 0.19, 0, 0, 0
ATT, 32697683, 0, -0.17, 0, 0.16, 359.66, 359.67, 0, 1
RATE, 32697688, 0.7758342, 0.02729036, 0.001383255, -0.7434225, 0.01151376, -0.002089491, -0.0008898143, 0.04503698, -5.195488E-05, 239.928, 0.1645088, 0
NKF1, 32697696, -0.17, 0.16, 359.66, 0.006820496, -0.01868707, 0.005924148, 0, 0, 0, -0.05622835, 0, 0, 0
NKF2, 32697696, 1, 0, 0, 0, 0, 0, 0, 0, 0, 0, 0, 0, 0
NKF3, 32697696, 0, 0, 0, 0.01, -0.02, 0, 0, 0, 0, 0, 0
NKF4, 32697696, 0, 0, 0, 0, 0, 8.361553E-07, 0, 0, 0, 19, 229, 0, 0
NKF5, 32697696, 0, 0, 0, 0, 0.19, 0.13, 0, 0.19, 0.5, 3.460711E-05, 0.000645436, 0.001224181
NKQ1, 32697696, 0.9999667, -0.005583568, 0.005203845, -0.002923858
AHR2, 32697740, -0.11, 0.17, 359.64, -0.64, 0, 0, 0.9999937, -0.0009749195, 0.001487947, -0.003076841
MOTB, 32697747, 1, 1, 0, 1
RCIN, 32697751, 1500, 1500, 1500, 1500, 1500, 1500, 1500, 1500, 0, 0, 0, 0, 0, 0
RCOU, 32697757, 1101, 1101, 1101, 1101, 0, 0, 0, 0, 0, 0, 0, 0, 0, 0
VIBE, 32697765, 0.02175821, 0.02303245, 0.0395734, 0, 0, 0
CTRL, 32697772, 0.001826235, 0.0001601628, 0.001746658, 0.0001472019, 3.081926E-05
PRX, 32697803, 2, 0.73, 0, 0.75, 0, 3.6, 0, 0.8, 0, 0, 0, 0.73
IMU, 32697810, 0.0006491542, 0.0001967056, 0.0007853231, 0.10409, 0.1080803, -9.789145, 0, 0, 43.57661, 1, 1, 1000, 1000
IMU, 32737478, -0.001294817, 0.0003136366, 0.0001294253, 0.09623044, 0.09514326, -9.80732, 0, 0, 43.57641, 1, 1, 1000, 1000
RFND, 32747483, 0.2, 25, 0, 0
IMU, 32777491, -0.0005969274, -0.001076729, 0.001185954, 0.1096519, 0.1000249, -9.774018, 0, 0, 43.57664, 1, 1, 1000, 1000
EV, 32789653, 57
MAG, 32797408, -12, 338, 189, 0, 0, 0, 0, 0, 0, 1, 32797399
RFND, 32797438, 0.2, 25, 0, 0
BARO, 32797473, -0.7007784, 983.5908, 42.61, 0.1147949, 32797, 0, 35
CTUN, 32797486, 0, 0, 0, 0.3012225, 0.05639579, 0.05639579, -0.7, 0, 0.19, 0, 0, 0
ATT, 32797557, 0, -0.17, 0, 0.16, 359.66, 359.67, 0, 1
RATE, 32797562, 0.7991787, 0.04235431, 0.001591173, -0.745389, 0.0290014, -0.001991612, -0.001146067, 0.0617823, -8.100164E-05, 237.687, -0.4358292, 0
NKF1, 32797570, -0.17, 0.16, 359.66, 0.007196373, -0.01959362, 0.005868814, 0, 0, 0, -0.05639579, 0, 0, 0
NKF2, 32797570, 1, 0, 0, 0, 0, 0, 0, 0, 0, 0, 0, 0, 0
NKF3, 32797570, 0, 0, 0, 0.01, -0.02, 0, 0, 0, 0, 0, 0
NKF4, 32797570, 0, 0, 0, 0, 0, 9.462573E-07, 0, 0, 0, 19, 229, 0, 0
NKF5, 32797570, 0, 0, 0, 0, 0.19, 0.13, 0, 0.19, 0.5, 3.385557E-05, 0.0006186758, 0.001239385
NKQ1, 32797570, 0.9999664, -0.005629885, 0.005208437, -0.002902715
AHR2, 32797615, -0.11, 0.17, 359.64, -0.7, 0, 0, 0.9999937, -0.001016466, 0.001494546, -0.003055652
MOTB, 32797622, 1, 1, 0, 1
RCIN, 32797626, 1500, 1500, 1500, 1500, 1500, 1500, 1500, 1500, 0, 0, 0, 0, 0, 0
RCOU, 32797632, 1102, 1102, 1102, 1102, 0, 0, 0, 0, 0, 0, 0, 0, 0, 0
VIBE, 32797641, 0.02425798, 0.02229831, 0.03574153, 0, 0, 0
CTRL, 32797648, 0.001872803, 0.0001865228, 0.001757381, 0.0001650508, 3.632608E-05
PRX, 32797679, 2, 0.72, 0, 0.75, 0, 3.6, 0, 0.8, 0, 0, 0, 0.72
IMU, 32817540, -0.0005982402, -0.0004012989, -0.001322211, 0.09500672, 0.09408763, -9.795506, 0, 0, 43.57644, 1, 1, 1000, 1000
RFND, 32847401, 0.2, 25, 0, 0
IMU, 32857420, 0.001038467, 0.0008660231, 0.0001156095, 0.1135009, 0.1021122, -9.763822, 0, 0, 43.5766, 1, 1, 1000, 1000
MAG, 32897422, -16, 337, 185, 0, 0, 0, 0, 0, 0, 1, 32897414
RFND, 32897453, 0.2, 25, 0, 0
BARO, 32897487, -0.644264, 983.5845, 42.62, -0.1518825, 32897, 0, 35
CTUN, 32897499, 0, 0, 0, 0.3012225, 0.05646722, 0.05646722, -0.64, 0, 0.19, 0, 0, 0
DU32, 32897538, 7, 33579512
ATT, 32897635, 0, -0.17, 0, 0.16, 359.66, 359.67, 0, 1
RATE, 32897641, 0.8011999, 0.001096856, 0.001989505, -0.7538328, 0.04000245, -0.001847031, -0.001158949, -0.05223824, 3.399515E-06, 267.6129, -0.2234459, 0
NKF1, 32897649, -0.17, 0.16, 359.66, 0.007320575, -0.02062173, 0.006607724, 0, 0, 0, -0.05646722, 0, 0, 0
NKF2, 32897649, 1, 0, 0, 0, 0, 0, 0, 0, 0, 0, 0, 0, 0
NKF3, 32897649, 0, 0, 0, 0.01, -0.02, 0, 0, 0, 0, 0, 0
NKF4, 32897649, 0, 0, 0, 0, 0, 1.060947E-06, 0, 0, 0, 19, 229, 0, 0
NKF5, 32897649, 0, 0, 0, 0, 0.19, 0.13, 0, 0.19, 0.5, 3.422084E-05, 0.0005889022, 0.001090767
NKQ1, 32897649, 0.9999662, -0.00563091, 0.005223668, -0.002927692
AHR2, 32897694, -0.11, 0.17, 359.64, -0.64, 0, 0, 0.9999936, -0.001011806, 0.001511856, -0.003080791
MOTB, 32897701, 1, 1, 0, 1
RCIN, 32897706, 1500, 1500, 1500, 1500, 1500, 1500, 1500, 1500, 0, 0, 0, 0, 0, 0
RCOU, 32897711, 1126, 1126, 1126, 1126, 0, 0, 0, 0, 0, 0, 0, 0, 0, 0
VIBE, 32897720, 0.02158782, 0.02139949, 0.0344576, 0, 0, 0
CTRL, 32897725, 0.001874624, 0.0001786002, 0.00177526, 0.0001465573, 3.787055E-05
PRX, 32897758, 2, 0.73, 0, 0.75, 0, 3.6, 0, 0.8, 0, 0, 0, 0.73
IMU, 32897765, 0.0001919882, 0.0006938919, -0.0009124498, 0.1026356, 0.09996681, -9.785346, 0, 0, 43.57651, 1, 1, 1000, 1000
IMU, 32937476, 0.0008001897, 0.0005955415, -0.0005752878, 0.1041695, 0.1012223, -9.771526, 0, 0, 43.57645, 1, 1, 1000, 1000
RFND, 32947412, 0.2, 25, 0, 0
IMU, 32977455, 0.0005417113, 0.001128226, 0.0004763303, 0.1048651, 0.1015573, -9.799161, 0, 0, 43.57661, 1, 1, 1000, 1000
MAG, 32997392, -19, 341, 186, 0, 0, 0, 0, 0, 0, 1, 32997384
RFND, 32997420, 0.2, 25, 0, 0
BARO, 32997455, -0.5538411, 983.5745, 42.62, -0.1306895, 32997, 0, 35
CTUN, 32997467, 0, 0, 0, 0.3012225, 0.05655066, 0.05655066, -0.55, 0, 0.19, 0, 0, 0
ATT, 32997535, 0, -0.17, 0, 0.17, 359.66, 359.67, 0, 1
RATE, 32997540, 0.8018304, 0.006600135, 0.00175197, -0.7688287, -0.009272771, -0.001670122, -0.00118495, 0.0424002, -1.399152E-05, 279.6882, -1.813602, 0
NKF1, 32997548, -0.17, 0.17, 359.66, 0.007780469, -0.02170689, 0.006905882, 0, 0, 0, -0.05655066, 0, 0, 0
NKF2, 32997548, 1, 0, 0, 0, 0, 0, 0, 0, 0, 0, 0, 0, 0
NKF3, 32997548, 0, 0, 0, 0.01, -0.02, 0, 0, 0, 0, 0, 0
NKF4, 32997548, 0, 0, 0, 0, 0, 1.207263E-06, 0, 0, 0, 19, 229, 0, 0
NKF5, 32997548, 0, 0, 0, 0, 0.19, 0.13, 0, 0.19, 0.5, 3.327241E-05, 0.0005416534, 0.001036601
NKQ1, 32997548, 0.9999661, -0.00563382, 0.005253269, -0.00292464
AHR2, 32997592, -0.11, 0.17, 359.64, -0.55, 0, 0, 0.9999936, -0.001006211, 0.001544382, -0.003077941
MOTB, 32997599, 1, 1, 0, 1
RCIN, 32997603, 1500, 1500, 1500, 1500, 1500, 1500, 1500, 1500, 0, 0, 0, 0, 0, 0
RCOU, 32997609, 1150, 1150, 1150, 1150, 0, 0, 0, 0, 0, 0, 0, 0, 0, 0
VIBE, 32997618, 0.01968688, 0.02174404, 0.04076044, 0, 0, 0
CTRL, 32997624, 0.001883037, 0.0001672011, 0.001810106, 0.0001457573, 3.963538E-05
PRX, 32997655, 2, 0.72, 0, 0.75, 0, 3.6, 0, 0.8, 0, 0, 0, 0.72
IMU, 33017622, -0.0003532968, -0.001344878, 0.0001344602, 0.1083739, 0.09504382, -9.794168, 0, 0, 43.57641, 1, 1, 1000, 1000
RFND, 33047407, 0.2, 25, 0, 0
IMU, 33057441, -0.0008853456, -0.0009243428, -0.0001370025, 0.09855455, 0.1029375, -9.79163, 0, 0, 43.57664, 1, 1, 1000, 1000
MAG, 33097410, -16, 336, 188, 0, 0, 0, 0, 0, 0, 1, 33097401
RFND, 33097442, 0.2, 25, 0, 0
BARO, 33097477, -0.5425382, 983.5736, 42.62, 0.1377538, 33097, 0, 35
CTUN, 33097489, 0, 0, 0, 0.3012225, 0.05654025, 0.05654025, -0.54, 0, 0.19, 0, 0, 0
ATT, 33097559, 0, -0.18, 0, 0.16, 359.66, 359.66, 0, 1
RATE, 33097564, 0.8214481, -0.06560396, 0.002449529, -0.7530992, -0.04054531, -0.001575872, -0.001188178, -0.04697985, 1.930395E-05, 253.6273, 0.7764816, 0
NKF1, 33097572, -0.18, 0.16, 359.65, 0.007516458, -0.023843, 0.006262401, 0, 0, 0, -0.05654025, 0, 0, 0
NKF2, 33097572, 1, 0, 0, 0, 0, 0, 0, 0, 0, 0, 0, 0, 0
NKF3, 33097572, 0, 0, 0, 0.01, -0.02, 0, 0, 0, 0, 0, 0
NKF4, 33097572, 0, 0, 0, 0, 0, 1.336054E-06, 0, 0, 0, 19, 229, 0, 0
NKF5, 33097572, 0, 0, 0, 0, 0.19, 0.13, 0, 0.19, 0.5, 3.383288E-05, 0.0005430296, 0.000982882
NKQ1, 33097572, 0.9999659, -0.005671316, 0.005223605, -0.002942193
AHR2, 33097614, -0.11, 0.17, 359.64, -0.54, 0, 0, 0.9999936, -0.001034242, 0.001517339, -0.00309535
MOTB, 33097622, 1, 1, 0, 1
RCIN, 33097626, 1500, 1500, 1500, 1500, 1500, 1500, 1500, 1500, 0, 0, 0, 0, 0, 0
RCOU, 33097631, 1174, 1174, 1174, 1174, 0, 0, 0, 0, 0, 0, 0, 0, 0, 0
VIBE, 33097640, 0.02457918, 0.04592897, 0.03568415, 0, 0, 0
CTRL, 33097647, 0.001907866, 0.0001569565, 0.001782552, 0.0001528967, 3.442081E-05
PRX, 33097678, 2, 0.72, 0, 0.75, 0, 3.6, 0, 0.8, 0, 0, 0, 0.72
IMU, 33097684, -0.0009722097, -0.0007119721, -0.0008206734, 0.09052353, 0.0926732, -9.795534, 0, 0, 43.57644, 1, 1, 1000, 1000
IMU, 33137505, -0.001050527, -0.001010098, 0.002251233, 0.1121077, 0.08989938, -9.768162, 0, 0, 43.57654, 1, 1, 1000, 1000
RFND, 33147500, 0.2, 25, 0, 0
IMU, 33177462, -0.0005629254, 0.0006247489, 0.001932914, 0.08899152, 0.07881473, -9.782393, 0, 0, 43.57651, 1, 1, 1000, 1000
MAG, 33197390, -16, 343, 189, 0, 0, 0, 0, 0, 0, 1, 33197382
RFND, 33197422, 0.2, 25, 0, 0
BARO, 33197456, -0.5651439, 983.5761, 42.63, 0.3885364, 33197, 0, 35
CTUN, 33197468, 0, 0, 0, 0.3012225, 0.05668866, 0.05668866, -0.56, 0, 0.19, 0, 0, 0
ATT, 33197542, 0, -0.18, 0, 0.16, 359.63, 359.64, 0, 1
RATE, 33197547, 0.8265055, 0.1214114, 0.001378369, -0.7475719, 0.07384674, -0.002462228, -0.001189013, -1.653775, 0.000929297, 262.2657, -3.98016, 0
NKF1, 33197554, -0.18, 0.16, 359.63, 0.007815328, -0.02372282, 0.006475696, 0, 0, 0, -0.05668866, 0, 0, 0
NKF2, 33197554, 1, 0, 0, 0, 0, 0, 0, 0, 0, 0, 0, 0, 0
NKF3, 33197554, 0, 0, 0, 0.01, -0.03, 0, 0, 0, 0, 0, 0
NKF4, 33197554, 0, 0, 0, 0, 0, 1.523015E-06, 0, 0, 0, 19, 229, 0, 0
NKF5, 33197554, 0, 0, 0, 0, 0.19, 0.13, 0, 0.19, 0.5, 3.259768E-05, 0.0004762574, 0.0008573013
NKQ1, 33197554, 0.9999652, -0.005670696, 0.005224098, -0.003184991
AHR2, 33197599, -0.11, 0.17, 359.61, -0.56, 0, 0, 0.9999927, -0.001021039, 0.001518789, -0.003338245
MOTB, 33197606, 1, 1, 0, 1
RCIN, 33197610, 1500, 1500, 1500, 1500, 1500, 1500, 1500, 1500, 0, 0, 0, 0, 0, 0
RCOU, 33197616, 1198, 1198, 1198, 1198, 0, 0, 0, 0, 0, 0, 0, 0, 0, 0
VIBE, 33197625, 0.2030403, 0.1440216, 0.1294275, 0, 0, 0
CTRL, 33197631, 0.001929216, 0.0002287389, 0.001757288, 0.0001789559, 0.0001630587
PRX, 33197663, 2, 0.72, 0, 0.75, 0, 3.6, 0, 0.8, 0, 0, 0, 0.72
IMU, 33217939, -0.001561985, -0.001606775, 0.0252315, 0.2388084, 0.1038342, -9.821361, 0, 0, 43.57648, 1, 1, 1000, 1000
RFND, 33247616, 0.2, 25, 0, 0
IMU, 33257427, -0.0003041497, -0.002523064, 0.002535803, 0.1661431, 0.05838443, -9.784411, 0, 0, 43.57661, 1, 1, 1000, 1000
MAG, 33297765, -16, 342, 185, 0, 0, 0, 0, 0, 0, 1, 33297756
RFND, 33297798, 0.2, 25, 0, 0
BARO, 33297835, -0.5990525, 983.5799, 42.63, 0.3443846, 33297, 0, 35
CTUN, 33297848, 0, 0, 0, 0.3012225, 0.05668809, 0.05668809, -0.59, 0, 0.19, 0, 0, 0
ATT, 33297921, 0, -0.18, 0, 0.17, 359.65, 359.66, 0, 1
RATE, 33297926, 0.8133535, 0.06056371, 0.001221008, -0.7670457, 0.04329332, -0.001604959, -0.001197696, -0.1841474, -0.0002312894, 290.2728, -1.066208, 0
NKF1, 33297935, -0.18, 0.17, 359.65, 0.007866644, -0.02507782, 0.00716723, 0, 0, 0, -0.0566881, 0, 0, 0
NKF2, 33297935, 1, 0, 0, 0, 0, 0, 0, 0, 0, 0, 0, 0, 0
NKF3, 33297935, 0, 0, 0, 0.02, -0.03, 0, 0, 0, 0, 0, 0
NKF4, 33297935, 0, 0, 0, 0, 0, 1.671281E-06, 0, 0, 0, 19, 229, 0, 0
NKF5, 33297935, 0, 0, 0, 0, 0.19, 0.13, 0, 0.19, 0.5, 3.126247E-05, 0.0004914358, 0.001032888
NKQ1, 33297935, 0.9999658, -0.005653649, 0.005250843, -0.00299112
AHR2, 33297980, -0.11, 0.17, 359.63, -0.59, 0, 0, 0.9999934, -0.000993547, 0.001547825, -0.003144638
MOTB, 33297986, 1, 1, 0, 1
RCIN, 33297990, 1500, 1500, 1500, 1500, 1500, 1500, 1500, 1500, 0, 0, 0, 0, 0, 0
RCOU, 33297996, 1221, 1226, 1223, 1224, 0, 0, 0, 0, 0, 0, 0, 0, 0, 0
VIBE, 33298005, 0.3552724, 0.4075522, 0.2420907, 0, 0, 0
CTRL, 33298011, 0.001931965, 0.0004190696, 0.001815348, 0.0003777553, 0.0003081298
PRX, 33298044, 2, 0.73, 0, 0.75, 0, 3.6, 0, 0.8, 0, 0, 0, 0.73
IMU, 33298050, 0.001229686, 0.0007511864, -0.003214698, 0.0920127, 0.1235432, -9.776698, 0, 0, 43.5764, 1, 1, 1000, 1000
IMU, 33337485, -0.003133582, 0.003231396, -0.005078346, 0.1028256, 0.03530383, -9.807334, 0, 0, 43.57664, 1, 1, 1000, 1000
RFND, 33347533, 0.2, 25, 0, 0
IMU, 33377448, 0.005849339, -0.002327491, -0.005510492, 0.1241304, 0.01291474, -9.822659, 0, 0, 43.57644, 1, 1, 1000, 1000
MAG, 33397494, -16, 346, 190, 0, 0, 0, 0, 0, 0, 1, 33397485
RFND, 33397527, 0.2, 25, 0, 0
BARO, 33397563, -0.5877497, 983.5787, 42.63, 0.07417519, 33397, 0, 35
CTUN, 33397576, 0, 0, 0, 0.3012225, 0.05688582, 0.05688582, -0.58, 0, 0.19, 0, 0, 0
ATT, 33397653, 0, -0.18, 0, 0.16, 359.65, 359.66, 0, 1
RATE, 33397659, 0.8153075, -0.199664, 0.003666608, -0.7492181, 0.08052385, -0.002598382, -0.001172018, -0.3209276, 0.0003188716, 191.8831, 3.164673, 0
NKF1, 33397667, -0.18, 0.16, 359.65, 0.008074405, -0.02708153, 0.004737855, 0, 0, 0, -0.05688582, 0, 0, 0
NKF2, 33397667, 1, 0, 0, 0, 0, 0, 0, 0, 0, 0, 0, 0, 0
NKF3, 33397667, 0, 0, 0, 0.02, -0.03, 0, 0, 0, 0, 0, 0
NKF4, 33397667, 0, 0, 0, 0, 0, 1.899252E-06, 0, 0, 0, 19, 229, 0, 0
NKF5, 33397667, 0, 0, 0, 0, 0.19, 0.13, 0, 0.19, 0.5, 3.186004E-05, 0.0004248088, 0.0007234898
NKQ1, 33397667, 0.9999661, -0.005656609, 0.005216647, -0.002954446
AHR2, 33397713, -0.11, 0.17, 359.64, -0.58, 0, 0, 0.9999936, -0.001001369, 0.001514375, -0.003107955
MOTB, 33397720, 1, 1, 0, 1
RCIN, 33397724, 1500, 1500, 1500, 1500, 1500, 1500, 1500, 1500, 0, 0, 0, 0, 0, 0
RCOU, 33397730, 1221, 1232, 1227, 1225, 0, 0, 0, 0, 0, 0, 0, 0, 0, 0
VIBE, 33397739, 0.3964489, 0.4333633, 0.3499202, 0, 0, 0
CTRL, 33397745, 0.00189342, 0.0006922177, 0.001780122, 0.00052003, 0.0003074147
PRX, 33398352, 2, 0.73, 0, 0.75, 0, 3.6, 0, 0.8, 0, 0, 0, 0.73
IMU, 33417578, 0.004380534, -1.494974E-05, 0.02282856, 0.09599437, 0.130046, -9.793186, 0, 0, 43.57651, 1, 1, 1000, 1000
RFND, 33447631, 0.2, 25, 0, 0
IMU, 33457713, -0.005331433, 0.0007748278, 0.04331378, 0.05278762, 0.2474831, -9.852468, 0, 0, 43.57654, 1, 1, 1000, 1000
MAG, 33497593, -21, 343, 185, 0, 0, 0, 0, 0, 0, 1, 33497585
RFND, 33497627, 0.2, 25, 0, 0
BARO, 33497663, -0.5820982, 983.5776, 42.64, -0.1112627, 33497, 0, 35
CTUN, 33497677, 0, 0, 0, 0.3012225, 0.05715541, 0.05715541, -0.58, 0, 0.19, 0, 0, 0
ATT, 33497757, 0, -0.17, 0, 0.16, 359.68, 359.69, 0, 1
RATE, 33497762, 0.7953415, -0.3041264, 0.004013586, -0.7334071, -0.3134332, 2.323161E-05, -0.001120574, 0.3450393, -0.000578247, 128.3669, 0.3973007, 0
NKF1, 33497770, -0.17, 0.16, 359.68, 0.00836944, -0.02880891, 0.003169554, 0, 0, 0, -0.05715541, 0, 0, 0
NKF2, 33497770, 1, 0, 0, 0, 0, 0, 0, 0, 0, 0, 0, 0, 0
NKF3, 33497770, 0, 0, 0, 0.02, -0.03, 0, 0, 0, 0, 0, 0
NKF4, 33497770, 0, 0, 0, 0, 0, 2.09867E-06, 0, 0, 0, 19, 229, 0, 0
NKF5, 33497770, 0, 0, 0, 0, 0.19, 0.13, 0, 0.19, 0.5, 3.024708E-05, 0.0004108537, 0.0008213033
NKQ1, 33497770, 0.9999672, -0.005624691, 0.005181968, -0.002698643
AHR2, 33497814, -0.11, 0.16, 359.67, -0.58, 0, 0, 0.9999944, -0.0009693895, 0.001478375, -0.002852277
MOTB, 33497821, 1, 1, 0, 1
RCIN, 33497825, 1500, 1500, 1500, 1500, 1500, 1500, 1500, 1500, 0, 0, 0, 0, 0, 0
RCOU, 33497831, 1221, 1228, 1229, 1222, 0, 0, 0, 0, 0, 0, 0, 0, 0, 0
VIBE, 33497840, 0.3317707, 0.3437275, 0.4133393, 0, 0, 0
CTRL, 33497846, 0.001923052, 0.001195986, 0.001798235, 0.0006961166, 0.0005142977
PRX, 33497879, 2, 0.73, 0, 0.75, 0, 3.6, 0, 0.8, 0, 0, 0, 0.73
IMU, 33497886, -0.00513547, -0.00547493, 0.006021354, 0.03518822, 0.1233069, -9.791905, 0, 0, 43.57648, 1, 1, 1000, 1000
IMU, 33537736, -0.0001756999, -0.008093533, 0.003903782, 0.02995651, 0.0800474, -9.77257, 0, 0, 43.57664, 1, 1, 1000, 1000
RFND, 33547639, 0.2, 25, 0, 0
IMU, 33577580, 0.0002289693, 0.005098183, 0.0319474, 0.07254764, 0.1148146, -9.743517, 0, 0, 43.57641, 1, 1, 1000, 1000
MAG, 33597525, -15, 346, 187, 0, 0, 0, 0, 0, 0, 1, 33597516
RFND, 33597557, 0.2, 25, 0, 0
BARO, 33597592, -0.6103554, 983.5809, 42.64, -0.1024324, 33597, 0, 35
CTUN, 33597604, 0, 0, 0, 0.3012225, 0.0574264, 0.0574264, -0.61, 0, 0.19, 0, 0, 0
ATT, 33597682, 0, -0.18, 0, 0.17, 359.65, 359.66, 0, 1
RATE, 33597688, 0.8207341, 0.03100904, 0.002426822, -0.7798095, -0.01796994, -0.001495621, -0.001229198, -1.203612, 0.0001311273, 221.8516, -1.900864, 0
NKF1, 33597696, -0.18, 0.17, 359.65, 0.008782887, -0.0306255, 0.005477817, 0, 0, 0, -0.0574264, 0, 0, 0
NKF2, 33597696, 1, 0, 0, 0, 0, 0, 0, 0, 0, 0, 0, 0, 0
NKF3, 33597696, 0, 0, 0, 0.02, -0.03, 0, 0, 0, 0, 0, 0
NKF4, 33597696, 0, 0, 0, 0, 0, 2.347565E-06, 0, 0, 0, 19, 229, 0, 0
NKF5, 33597696, 0, 0, 0, 0, 0.19, 0.13, 0, 0.19, 0.5, 3.104145E-05, 0.0003865349, 0.0006189315
NKQ1, 33597696, 0.9999655, -0.005661716, 0.005281947, -0.003014638
AHR2, 33597741, -0.11, 0.17, 359.63, -0.61, 0, 0, 0.9999933, -0.0009900554, 0.001561632, -0.003168581
MOTB, 33597748, 1, 1, 0, 1
RCIN, 33597752, 1500, 1500, 1500, 1500, 1500, 1500, 1500, 1500, 0, 0, 0, 0, 0, 0
RCOU, 33597758, 1221, 1228, 1225, 1223, 0, 0, 0, 0, 0, 0, 0, 0, 0, 0
VIBE, 33597767, 0.3284939, 0.36117, 0.3326838, 0, 0, 0
CTRL, 33597774, 0.001939343, 0.001052452, 0.001896598, 0.001077246, 0.0006004305
PRX, 33597805, 2, 0.72, 0, 0.75, 0, 3.6, 0, 0.8, 0, 0, 0, 0.72
IMU, 33617716, -0.0006048192, -0.001302926, 0.01416414, 0.1554981, 0.1141449, -9.773149, 0, 0, 43.57664, 1, 1, 1000, 1000
RFND, 33647533, 0.2, 25, 0, 0
IMU, 33657605, -0.005399321, 0.0003276472, 0.01397186, 0.2558266, 0.08707681, -9.749425, 0, 0, 43.57644, 1, 1, 1000, 1000
MAG, 33697540, -22, 342, 192, 0, 0, 0, 0, 0, 0, 1, 33697531
RFND, 33697573, 0.2, 25, 0, 0
BARO, 33697611, -0.5934011, 983.579, 42.63, -0.04591801, 33697, 0, 35
CTUN, 33697623, 0, 0, 0, 0.3012225, 0.05738006, 0.05738006, -0.59, 0, 0.19, 0, 0, 0
ATT, 33697700, 0, -0.18, 0, 0.17, 359.67, 359.68, 0, 1
RATE, 33697705, 0.8374071, -0.1374659, 0.003277867, -0.7824346, 0.02672502, -0.002484904, -0.001256583, 0.9944696, -0.0001898123, 372.563, -2.455425, 0
NKF1, 33697712, -0.18, 0.17, 359.67, 0.008704066, -0.03144781, 0.009199087, 0, 0, 0, -0.05738005, 0, 0, 0
NKF2, 33697712, 1, 0, 0, 0, 0, 0, 0, 0, 0, 0, 0, 0, 0
NKF3, 33697712, 0, 0, 0, 0.02, -0.04, 0, 0, 0, 0, 0, 0
NKF4, 33697712, 0, 0, 0, 0, 0, 2.608803E-06, 0, 0, 0, 19, 229, 0, 0
NKF5, 33697712, 0, 0, 0, 0, 0.19, 0.13, 0, 0.19, 0.5, 2.90611E-05, 0.0003442457, 0.0006501505
NKQ1, 33697712, 0.9999659, -0.005707453, 0.005271826, -0.002801232
AHR2, 33697758, -0.11, 0.17, 359.66, -0.59, 0, 0, 0.999994, -0.001015531, 0.001537629, -0.002955065
MOTB, 33697765, 1, 1, 0, 1
RCIN, 33697769, 1500, 1500, 1500, 1500, 1500, 1500, 1500, 1500, 0, 0, 0, 0, 0, 0
RCOU, 33697775, 1221, 1231, 1227, 1225, 0, 0, 0, 0, 0, 0, 0, 0, 0, 0
VIBE, 33697784, 0.3322965, 0.3757578, 0.3128254, 0, 0, 0
CTRL, 33697790, 0.002010416, 0.001203033, 0.00188169, 0.001091028, 0.0005106982
PRX, 33697822, 2, 0.73, 0, 0.75, 0, 3.6, 0, 0.8, 0, 0, 0, 0.73
IMU, 33697829, -0.002226785, 0.0004618785, 0.01735605, 0.1749951, 0.08712071, -9.762306, 0, 0, 43.57657, 1, 1, 1000, 1000
IMU, 33737630, 0.008126125, -0.0005894123, 0.0105791, 0.1565977, 0.1073141, -9.769641, 0, 0, 43.5766, 1, 1, 1000, 1000
RFND, 33747840, 0.2, 25, 0, 0
IMU, 33777525, 0.006855806, 0.004578862, -0.008228475, 0.2593307, 0.09557064, -9.789417, 0, 0, 43.57645, 1, 1, 1000, 1000
MAG, 33797418, -16, 346, 186, 0, 0, 0, 0, 0, 0, 1, 33797409
RFND, 33797448, 0.2, 25, 0, 0
BARO, 33797483, -0.7177328, 983.5929, 42.61, -0.07594121, 33797, 0, 35
CTUN, 33797496, 0, 0, 0, 0.3012225, 0.0570512, 0.0570512, -0.71, 0, 0.19, 0, 0, -1
ATT, 33797571, 0, -0.18, 0, 0.16, 359.67, 359.68, 0, 1
RATE, 33797577, 0.8404488, -0.1598371, 0.002598959, -0.7479277, -0.3404127, 0.001641727, -0.001205357, 0.7888822, -0.0002042564, 480.3386, -4.328251, 0
NKF1, 33797585, -0.18, 0.16, 359.67, 0.00764869, -0.03279005, 0.01186021, 0, 0, 0, -0.0570512, 0, 0, 0
NKF2, 33797585, 1, 0, 0, 0, 0, 0, 0, 0, 0, 0, 0, 0, 0
NKF3, 33797585, 0, 0, 0, 0.02, -0.04, 0, 0, 0, 0, 0, 0
NKF4, 33797585, 0, 0, 0, 0, 0, 2.878339E-06, 0, 0, 0, 19, 229, 0, 0
