FMT, 128, 89, FMT, BBnNZ, Type,Length,Name,Format,Columns
FMT, 129, 31, PARM, QNf, TimeUS,Name,Value
FMT, 130, 46, GPS, QBIHBcLLefffB, TimeUS,Status,GMS,GWk,NSats,HDop,Lat,Lng,Alt,Spd,GCrs,VZ,U
FMT, 131, 46, GPS2, QBIHBcLLefffB, TimeUS,Status,GMS,GWk,NSats,HDop,Lat,Lng,Alt,Spd,GCrs,VZ,U
FMT, 132, 46, GPSB, QBIHBcLLefffB, TimeUS,Status,GMS,GWk,NSats,HDop,Lat,Lng,Alt,Spd,GCrs,VZ,U
FMT, 193, 24, GPA, QCCCCBI, TimeUS,VDop,HAcc,VAcc,SAcc,VV,SMS
FMT, 194, 24, GPA2, QCCCCBI, TimeUS,VDop,HAcc,VAcc,SAcc,VV,SMS
FMT, 195, 24, GPAB, QCCCCBI, TimeUS,VDop,HAcc,VAcc,SAcc,VV,SMS
FMT, 133, 53, IMU, QffffffIIfBBHH, TimeUS,GyrX,GyrY,GyrZ,AccX,AccY,AccZ,EG,EA,T,GH,AH,GHz,AHz
FMT, 134, 75, MSG, QZ, TimeUS,Message
FMT, 135, 39, RCIN, QHHHHHHHHHHHHHH, TimeUS,C1,C2,C3,C4,C5,C6,C7,C8,C9,C10,C11,C12,C13,C14
FMT, 136, 39, RCOU, QHHHHHHHHHHHHHH, TimeUS,C1,C2,C3,C4,C5,C6,C7,C8,C9,C10,C11,C12,C13,C14
FMT, 137, 15, RSSI, Qf, TimeUS,RXRSSI
FMT, 139, 37, BARO, QffcfIff, TimeUS,Alt,Press,Temp,CRt,SMS,Offset,GndTemp
FMT, 140, 22, POWR, QffHB, TimeUS,Vcc,VServo,Flags,Safety
FMT, 143, 45, CMD, QHHHfffffff, TimeUS,CTot,CNum,CId,Prm1,Prm2,Prm3,Prm4,Lat,Lng,Alt
FMT, 144, 20, RAD, QBBBBBHH, TimeUS,RSSI,RemRSSI,TxBuf,Noise,RemNoise,RxErrors,Fixed
FMT, 146, 43, CAM, QIHLLeeeccC, TimeUS,GPSTime,GPSWeek,Lat,Lng,Alt,RelAlt,GPSAlt,Roll,Pitch,Yaw
FMT, 232, 43, TRIG, QIHLLeeeccC, TimeUS,GPSTime,GPSWeek,Lat,Lng,Alt,RelAlt,GPSAlt,Roll,Pitch,Yaw
FMT, 162, 30, ARSP, QffcffB, TimeUS,Airspeed,DiffPress,Temp,RawPress,Offset,U
FMT, 164, 45, CURR, QfffcHHHHHHHHHH, TimeUS,Volt,Curr,CurrTot,Temp,V1,V2,V3,V4,V5,V6,V7,V8,V9,V10
FMT, 165, 45, CUR2, QfffcHHHHHHHHHH, TimeUS,Volt,Curr,CurrTot,Temp,V1,V2,V3,V4,V5,V6,V7,V8,V9,V10
FMT, 163, 27, ATT, QccccCCCC, TimeUS,DesRoll,Roll,DesPitch,Pitch,DesYaw,Yaw,ErrRP,ErrYaw
FMT, 166, 34, MAG, QhhhhhhhhhBI, TimeUS,MagX,MagY,MagZ,OfsX,OfsY,OfsZ,MOfsX,MOfsY,MOfsZ,Health,S
FMT, 169, 14, MODE, QMBB, TimeUS,Mode,ModeNum,Rsn
FMT, 196, 17, RFND, QCBCB, TimeUS,Dist1,Orient1,Dist2,Orient2
FMT, 223, 33, DMS, IIIIIBBBBBBBBBB, TimeMS,N,Dp,RT,RS,Er,Fa,Fmn,Fmx,Pa,Pmn,Pmx,Sa,Smn,Smx
FMT, 240, 41, BCN, QBBfffffff, TimeUS,Health,Cnt,D0,D1,D2,D3,PosX,PosY,PosZ
FMT, 138, 53, IMU2, QffffffIIfBBHH, TimeUS,GyrX,GyrY,GyrZ,AccX,AccY,AccZ,EG,EA,T,GH,AH,GHz,AHz
FMT, 147, 53, IMU3, QffffffIIfBBHH, TimeUS,GyrX,GyrY,GyrZ,AccX,AccY,AccZ,EG,EA,T,GH,AH,GHz,AHz
FMT, 141, 45, AHR2, QccCfLLffff, TimeUS,Roll,Pitch,Yaw,Alt,Lat,Lng,Q1,Q2,Q3,Q4
FMT, 180, 31, POS, QLLfff, TimeUS,Lat,Lng,Alt,RelHomeAlt,RelOriginAlt
FMT, 142, 45, SIM, QccCfLLffff, TimeUS,Roll,Pitch,Yaw,Alt,Lat,Lng,Q1,Q2,Q3,Q4
FMT, 198, 51, NKF1, QccCfffffffccc, TimeUS,Roll,Pitch,Yaw,VN,VE,VD,dPD,PN,PE,PD,GX,GY,GZ
FMT, 199, 35, NKF2, QbccccchhhhhhB, TimeUS,AZbias,GSX,GSY,GSZ,VWN,VWE,MN,ME,MD,MX,MY,MZ,MI
FMT, 200, 33, NKF3, Qcccccchhhcc, TimeUS,IVN,IVE,IVD,IPN,IPE,IPD,IMX,IMY,IMZ,IYAW,IVT
FMT, 201, 35, NKF4, QcccccfbbHBHHb, TimeUS,SV,SP,SH,SM,SVT,errRP,OFN,OFE,FS,TS,SS,GPS,PI
FMT, 202, 40, NKF5, QBhhhcccCCfff, TimeUS,NI,FIX,FIY,AFI,HAGL,offset,RI,rng,Herr,eAng,eVel,ePos
FMT, 203, 51, NKF6, QccCfffffffccc, TimeUS,Roll,Pitch,Yaw,VN,VE,VD,dPD,PN,PE,PD,GX,GY,GZ
FMT, 204, 35, NKF7, QbccccchhhhhhB, TimeUS,AZbias,GSX,GSY,GSZ,VWN,VWE,MN,ME,MD,MX,MY,MZ,MI
FMT, 205, 33, NKF8, Qcccccchhhcc, TimeUS,IVN,IVE,IVD,IPN,IPE,IPD,IMX,IMY,IMZ,IYAW,IVT
FMT, 206, 35, NKF9, QcccccfbbHBHHb, TimeUS,SV,SP,SH,SM,SVT,errRP,OFN,OFE,FS,TS,SS,GPS,PI
FMT, 207, 36, NKF0, QBccCCcccccccc, TimeUS,ID,rng,innov,SIV,TR,BPN,BPE,BPD,OFH,OFL,OFN,OFE,OFD
FMT, 208, 27, NKQ1, Qffff, TimeUS,Q1,Q2,Q3,Q4
FMT, 209, 27, NKQ2, Qffff, TimeUS,Q1,Q2,Q3,Q4
FMT, 210, 51, XKF1, QccCfffffffccc, TimeUS,Roll,Pitch,Yaw,VN,VE,VD,dPD,PN,PE,PD,GX,GY,GZ
FMT, 211, 34, XKF2, QccccchhhhhhB, TimeUS,AX,AY,AZ,VWN,VWE,MN,ME,MD,MX,MY,MZ,MI
FMT, 212, 33, XKF3, Qcccccchhhcc, TimeUS,IVN,IVE,IVD,IPN,IPE,IPD,IMX,IMY,IMZ,IYAW,IVT
FMT, 213, 35, XKF4, QcccccfbbHBHHb, TimeUS,SV,SP,SH,SM,SVT,errRP,OFN,OFE,FS,TS,SS,GPS,PI
FMT, 214, 40, XKF5, QBhhhcccCCfff, TimeUS,NI,FIX,FIY,AFI,HAGL,offset,RI,rng,Herr,eAng,eVel,ePos
FMT, 215, 51, XKF6, QccCfffffffccc, TimeUS,Roll,Pitch,Yaw,VN,VE,VD,dPD,PN,PE,PD,GX,GY,GZ
FMT, 216, 34, XKF7, QccccchhhhhhB, TimeUS,AX,AY,AZ,VWN,VWE,MN,ME,MD,MX,MY,MZ,MI
FMT, 217, 33, XKF8, Qcccccchhhcc, TimeUS,IVN,IVE,IVD,IPN,IPE,IPD,IMX,IMY,IMZ,IYAW,IVT
FMT, 218, 35, XKF9, QcccccfbbHBHHb, TimeUS,SV,SP,SH,SM,SVT,errRP,OFN,OFE,FS,TS,SS,GPS,PI
FMT, 219, 36, XKF0, QBccCCcccccccc, TimeUS,ID,rng,innov,SIV,TR,BPN,BPE,BPD,OFH,OFL,OFN,OFE,OFD
FMT, 220, 27, XKQ1, Qffff, TimeUS,Q1,Q2,Q3,Q4
FMT, 221, 27, XKQ2, Qffff, TimeUS,Q1,Q2,Q3,Q4
FMT, 222, 35, XKFD, Qffffff, TimeUS,IX,IY,IZ,IVX,IVY,IVZ
FMT, 148, 34, TERR, QBLLHffHH, TimeUS,Status,Lat,Lng,Spacing,TerrH,CHeight,Pending,Loaded
FMT, 149, 18, UBX1, QBHBBH, TimeUS,Instance,noisePerMS,jamInd,aPower,agcCnt
FMT, 150, 16, UBX2, QBbBbB, TimeUS,Instance,ofsI,magI,ofsQ,magQ
FMT, 151, 18, UBY1, QBHBBH, TimeUS,Instance,noisePerMS,jamInd,aPower,agcCnt
FMT, 152, 16, UBY2, QBbBbB, TimeUS,Instance,ofsI,magI,ofsQ,magQ
FMT, 170, 42, GRAW, QIHBBddfBbB, TimeUS,WkMS,Week,numSV,sv,cpMes,prMes,doMes,mesQI,cno,lli
FMT, 171, 24, GRXH, QdHbBB, TimeUS,rcvTime,week,leapS,numMeas,recStat
FMT, 172, 41, GRXS, QddfBBBHBBBBB, TimeUS,prMes,cpMes,doMes,gnss,sv,freq,lock,cno,prD,cpD,doD,trk
FMT, 173, 63, SBFE, QIHBBdddfffff, TimeUS,TOW,WN,Mode,Err,Lat,Lng,Height,Undul,Vn,Ve,Vu,COG
FMT, 153, 19, ESC1, Qcccc, TimeUS,RPM,Volt,Curr,Temp
FMT, 154, 19, ESC2, Qcccc, TimeUS,RPM,Volt,Curr,Temp
FMT, 155, 19, ESC3, Qcccc, TimeUS,RPM,Volt,Curr,Temp
FMT, 156, 19, ESC4, Qcccc, TimeUS,RPM,Volt,Curr,Temp
FMT, 157, 19, ESC5, Qcccc, TimeUS,RPM,Volt,Curr,Temp
FMT, 158, 19, ESC6, Qcccc, TimeUS,RPM,Volt,Curr,Temp
FMT, 159, 19, ESC7, Qcccc, TimeUS,RPM,Volt,Curr,Temp
FMT, 160, 19, ESC8, Qcccc, TimeUS,RPM,Volt,Curr,Temp
FMT, 167, 34, MAG2, QhhhhhhhhhBI, TimeUS,MagX,MagY,MagZ,OfsX,OfsY,OfsZ,MOfsX,MOfsY,MOfsZ,Health,S
FMT, 168, 34, MAG3, QhhhhhhhhhBI, TimeUS,MagX,MagY,MagZ,OfsX,OfsY,OfsZ,MOfsX,MOfsY,MOfsZ,Health,S
FMT, 174, 31, ACC1, QQfff, TimeUS,SampleUS,AccX,AccY,AccZ
FMT, 175, 31, ACC2, QQfff, TimeUS,SampleUS,AccX,AccY,AccZ
FMT, 176, 31, ACC3, QQfff, TimeUS,SampleUS,AccX,AccY,AccZ
FMT, 177, 31, GYR1, QQfff, TimeUS,SampleUS,GyrX,GyrY,GyrZ
FMT, 178, 31, GYR2, QQfff, TimeUS,SampleUS,GyrX,GyrY,GyrZ
FMT, 179, 31, GYR3, QQfff, TimeUS,SampleUS,GyrX,GyrY,GyrZ
FMT, 181, 35, PIDR, Qffffff, TimeUS,Des,P,I,D,FF,AFF
FMT, 182, 35, PIDP, Qffffff, TimeUS,Des,P,I,D,FF,AFF
FMT, 183, 35, PIDY, Qffffff, TimeUS,Des,P,I,D,FF,AFF
FMT, 184, 35, PIDA, Qffffff, TimeUS,Des,P,I,D,FF,AFF
FMT, 185, 35, PIDS, Qffffff, TimeUS,Des,P,I,D,FF,AFF
FMT, 186, 35, PIDL, Qffffff, TimeUS,Des,P,I,D,FF,AFF
FMT, 161, 37, BAR2, QffcfIff, TimeUS,Alt,Press,Temp,CRt,SMS,Offset,GndTemp
FMT, 197, 37, BAR3, QffcfIff, TimeUS,Alt,Press,Temp,CRt,SMS,Offset,GndTemp
FMT, 187, 35, VIBE, QfffIII, TimeUS,VibeX,VibeY,VibeZ,Clip0,Clip1,Clip2
FMT, 188, 47, IMT, Qfffffffff, TimeUS,DelT,DelvT,DelaT,DelAX,DelAY,DelAZ,DelVX,DelVY,DelVZ
FMT, 189, 47, IMT2, Qfffffffff, TimeUS,DelT,DelvT,DelaT,DelAX,DelAY,DelAZ,DelVX,DelVY,DelVZ
FMT, 190, 47, IMT3, Qfffffffff, TimeUS,DelT,DelvT,DelaT,DelAX,DelAY,DelAZ,DelVX,DelVY,DelVZ
FMT, 191, 24, ORGN, QBLLe, TimeUS,Type,Lat,Lng,Alt
FMT, 192, 19, RPM, Qff, TimeUS,rpm1,rpm2
FMT, 233, 47, GMB1, Iffffffffff, TimeMS,dt,dax,day,daz,dvx,dvy,dvz,jx,jy,jz
FMT, 234, 44, GMB2, IBfffffffff, TimeMS,es,ex,ey,ez,rx,ry,rz,tx,ty,tz
FMT, 235, 13, GMB3, Ihhh, TimeMS,rl_torque_cmd,el_torque_cmd,az_torque_cmd
FMT, 236, 59, RATE, Qffffffffffff, TimeUS,RDes,R,ROut,PDes,P,POut,YDes,Y,YOut,ADes,A,AOut
FMT, 237, 23, RALY, QBBLLh, TimeUS,Tot,Seq,Lat,Lng,Alt
FMT, 238, 43, VISO, Qffffffff, TimeUS,dt,AngDX,AngDY,AngDZ,PosDX,PosDY,PosDZ,conf
FMT, 224, 23, SBPH, QIII, TimeUS,CrcError,LastInject,IARhyp
FMT, 229, 80, SBR1, QHHBZ, TimeUS,msg_type,sender_id,msg_len,d1
FMT, 230, 205, SBR2, QHZZZ, TimeUS,msg_type,d2,d3,d4
FMT, 25, 41, ATUN, QBBfffffff, TimeUS,Axis,TuneStep,Targ,Min,Max,RP,RD,SP,ddt
FMT, 26, 19, ATDE, Qff, TimeUS,Angle,Rate
FMT, 31, 22, PTUN, QBfHHH, TimeUS,Param,TunVal,CtrlIn,TunLo,TunHi
FMT, 12, 28, OF, QBffff, TimeUS,Qual,flowX,flowY,bodyX,bodyY
FMT, 5, 51, NTUN, Qffffffffff, TimeUS,DPosX,DPosY,PosX,PosY,DVelX,DVelY,VelX,VelY,DAccX,DAccY
FMT, 4, 51, CTUN, Qffffffeccfhh, TimeUS,ThI,ABst,ThO,ThH,DAlt,Alt,BAlt,DSAlt,SAlt,TAlt,DCRt,CRt
FMT, 6, 32, PM, QHHIhBHII, TimeUS,NLon,NLoop,MaxT,PMT,I2CErr,INSErr,LogDrop,Mem
FMT, 30, 27, MOTB, Qffff, TimeUS,LiftMax,BatVolt,BatRes,ThLimit
FMT, 13, 12, EV, QB, TimeUS,Id
FMT, 20, 14, D16, QBh, TimeUS,Id,Value
FMT, 21, 14, DU16, QBH, TimeUS,Id,Value
FMT, 22, 16, D32, QBi, TimeUS,Id,Value
FMT, 23, 16, DU32, QBI, TimeUS,Id,Value
FMT, 24, 16, DFLT, QBf, TimeUS,Id,Value
FMT, 19, 13, ERR, QBB, TimeUS,Subsys,ECode
FMT, 32, 19, HELI, Qff, TimeUS,DRRPM,ERRPM
FMT, 33, 29, PL, QBBffff, TimeUS,Heal,TAcq,pX,pY,vX,vY
FMT, 34, 36, GUID, QBffffff, TimeUS,Type,pX,pY,pZ,vX,vY,vZ
FMT, 35, 32, THRO, QBffffbbbb, TimeUS,Stage,Vel,VelZ,Acc,AccEfZ,Throw,AttOk,HgtOk,PosOk
FMT, 36, 56, PRX, QBfffffffffff, TimeUS,Health,D0,D45,D90,D135,D180,D225,D270,D315,DUp,CAn,CDis
MODE, 299651638, 100, 100, 1
IMU, 299687506, -0.0001950175, -0.0002618441, 0.00104748, 0.1137468, 0.07666095, -9.787536, 0, 0, 44.41769, 1, 1, 1000, 1000
IMU, 299727222, 3.692655E-05, 0.0009006929, 0.0002147266, 0.1060664, 0.06136527, -9.796675, 0, 0, 44.42593, 1, 1, 1000, 1000
FMT, 254, 47, NKT1, QIffffffff, TimeUS,Cnt,IMUMin,IMUMax,EKFMin,EKFMax,AngMin,AngMax,VelMin,VelM
FMT, 253, 31, CTRL, Qfffff, TimeUS,RMSRollP,RMSRollD,RMSPitchP,RMSPitchD,RMSYaw
IMU, 299767966, -0.0005914353, 0.000790566, -0.0004734486, 0.1232123, 0.07983842, -9.791014, 0, 0, 44.4337, 1, 1, 1000, 1000
MSG, 299768411, APM:Copter V3.5.7 (791a96c7)
MSG, 299768416, New mission
MSG, 299768427, Frame: QUAD
MODE, 299768431, 100, 100, 1
RFND, 299795551, 0.2, 25, 0, 0
IMU, 299808405, -0.0009407132, 0.001347643, 0.0004671112, 0.1145851, 0.07862973, -9.792489, 0, 0, 44.44163, 1, 1, 1000, 1000
MAG, 299846022, -20, 340, 187, 0, 0, 0, 0, 0, 0, 1, 299846013
RFND, 299846056, 0.2, 25, 0, 0
BARO, 299846087, -0.7120813, 983.5653, 43.51, -0.1360817, 299846, 0, 35
CTUN, 299846101, 0, 0, 0, 0.3021772, 0.06519628, 0.06519628, -0.71, 0, 0.19, 0, 0, 0
DU32, 299846122, 7, 50389208
ATT, 299846217, 0, 0.03, 0, -0.44, 69.69, 69.69, 0, 1
RATE, 299846223, -0.1470756, 0.05723052, -0.0007991668, 2.02337, 0.02833258, 0.004813596, 0.0006716505, -0.02639499, -6.92746E-05, -83.16561, 0.9132385, 0
NKF1, 299846231, 0.03, -0.44, 69.69, -0.04219121, 0.0287316, -0.002053472, 0, 0, 0, -0.06519628, -0.04, 0.01, -0.03
NKF2, 299846231, 1, 0, 0, 0, 0, 0, 0, 0, 0, 0, 0, 0, 0
NKF3, 299846231, 0, 0, 0, -0.02, 0.02, 0, 0, 0, 0, 0, 0
NKF4, 299846231, 0, 0, 0, 0, 0, 6.131183E-05, 0, 0, 0, 19, 229, 0, 0
NKF5, 299846231, 0, 0, 0, 0, 0.19, 0.13, 0, 0.19, 0.5, 0.0001911881, 0.004897032, 0.009852552
NKQ1, 299846231, 0.8206431, -0.00569504, 0.003227902, 0.5714036
AHR2, 299846369, 0.06, -0.5, 61.71, -0.71, 0, 0, 0.8584541, 0.002721765, -0.003517111, 0.5128711
MOTB, 299846377, 1, 1, 0, 1
RCIN, 299846381, 0, 0, 0, 0, 0, 0, 0, 0, 0, 0, 0, 0, 0, 0
RCOU, 299846387, 1101, 1101, 1101, 1101, 0, 0, 0, 0, 0, 0, 0, 0, 0, 0
VIBE, 299846397, 0.02087495, 0.02240659, 0.03487949, 0, 0, 0
CTRL, 299846403, 0.0004141347, 0.0001691865, 0.004821889, 0.000171528, 9.452324E-05
PRX, 299846435, 2, 0.77, 0, 0.82, 0, 3.6, 0, 0.91, 0, 0, 0, 0.77
IMU, 299847948, 0.0003429003, 0.0007619074, -0.001158783, 0.1131801, 0.07430318, -9.796544, 0, 0, 44.44844, 1, 1, 1000, 1000
IMU, 299887882, -0.002103498, 0.0009984002, 0.0007623015, 0.09578551, 0.06811294, -9.790012, 0, 0, 44.45664, 1, 1, 1000, 1000
RFND, 299895391, 0.2, 25, 0, 0
IMU, 299927796, -0.000885129, 2.027235E-05, 0.0001008097, 0.1165453, 0.07551533, -9.79167, 0, 0, 44.4644, 1, 1, 1000, 1000
MAG, 299945479, -18, 344, 187, 0, 0, 0, 0, 0, 0, 1, 299945470
RFND, 299945512, 0.2, 25, 0, 0
BARO, 299945543, -0.7007784, 983.5638, 43.51, -0.1463529, 299945, 0, 35
CTUN, 299945555, 0, 0, 0, 0.3021772, 0.06574769, 0.06574769, -0.7, 0, 0.19, 0, 0, 0
ATT, 299945610, 0, 0.03, 0, -0.44, 69.69, 69.69, 0, 1
RATE, 299945616, -0.1435726, 0.07812667, -0.0007216571, 2.00985, 0.0392677, 0.004453108, -0.0009880817, -0.03962337, -9.338262E-05, -109.56, 0.7246017, 0
NKF1, 299945624, 0.03, -0.44, 69.69, -0.04282786, 0.02756935, -0.002705186, 0, 0, 0, -0.06574769, -0.04, 0.01, -0.03
NKF2, 299945624, 1, 0, 0, 0, 0, 0, 0, 0, 0, 0, 0, 0, 0
NKF3, 299945624, 0, 0, 0, -0.03, 0.03, 0, 0, 0, 0, 0, 0
NKF4, 299945624, 0, 0, 0, 0, 0, 4.09662E-05, 0, 0, 0, 19, 229, 0, 0
NKF5, 299945624, 0, 0, 0, 0, 0.19, 0.13, 0, 0.19, 0.5, 0.000137394, 0.003821878, 0.007594193
NKQ1, 299945624, 0.8206254, -0.005715681, 0.003245026, 0.5714288
AHR2, 299945668, 0.06, -0.51, 61.71, -0.7, 0, 0, 0.8584535, 0.00276395, -0.003562313, 0.5128717
MOTB, 299945675, 1, 1, 0, 1
RCIN, 299945680, 0, 0, 0, 0, 0, 0, 0, 0, 0, 0, 0, 0, 0, 0
RCOU, 299945685, 1101, 1101, 1101, 1101, 0, 0, 0, 0, 0, 0, 0, 0, 0, 0
VIBE, 299945694, 0.02221504, 0.02157455, 0.03404943, 0, 0, 0
CTRL, 299945700, 0.0004049833, 0.000203439, 0.004790704, 0.0001554678, 9.510236E-05
PRX, 299945733, 2, 0.77, 0, 0.83, 0, 3.6, 0, 0.91, 0, 0, 0, 0.77
IMU, 299967940, 0.0003647841, 0.000538771, 0.0003613746, 0.1065174, 0.08120817, -9.798996, 0, 0, 44.47057, 1, 1, 1000, 1000
RFND, 299995556, 0.2, 25, 0, 0
IMU, 300007871, -3.530327E-05, 0.002101172, -0.0001312372, 0.1122459, 0.06166925, -9.789818, 0, 0, 44.47423, 1, 1, 1000, 1000
MAG, 300045629, -19, 343, 193, 0, 0, 0, 0, 0, 0, 1, 300045620
RFND, 300045663, 0.2, 25, 0, 0
BARO, 300045694, -0.8081558, 983.576, 43.51, 0.01014244, 300045, 0, 35
CTUN, 300045706, 0, 0, 0, 0.3021772, 0.06633748, 0.06633748, -0.8, 0, 0.19, 0, 0, 0
ATT, 300045763, 0, 0.03, 0, -0.44, 69.7, 69.7, 0, 1
RATE, 300045768, -0.1526805, 0.08116739, -0.0007836428, 1.983344, 0.01819065, 0.004668978, -8.120029E-05, 0.02020946, -7.530772E-05, -131.0173, 0.03986359, 0
NKF1, 300045776, 0.03, -0.44, 69.7, -0.04367164, 0.02714129, -0.003234996, 0, 0, 0, -0.06633748, -0.04, 0.01, -0.03
NKF2, 300045776, 1, 0, 0, 0, 0, 0, 0, 0, 0, 0, 0, 0, 0
NKF3, 300045776, 0, 0, 0, -0.03, 0.03, 0, 0, 0, 0, 0, 0
NKF4, 300045776, 0, 0, 0, 0, 0, 2.754021E-05, 0, 0, 0, 19, 229, 0, 0
NKF5, 300045776, 0, 0, 0, 0, 0.19, 0.13, 0, 0.19, 0.5, 9.468476E-05, 0.003058807, 0.005935923
NKQ1, 300045776, 0.8206123, -0.005729518, 0.003297246, 0.5714471
AHR2, 300045818, 0.06, -0.51, 61.71, -0.8, 0, 0, 0.8584567, 0.00280952, -0.003573044, 0.512866
MOTB, 300045825, 1, 1, 0, 1
RCIN, 300045830, 0, 0, 0, 0, 0, 0, 0, 0, 0, 0, 0, 0, 0, 0
RCOU, 300045836, 1101, 1101, 1101, 1101, 0, 0, 0, 0, 0, 0, 0, 0, 0, 0
VIBE, 300045845, 0.02300075, 0.02195681, 0.03386392, 0, 0, 0
CTRL, 300045852, 0.0004130022, 0.0001882454, 0.004722386, 0.0001598673, 8.999698E-05
PRX, 300045884, 2, 0.77, 0, 0.82, 0, 3.6, 0, 0.9, 0, 0, 0, 0.77
IMU, 300047987, 7.987682E-05, 0.0009049253, -0.0004089113, 0.1204109, 0.05949659, -9.792158, 0, 0, 44.47747, 1, 1, 1000, 1000
IMU, 300087950, -0.001808707, 0.001192687, 9.045219E-05, 0.1093083, 0.06335656, -9.792827, 0, 0, 44.4799, 1, 1, 1000, 1000
RFND, 300095537, 0.2, 25, 0, 0
IMU, 300128325, -0.0007125859, 0.0004306861, -0.0001482384, 0.0977902, 0.07458334, -9.790682, 0, 0, 44.48211, 1, 1, 1000, 1000
MAG, 300145465, -18, 343, 190, 0, 0, 0, 0, 0, 0, 1, 300145456
RFND, 300145499, 0.2, 25, 0, 0
BARO, 300145529, -0.7629443, 983.5709, 43.51, 0.008529332, 300145, 0, 35
CTUN, 300145541, 0, 0, 0, 0.3021772, 0.06699435, 0.06699435, -0.76, 0, 0.19, 0, 0, 0
ATT, 300145595, 0, 0.02, 0, -0.43, 69.7, 69.7, 0, 1
RATE, 300145601, -0.1316519, -0.0231518, -0.0001934035, 1.958686, 0.08914055, 0.004124739, -0.001203186, 0.1277796, -0.0001495271, -163.228, 0.4132271, 0
NKF1, 300145609, 0.02, -0.43, 69.7, -0.04476907, 0.02642774, -0.004030322, 0, 0, 0, -0.06699435, -0.04, 0.01, -0.03
NKF2, 300145609, 1, 0, 0, 0, 0, 0, 0, 0, 0, 0, 0, 0, 0
NKF3, 300145609, 0, 0, 0, -0.03, 0.03, 0, 0, 0, 0, 0, 0
NKF4, 300145609, 0, 0, 0, 0, 0, 1.859351E-05, 0, 0, 0, 19, 229, 0, 0
NKF5, 300145609, 0, 0, 0, 0, 0.19, 0.13, 0, 0.19, 0.5, 6.393711E-05, 0.002529154, 0.004752847
NKQ1, 300145609, 0.820584, -0.005789974, 0.003314791, 0.5714871
AHR2, 300145654, 0.06, -0.52, 61.71, -0.76, 0, 0, 0.8584459, 0.002801181, -0.00361431, 0.5128838
MOTB, 300145660, 1, 1, 0, 1
RCIN, 300145665, 0, 0, 0, 0, 0, 0, 0, 0, 0, 0, 0, 0, 0, 0
RCOU, 300145671, 1101, 1101, 1101, 1101, 0, 0, 0, 0, 0, 0, 0, 0, 0, 0
VIBE, 300145679, 0.02418585, 0.02416648, 0.0342974, 0, 0, 0
CTRL, 300145686, 0.0003705931, 0.0001865045, 0.004668403, 0.0001474555, 9.171834E-05
PRX, 300145718, 2, 0.77, 0, 0.82, 0, 3.6, 0, 0.9, 0, 0, 0, 0.77
IMU, 300168010, -0.001516325, 0.001611566, 0.0006515825, 0.1193921, 0.07414045, -9.780571, 0, 0, 44.48531, 1, 1, 1000, 1000
RFND, 300195613, 0.2, 25, 0, 0
IMU, 300207924, -0.000412639, 0.001252003, 7.888535E-05, 0.1252214, 0.07438161, -9.801182, 0, 0, 44.48885, 1, 1, 1000, 1000
MAG, 300245493, -12, 339, 186, 0, 0, 0, 0, 0, 0, 1, 300245485
RFND, 300245526, 0.2, 25, 0, 0
BARO, 300245556, -0.7855501, 983.5731, 43.52, -0.156166, 300245, 0, 35
CTUN, 300245568, 0, 0, 0, 0.3021772, 0.06761476, 0.06761476, -0.78, 0, 0.19, 0, 0, 0
ATT, 300245622, 0, 0.02, 0, -0.43, 69.71, 69.71, 0, 1
RATE, 300245628, -0.1264807, -0.009595412, -0.0002917573, 1.942756, -0.04945161, 0.005041896, -0.003231764, 0.03648416, -0.000180374, -182.3671, 0.6995201, 0
NKF1, 300245635, 0.02, -0.43, 69.71, -0.04571363, 0.02648827, -0.004502891, 0, 0, 0, -0.06761476, -0.04, 0.01, -0.03
NKF2, 300245635, 1, 0, 0, 0, 0, 0, 0, 0, 0, 0, 0, 0, 0
NKF3, 300245635, 0, 0, 0, -0.03, 0.03, 0, 0, 0, 0, 0, 0
NKF4, 300245635, 0, 0, 0, 0, 0, 1.262053E-05, 0, 0, 0, 19, 229, 0, 0
NKF5, 300245635, 0, 0, 0, 0, 0.19, 0.13, 0, 0.19, 0.5, 4.42288E-05, 0.002161016, 0.003987059
NKQ1, 300245635, 0.820554, -0.005817137, 0.003333329, 0.5715296
AHR2, 300245679, 0.06, -0.52, 61.71, -0.78, 0, 0, 0.8584332, 0.002822752, -0.003654932, 0.5129046
MOTB, 300245685, 1, 1, 0, 1
RCIN, 300245690, 0, 0, 0, 0, 0, 0, 0, 0, 0, 0, 0, 0, 0, 0
RCOU, 300245696, 1101, 1101, 1101, 1101, 0, 0, 0, 0, 0, 0, 0, 0, 0, 0
VIBE, 300245704, 0.02191646, 0.01975922, 0.03439698, 0, 0, 0
CTRL, 300245711, 0.0003445734, 0.0001625785, 0.004603067, 0.0001474475, 0.0001307964
PRX, 300245744, 2, 0.77, 0, 0.82, 0, 3.6, 0, 0.91, 0, 0, 0, 0.77
IMU, 300248004, -0.0008849051, -0.0006766558, 9.030361E-05, 0.1176206, 0.06516151, -9.793752, 0, 0, 44.49224, 1, 1, 1000, 1000
IMU, 300287911, -0.0006731797, -0.0001905341, 0.0003338461, 0.1128267, 0.07314269, -9.786822, 0, 0, 44.49178, 1, 1, 1000, 1000
RFND, 300295547, 0.2, 25, 0, 0
IMU, 300327890, -7.234766E-05, 0.0008155592, 0.0002749847, 0.1021104, 0.0694516, -9.808037, 0, 0, 44.49205, 1, 1, 1000, 1000
MAG, 300345445, -14, 344, 187, 0, 0, 0, 0, 0, 0, 1, 300345436
RFND, 300345479, 0.2, 25, 0, 0
BARO, 300345509, -0.7233842, 983.5663, 43.52, -0.1750952, 300345, 0, 35
CTUN, 300345521, 0, 0, 0, 0.3021772, 0.06830284, 0.06830284, -0.72, 0, 0.19, 0, 0, 0
ATT, 300345578, 0, 0.02, 0, -0.42, 69.71, 69.71, 0, 1
RATE, 300345583, -0.1340838, 0.05252344, -0.0005608965, 1.934059, 0.05827187, 0.004353371, -0.0001888189, -0.01585214, -0.0001273938, -203.0129, 0.3412247, 0
NKF1, 300345591, 0.02, -0.42, 69.71, -0.04692341, 0.02584771, -0.005012664, 0, 0, 0, -0.06830284, -0.04, 0.01, -0.03
NKF2, 300345591, 1, 0, 0, 0, 0, 0, 0, 0, 0, 0, 0, 0, 0
NKF3, 300345591, 0, 0, 0, -0.04, 0.04, 0, 0, 0, 0, 0, 0
NKF4, 300345591, 0, 0, 0, 0, 0, 8.682278E-06, 0, 0, 0, 19, 229, 0, 0
NKF5, 300345591, 0, 0, 0, 0, 0.19, 0.13, 0, 0.19, 0.5, 3.435359E-05, 0.001909929, 0.003479995
NKQ1, 300345591, 0.8205374, -0.005814439, 0.003353789, 0.5715535
AHR2, 300345634, 0.06, -0.53, 61.71, -0.72, 0, 0, 0.8584322, 0.002871589, -0.003695251, 0.5129058
MOTB, 300345641, 1, 1, 0, 1
RCIN, 300345645, 0, 0, 0, 0, 0, 0, 0, 0, 0, 0, 0, 0, 0, 0
RCOU, 300345652, 1101, 1101, 1101, 1101, 0, 0, 0, 0, 0, 0, 0, 0, 0, 0
VIBE, 300345660, 0.02334205, 0.02108256, 0.03420039, 0, 0, 0
CTRL, 300345667, 0.0003379919, 0.0001456389, 0.004593432, 0.0001375579, 0.0001444295
PRX, 300345699, 2, 0.77, 0, 0.82, 0, 3.6, 0, 0.91, 0, 0, 0, 0.77
IMU, 300367801, -0.0006329723, 0.001254076, 0.0005920003, 0.1058209, 0.07287586, -9.789341, 0, 0, 44.49339, 1, 1, 1000, 1000
RFND, 300395327, 0.2, 25, 0, 0
IMU, 300407738, -0.001513106, -0.0002399629, -6.331909E-05, 0.1119459, 0.06626333, -9.792172, 0, 0, 44.49352, 1, 1, 1000, 1000
MAG, 300445368, -14, 332, 188, 0, 0, 0, 0, 0, 0, 1, 300445360
RFND, 300445399, 0.2, 25, 0, 0
BARO, 300445430, -0.6838241, 983.5621, 43.51, 0.01590933, 300445, 0, 35
CTUN, 300445443, 0, 0, 0, 0.3021772, 0.06896308, 0.06896308, -0.68, 0, 0.19, 0, 0, 0
ATT, 300445875, 0, 0.02, 0, -0.42, 69.72, 69.72, 0, 1
RATE, 300445885, -0.1284413, -0.009122964, -0.000364686, 1.93444, -0.02043382, 0.004565622, -0.001618086, 0.03482457, -0.0001318779, -206.7052, -0.4823685, 0
NKF1, 300445895, 0.02, -0.42, 69.72, -0.04844912, 0.02532172, -0.005103833, 0, 0, 0, -0.06896308, -0.04, 0.01, -0.03
NKF2, 300445895, 1, 0, 0, 0, 0, 0, 0, 0, 0, 0, 0, 0, 0
NKF3, 300445895, 0, 0, 0, -0.05, 0.04, 0, 0, 0, 0, 0, 0
NKF4, 300445895, 0, 0, 0, 0, 0, 6.061247E-06, 0, 0, 0, 19, 229, 0, 0
NKF5, 300445895, 0, 0, 0, 0, 0.19, 0.13, 0, 0.19, 0.5, 3.049817E-05, 0.001743492, 0.003182664
NKQ1, 300445895, 0.8205119, -0.005824388, 0.003349398, 0.5715901
AHR2, 300445944, 0.06, -0.54, 61.71, -0.68, 0, 0, 0.8584228, 0.002903474, -0.003757794, 0.5129208
MOTB, 300445952, 1, 1, 0, 1
RCIN, 300445956, 0, 0, 0, 0, 0, 0, 0, 0, 0, 0, 0, 0, 0, 0
RCOU, 300445962, 1101, 1101, 1101, 1101, 0, 0, 0, 0, 0, 0, 0, 0, 0, 0
VIBE, 300445971, 0.02143638, 0.02006872, 0.03568164, 0, 0, 0
CTRL, 300445977, 0.0003285994, 0.0001391662, 0.004575825, 0.0001391853, 0.0001434888
PRX, 300446009, 2, 0.77, 0, 0.83, 0, 3.6, 0, 0.9, 0, 0, 0, 0.77
IMU, 300447896, -0.0008830671, -0.0002325477, 0.0002673884, 0.1210494, 0.0806892, -9.78214, 0, 0, 44.49462, 1, 1, 1000, 1000
IMU, 300487798, -0.0001121275, 0.0008492027, 0.0001802722, 0.1150684, 0.06585384, -9.81181, 0, 0, 44.49385, 1, 1, 1000, 1000
RFND, 300495503, 0.2, 25, 0, 0
IMU, 300527734, -0.0006742354, -6.000002E-05, 0.000910007, 0.115079, 0.08335077, -9.806783, 0, 0, 44.49551, 1, 1, 1000, 1000
MAG, 300545431, -14, 340, 189, 0, 0, 0, 0, 0, 0, 1, 300545423
RFND, 300545461, 0.2, 25, 0, 0
BARO, 300545491, -0.6216583, 983.5552, 43.51, 0.2419522, 300545, 0, 35
CTUN, 300545503, 0, 0, 0, 0.3021772, 0.06966788, 0.06966788, -0.62, 0, 0.19, 0, 0, 0
ATT, 300545554, 0, 0.02, 0, -0.42, 69.72, 69.72, 0, 1
RATE, 300545560, -0.1325223, 0.01453278, -0.0003353473, 1.919753, 0.04257739, 0.004143001, -0.001264538, 0.05475313, -0.0001510267, -255.9773, 0.6171227, 0
NKF1, 300545567, 0.02, -0.42, 69.72, -0.04983723, 0.02582394, -0.006320426, 0, 0, 0, -0.06966788, -0.04, 0.01, -0.03
NKF2, 300545567, 1, 0, 0, 0, 0, 0, 0, 0, 0, 0, 0, 0, 0
NKF3, 300545567, 0, 0, 0, -0.05, 0.04, 0, 0, 0, 0, 0, 0
NKF4, 300545567, 0, 0, 0, 0, 0, 4.377005E-06, 0, 0, 0, 19, 229, 0, 0
NKF5, 300545567, 0, 0, 0, 0, 0.19, 0.13, 0, 0.19, 0.5, 2.925682E-05, 0.001609052, 0.003021601
NKQ1, 300545567, 0.8204896, -0.005833989, 0.003377124, 0.5716218
AHR2, 300545611, 0.06, -0.54, 61.71, -0.62, 0, 0, 0.8584168, 0.002937311, -0.003788909, 0.5129305
MOTB, 300545617, 1, 1, 0, 1
RCIN, 300545621, 0, 0, 0, 0, 0, 0, 0, 0, 0, 0, 0, 0, 0, 0
RCOU, 300545628, 1101, 1101, 1101, 1101, 0, 0, 0, 0, 0, 0, 0, 0, 0, 0
VIBE, 300545637, 0.02139003, 0.02179373, 0.03571653, 0, 0, 0
CTRL, 300545643, 0.0003364746, 0.000169239, 0.004553753, 0.0001360572, 0.0001392015
PRX, 300545675, 2, 0.77, 0, 0.83, 0, 3.6, 0, 0.9, 0, 0, 0, 0.77
IMU, 300567870, -9.010906E-05, 0.002334829, -0.0008160997, 0.1257498, 0.07969089, -9.798447, 0, 0, 44.49555, 1, 1, 1000, 1000
RFND, 300595328, 0.2, 25, 0, 0
IMU, 300607762, -0.0008882736, 0.0009726625, 0.0006579174, 0.112687, 0.07989304, -9.783523, 0, 0, 44.49508, 1, 1, 1000, 1000
MAG, 300645398, -16, 338, 188, 0, 0, 0, 0, 0, 0, 1, 300645389
RFND, 300645428, 0.2, 25, 0, 0
BARO, 300645459, -0.5820982, 983.5514, 43.51, 0.4061972, 300645, 0, 35
CTUN, 300645472, 0, 0, 0, 0.3021772, 0.07038468, 0.07038468, -0.58, 0, 0.19, 0, 0, 0
ATT, 300645526, 0, 0.03, 0, -0.41, 69.72, 69.73, 0, 1
RATE, 300645531, -0.1378257, -0.04639809, 1.797883E-05, 1.888119, 0.08862087, 0.004099822, -0.001325868, 0.01628292, -0.0001616437, -273.3393, 0.4286766, 0
NKF1, 300645539, 0.03, -0.41, 69.73, -0.05205163, 0.02566503, -0.006749117, 0, 0, 0, -0.07038468, -0.04, 0.01, -0.03
NKF2, 300645539, 1, 0, 0, 0, 0, 0, 0, 0, 0, 0, 0, 0, 0
NKF3, 300645539, 0, 0, 0, -0.06, 0.05, 0, 0, 0, 0, 0, 0
NKF4, 300645539, 0, 0, 0, 0, 0, 3.281528E-06, 0, 0, 0, 19, 229, 0, 0
NKF5, 300645539, 0, 0, 0, 0, 0.19, 0.13, 0, 0.19, 0.5, 3.018823E-05, 0.001527218, 0.0029173
NKQ1, 300645539, 0.8204691, -0.005860154, 0.00343152, 0.5716507
AHR2, 300645581, 0.06, -0.54, 61.71, -0.58, 0, 0, 0.8584125, 0.002955747, -0.003793659, 0.5129374
MOTB, 300645588, 1, 1, 0, 1
RCIN, 300645592, 0, 0, 0, 0, 0, 0, 0, 0, 0, 0, 0, 0, 0, 0
RCOU, 300645598, 1101, 1101, 1101, 1101, 0, 0, 0, 0, 0, 0, 0, 0, 0, 0
VIBE, 300645606, 0.02127266, 0.02033021, 0.03322533, 0, 0, 0
CTRL, 300645612, 0.0003461253, 0.0001639592, 0.004481189, 0.000169165, 0.0001405906
PRX, 300645645, 2, 0.77, 0, 0.82, 0, 3.6, 0, 0.9, 0, 0, 0, 0.77
IMU, 300647822, -0.001576274, 0.001803381, -0.0005507447, 0.1080037, 0.06672483, -9.7925, 0, 0, 44.49751, 1, 1, 1000, 1000
IMU, 300687963, -0.001558433, 0.0003989626, -8.558537E-05, 0.1117767, 0.073805, -9.787543, 0, 0, 44.50065, 1, 1, 1000, 1000
RFND, 300695579, 0.2, 25, 0, 0
IMU, 300727887, -0.0004102952, 0.0006036476, -0.0004710041, 0.1005634, 0.07146889, -9.800568, 0, 0, 44.50296, 1, 1, 1000, 1000
MAG, 300745374, -18, 341, 189, 0, 0, 0, 0, 0, 0, 1, 300745366
RFND, 300745404, 0.2, 25, 0, 0
BARO, 300745435, -0.5990525, 983.5527, 43.5, 0.4644776, 300745, 0, 35
CTUN, 300745447, 0, 0, 0, 0.3021772, 0.07112677, 0.07112677, -0.59, 0, 0.19, 0, 0, 0
ATT, 300745496, 0, 0.02, 0, -0.41, 69.73, 69.73, 0, 1
RATE, 300745502, -0.1285454, 0.03827168, -0.0004355136, 1.876124, -0.001109455, 0.004397043, 0.0003952821, 0.02286096, -4.929871E-05, -285.8991, -0.9166718, 0
NKF1, 300745510, 0.02, -0.41, 69.73, -0.05399328, 0.02460058, -0.007059237, 0, 0, 0, -0.07112677, -0.04, 0.01, -0.03
NKF2, 300745510, 1, 0, 0, 0, 0, 0, 0, 0, 0, 0, 0, 0, 0
NKF3, 300745510, 0, 0, 0, -0.06, 0.05, 0, 0, 0, 0, 0, 0
NKF4, 300745510, 0, 0, 0, 0, 0, 2.6061E-06, 0, 0, 0, 19, 229, 0, 0
NKF5, 300745510, 0, 0, 0, 0, 0.2, 0.13, 0, 0.19, 0.5, 3.115431E-05, 0.001437796, 0.002839261
NKQ1, 300745510, 0.8204679, -0.005887739, 0.003439845, 0.5716521
AHR2, 300745554, 0.06, -0.55, 61.71, -0.59, 0, 0, 0.8584252, 0.002968392, -0.003844513, 0.5129159
MOTB, 300745560, 1, 1, 0, 1
RCIN, 300745565, 0, 0, 0, 0, 0, 0, 0, 0, 0, 0, 0, 0, 0, 0
RCOU, 300745571, 1101, 1101, 1101, 1101, 0, 0, 0, 0, 0, 0, 0, 0, 0, 0
VIBE, 300745580, 0.02259487, 0.01992982, 0.03507764, 0, 0, 0
CTRL, 300745586, 0.0003214406, 0.0001620448, 0.004444443, 0.0001592459, 0.0001256639
PRX, 300745618, 2, 0.77, 0, 0.82, 0, 3.6, 0, 0.9, 0, 0, 0, 0.77
IMU, 300767959, -0.0007946767, 0.001480003, -0.0007901856, 0.1160384, 0.06611048, -9.765169, 0, 0, 44.50525, 1, 1, 1000, 1000
RFND, 300795499, 0.2, 25, 0, 0
IMU, 300807761, -0.0002733002, 0.001050547, 5.126936E-06, 0.1209354, 0.07656717, -9.794155, 0, 0, 44.50849, 1, 1, 1000, 1000
MAG, 300845421, -10, 338, 186, 0, 0, 0, 0, 0, 0, 1, 300845412
RFND, 300845454, 0.2, 25, 0, 0
BARO, 300845485, -0.5877497, 983.5519, 43.5, 0.3761739, 300845, 0, 35
CTUN, 300845497, 0, 0, 0, 0.3021772, 0.07178161, 0.07178161, -0.58, 0, 0.19, 0, 0, 0
DU32, 300845517, 7, 50389208
ATT, 300845610, 0, 0.03, 0, -0.41, 69.73, 69.73, 0, 1
RATE, 300845617, -0.1401676, 0.01494157, -0.0003637188, 1.862556, -0.004400987, 0.004478791, 0.0007950047, 0.0002440092, -1.23682E-05, -268.7941, -0.387764, 0
NKF1, 300845624, 0.03, -0.41, 69.73, -0.05557141, 0.02450999, -0.006636892, 0, 0, 0, -0.07178161, -0.04, 0.01, -0.03
NKF2, 300845624, 1, 0, 0, 0, 0, 0, 0, 0, 0, 0, 0, 0, 0
NKF3, 300845624, 0, 0, 0, -0.06, 0.05, 0, 0, 0, 0, 0, 0
NKF4, 300845624, 0, 0, 0, 0, 0, 2.225358E-06, 0, 0, 0, 19, 229, 0, 0
NKF5, 300845624, 0, 0, 0, 0, 0.2, 0.13, 0, 0.19, 0.5, 3.34783E-05, 0.001395143, 0.002790766
NKQ1, 300845624, 0.8204645, -0.005885331, 0.003475053, 0.5716566
AHR2, 300845668, 0.06, -0.55, 61.71, -0.58, 0, 0, 0.8584362, 0.003010091, -0.003870676, 0.512897
MOTB, 300845675, 1, 1, 0, 1
RCIN, 300845679, 0, 0, 0, 0, 0, 0, 0, 0, 0, 0, 0, 0, 0, 0
RCOU, 300845686, 1101, 1101, 1101, 1101, 0, 0, 0, 0, 0, 0, 0, 0, 0, 0
VIBE, 300845694, 0.02100953, 0.01934283, 0.034987, 0, 0, 0
CTRL, 300845700, 0.0003427481, 0.0001482011, 0.004402753, 0.0001600159, 0.0001054145
PRX, 300845731, 2, 0.77, 0, 0.82, 0, 3.6, 0, 0.91, 0, 0, 0, 0.77
IMU, 300847961, -0.0002014183, 2.672026E-05, -0.0005416354, 0.109881, 0.06795108, -9.781458, 0, 0, 44.51213, 1, 1, 1000, 1000
IMU, 300887780, -0.0006594313, 0.001276918, -0.0002409557, 0.1087918, 0.06709749, -9.776769, 0, 0, 44.51413, 1, 1, 1000, 1000
RFND, 300895250, 0.2, 25, 0, 0
IMU, 300927866, -0.00183953, 0.0009348037, 0.0003144636, 0.1189812, 0.07521559, -9.798834, 0, 0, 44.51431, 1, 1, 1000, 1000
MAG, 300945224, -17, 338, 185, 0, 0, 0, 0, 0, 0, 1, 300945215
RFND, 300945254, 0.2, 25, 0, 0
BARO, 300945347, -0.5990525, 983.553, 43.49, 0.1942682, 300945, 0, 35
CTUN, 300945359, 0, 0, 0, 0.3021772, 0.07238068, 0.07238068, -0.59, 0, 0.19, 0, 0, 0
ATT, 300945409, 0, 0.03, 0, -0.4, 69.73, 69.73, 0, 1
RATE, 300945414, -0.1367778, -0.006454365, -0.0004903667, 1.843537, 0.03360303, 0.004144898, -0.00166384, 0.02514623, -9.547308E-05, -271.5397, 0.5781174, 0
NKF1, 300945423, 0.03, -0.4, 69.73, -0.05731646, 0.02400238, -0.006704684, 0, 0, 0, -0.07238068, -0.04, 0.01, -0.03
NKF2, 300945423, 1, 0, 0, 0, 0, 0, 0, 0, 0, 0, 0, 0, 0
NKF3, 300945423, 0, 0, 0, -0.06, 0.05, 0, 0, 0, 0, 0, 0
NKF4, 300945423, 0, 0, 0, 0, 0, 2.017716E-06, 0, 0, 0, 19, 229, 0, 0
NKF5, 300945423, 0, 0, 0, 0, 0.2, 0.13, 0, 0.19, 0.5, 3.480312E-05, 0.001318056, 0.002709659
NKQ1, 300945423, 0.8204458, -0.005911236, 0.003501073, 0.571683
AHR2, 300945466, 0.06, -0.56, 61.71, -0.59, 0, 0, 0.8584335, 0.003023762, -0.003903064, 0.5129011
MOTB, 300945473, 1, 1, 0, 1
RCIN, 300945477, 0, 0, 0, 0, 0, 0, 0, 0, 0, 0, 0, 0, 0, 0
RCOU, 300945483, 1101, 1101, 1101, 1101, 0, 0, 0, 0, 0, 0, 0, 0, 0, 0
VIBE, 300945491, 0.02163164, 0.02091709, 0.03400963, 0, 0, 0
CTRL, 300945497, 0.0003346314, 0.0001376099, 0.004364289, 0.0001472621, 9.512988E-05
PRX, 300945530, 2, 0.77, 0, 0.82, 0, 3.6, 0, 0.91, 0, 0, 0, 0.77
IMU, 300967757, -0.0004219611, 0.001365334, -0.0002147399, 0.1197776, 0.07873166, -9.801609, 0, 0, 44.51278, 1, 1, 1000, 1000
RFND, 300995670, 0.2, 25, 0, 0
IMU, 301007737, -0.0006784523, 0.0007724831, -0.0003402315, 0.1170567, 0.05938064, -9.791233, 0, 0, 44.51321, 1, 1, 1000, 1000
MAG, 301045344, -17, 345, 187, 0, 0, 0, 0, 0, 0, 1, 301045335
RFND, 301045376, 0.2, 25, 0, 0
BARO, 301045407, -0.5481896, 983.5475, 43.49, 0.06181268, 301045, 0, 35
CTUN, 301045420, 0, 0, 0, 0.3021772, 0.07291216, 0.07291216, -0.54, 0, 0.19, 0, 0, 0
ATT, 301045469, 0, 0.03, 0, -0.4, 69.73, 69.73, 0, 1
RATE, 301045475, -0.1414618, 0.006242185, -0.0001295514, 1.81935, 0.05918378, 0.004085543, -0.001187315, 0.05936549, -0.0001382745, -255.9624, 0.4573822, 0
NKF1, 301045483, 0.03, -0.4, 69.73, -0.05896185, 0.02365688, -0.006320058, 0, 0, 0, -0.07291216, -0.04, 0.01, -0.03
NKF2, 301045483, 1, 0, 0, 0, 0, 0, 0, 0, 0, 0, 0, 0, 0
NKF3, 301045483, 0, 0, 0, -0.07, 0.06, 0, 0, 0, 0, 0, 0
NKF4, 301045483, 0, 0, 0, 0, 0, 1.977988E-06, 0, 0, 0, 19, 229, 0, 0
NKF5, 301045483, 0, 0, 0, 0, 0.2, 0.13, 0, 0.19, 0.5, 3.721597E-05, 0.001300902, 0.002684337
NKQ1, 301045483, 0.8204266, -0.005929099, 0.003543319, 0.57171
AHR2, 301045528, 0.06, -0.56, 61.71, -0.54, 0, 0, 0.8584305, 0.003049799, -0.003917158, 0.5129058
MOTB, 301045534, 1, 1, 0, 1
RCIN, 301045538, 0, 0, 0, 0, 0, 0, 0, 0, 0, 0, 0, 0, 0, 0
RCOU, 301045545, 1101, 1101, 1101, 1101, 0, 0, 0, 0, 0, 0, 0, 0, 0, 0
VIBE, 301045553, 0.02218319, 0.02251215, 0.04043569, 0, 0, 0
CTRL, 301045560, 0.0003453819, 0.0001433169, 0.004313563, 0.0001300399, 9.696105E-05
PRX, 301045591, 2, 0.77, 0, 0.82, 0, 3.6, 0, 0.9, 0, 0, 0, 0.77
IMU, 301047796, -0.0006466093, 0.00116244, 0.0002359584, 0.1067562, 0.08077013, -9.797581, 0, 0, 44.5118, 1, 1, 1000, 1000
IMU, 301087829, -0.001067298, 0.0002291303, -0.0005041545, 0.1047387, 0.06386344, -9.76123, 0, 0, 44.50841, 1, 1, 1000, 1000
RFND, 301095701, 0.2, 25, 0, 0
IMU, 301127858, -0.001169576, 0.0002344663, -0.0008680339, 0.1167596, 0.07185343, -9.80582, 0, 0, 44.50345, 1, 1, 1000, 1000
MAG, 301145414, -17, 338, 188, 0, 0, 0, 0, 0, 0, 1, 301145406
RFND, 301145445, 0.2, 25, 0, 0
BARO, 301145474, -0.6216583, 983.5556, 43.49, 0.04238583, 301145, 0, 35
CTUN, 301145486, 0, 0, 0, 0.3021772, 0.07340451, 0.07340451, -0.62, 0, 0.19, 0, 0, 0
ATT, 301145536, 0, 0.03, 0, -0.4, 69.73, 69.73, 0, 1
RATE, 301145542, -0.1358131, 0.04101964, -0.0005222721, 1.821958, -0.01079626, 0.00425091, 0.0004262483, -0.002038568, -4.668538E-05, -265.9736, 1.180553, 0
NKF1, 301145550, 0.03, -0.4, 69.73, -0.06055158, 0.02241268, -0.006567249, 0, 0, 0, -0.07340451, -0.04, 0.01, -0.03
NKF2, 301145550, 1, 0, 0, 0, 0, 0, 0, 0, 0, 0, 0, 0, 0
NKF3, 301145550, 0, 0, 0, -0.08, 0.06, 0, 0, 0, 0, 0, 0
NKF4, 301145550, 0, 0, 0, 0, 0, 1.988102E-06, 0, 0, 0, 19, 229, 0, 0
NKF5, 301145550, 0, 0, 0, 0, 0.2, 0.13, 0, 0.19, 0.5, 3.94556E-05, 0.001320598, 0.00271664
NKQ1, 301145550, 0.820425, -0.005936021, 0.003532541, 0.5717126
AHR2, 301145593, 0.06, -0.57, 61.71, -0.62, 0, 0, 0.8584427, 0.003082759, -0.003984847, 0.5128848
MOTB, 301145599, 1, 1, 0, 1
RCIN, 301145603, 0, 0, 0, 0, 0, 0, 0, 0, 0, 0, 0, 0, 0, 0
RCOU, 301145609, 1101, 1101, 1101, 1101, 0, 0, 0, 0, 0, 0, 0, 0, 0, 0
VIBE, 301145618, 0.0214527, 0.02162714, 0.03487028, 0, 0, 0
CTRL, 301145624, 0.000334496, 0.0001484473, 0.00431083, 0.0001174766, 9.778203E-05
PRX, 301145657, 2, 0.77, 0, 0.83, 0, 3.6, 0, 0.91, 0, 0, 0, 0.77
IMU, 301167822, -0.001357741, 0.001889462, 0.0003075904, 0.1207533, 0.05864315, -9.793577, 0, 0, 44.50167, 1, 1, 1000, 1000
RFND, 301195235, 0.2, 25, 0, 0
IMU, 301207751, -0.001037725, -0.001007796, -0.0006975568, 0.1099098, 0.07481836, -9.817368, 0, 0, 44.5024, 1, 1, 1000, 1000
MAG, 301245249, -20, 343, 186, 0, 0, 0, 0, 0, 0, 1, 301245240
RFND, 301245342, 0.2, 25, 0, 0
BARO, 301245373, -0.5934011, 983.5522, 43.49, 0.03002327, 301245, 0, 35
CTUN, 301245385, 0, 0, 0, 0.3021772, 0.07387654, 0.07387654, -0.59, 0, 0.19, 0, 0, 0
ATT, 301245437, 0, 0.03, 0, -0.4, 69.74, 69.74, 0, 1
RATE, 301245443, -0.1493524, 0.1123965, -0.0006777431, 1.825256, 0.05084524, 0.003850708, -0.002893095, 0.0205579, -7.132374E-05, -271.464, -2.954865, 0
NKF1, 301245451, 0.03, -0.4, 69.74, -0.06212511, 0.0221051, -0.006702814, 0, 0, 0, -0.07387654, -0.04, 0.01, -0.03
NKF2, 301245451, 1, 0, 0, 0, 0, 0, 0, 0, 0, 0, 0, 0, 0
NKF3, 301245451, 0, 0, 0, -0.08, 0.06, 0, 0, 0, 0, 0, 0
NKF4, 301245451, 0, 0, 0, 0, 0, 2.143642E-06, 0, 0, 0, 19, 229, 0, 0
NKF5, 301245451, 0, 0, 0, 0, 0.2, 0.13, 0, 0.19, 0.5, 3.97547E-05, 0.001216583, 0.002552817
NKQ1, 301245451, 0.8204092, -0.005911265, 0.003543078, 0.5717352
AHR2, 301245496, 0.07, -0.58, 61.71, -0.59, 0, 0, 0.8584424, 0.003148494, -0.00403245, 0.5128844
MOTB, 301245502, 1, 1, 0, 1
RCIN, 301245506, 0, 0, 0, 0, 0, 0, 0, 0, 0, 0, 0, 0, 0, 0
RCOU, 301245512, 1101, 1101, 1101, 1101, 0, 0, 0, 0, 0, 0, 0, 0, 0, 0
VIBE, 301245522, 0.02083028, 0.01877216, 0.0380647, 0, 0, 0
CTRL, 301245528, 0.0003611976, 0.0001699185, 0.004319857, 0.0001693038, 8.639078E-05
PRX, 301245560, 2, 0.77, 0, 0.82, 0, 3.6, 0, 0.91, 0, 0, 0, 0.77
IMU, 301247787, 0.001000178, 0.001066455, -2.920564E-05, 0.1194279, 0.07252545, -9.760362, 0, 0, 44.50237, 1, 1, 1000, 1000
IMU, 301287788, 0.0006840502, -0.0003271152, 0.000373098, 0.1122063, 0.07046688, -9.795389, 0, 0, 44.5045, 1, 1, 1000, 1000
RFND, 301295237, 0.2, 25, 0, 0
IMU, 301327791, -0.0002001121, 0.0004351478, 0.0003526772, 0.1104092, 0.07716128, -9.781898, 0, 0, 44.50679, 1, 1, 1000, 1000
MAG, 301345497, -13, 339, 192, 0, 0, 0, 0, 0, 0, 1, 301345489
RFND, 301345530, 0.2, 25, 0, 0
BARO, 301345563, -0.5820982, 983.551, 43.49, -0.03708757, 301345, 0, 35
CTUN, 301345575, 0, 0, 0, 0.3021772, 0.07428316, 0.07428316, -0.58, 0, 0.19, 0, 0, 0
ATT, 301345632, 0, 0.03, 0, -0.4, 69.74, 69.74, 0, 1
RATE, 301345638, -0.1729811, 0.08107643, -0.0007870154, 1.823175, 0.02283353, 0.004229793, -0.0001880901, 0.1043658, -0.0001746924, -244.9682, -1.635838, 0
NKF1, 301345645, 0.03, -0.4, 69.74, -0.06416357, 0.02135218, -0.006048598, 0, 0, 0, -0.07428316, -0.04, 0.01, -0.03
NKF2, 301345645, 1, 0, 0, 0, 0, 0, 0, 0, 0, 0, 0, 0, 0
NKF3, 301345645, 0, 0, 0, -0.09, 0.06, 0, 0, 0, 0, 0, 0
NKF4, 301345645, 0, 0, 0, 0, 0, 2.30589E-06, 0, 0, 0, 19, 229, 0, 0
NKF5, 301345645, 0, 0, 0, 0, 0.2, 0.13, 0, 0.19, 0.5, 4.157979E-05, 0.001248589, 0.002599043
NKQ1, 301345645, 0.8203801, -0.005875928, 0.003573825, 0.5717773
AHR2, 301345690, 0.07, -0.58, 61.71, -0.58, 0, 0, 0.85843, 0.003226529, -0.004059746, 0.5129045
MOTB, 301345696, 1, 1, 0, 1
RCIN, 301345701, 0, 0, 0, 0, 0, 0, 0, 0, 0, 0, 0, 0, 0, 0
RCOU, 301345707, 1101, 1101, 1101, 1101, 0, 0, 0, 0, 0, 0, 0, 0, 0, 0
VIBE, 301345716, 0.02069481, 0.02013598, 0.03506313, 0, 0, 0
CTRL, 301345723, 0.0004140895, 0.0001661492, 0.00431299, 0.0001555815, 9.77817E-05
PRX, 301345756, 2, 0.77, 0, 0.82, 0, 3.6, 0, 0.9, 0, 0, 0, 0.77
IMU, 301367918, -0.0002192937, 0.001890029, 8.200279E-05, 0.1043369, 0.06746246, -9.789177, 0, 0, 44.50851, 1, 1, 1000, 1000
RFND, 301395407, 0.2, 25, 0, 0
IMU, 301407910, -0.001773529, 0.001396983, -0.0008987505, 0.1214803, 0.0802881, -9.797134, 0, 0, 44.51009, 1, 1, 1000, 1000
MAG, 301445477, -20, 342, 187, 0, 0, 0, 0, 0, 0, 1, 301445469
RFND, 301445510, 0.2, 25, 0, 0
BARO, 301445542, -0.5707954, 983.5497, 43.49, -0.04415186, 301445, 0, 35
CTUN, 301445554, 0, 0, 0, 0.3021772, 0.07464381, 0.07464381, -0.57, 0, 0.19, 0, 0, 0
ATT, 301445609, 0, 0.03, 0, -0.4, 69.74, 69.75, 0, 1
RATE, 301445613, -0.1734907, 0.02813999, -0.000515757, 1.810021, 0.0004466136, 0.004155152, -0.0008181407, -0.03414312, -9.415784E-05, -258.3775, -0.7775307, 0
NKF1, 301445622, 0.03, -0.4, 69.75, -0.0659373, 0.02118896, -0.006379691, 0, 0, 0, -0.07464381, -0.04, 0.01, -0.03
NKF2, 301445622, 1, 0, 0, 0, 0, 0, 0, 0, 0, 0, 0, 0, 0
NKF3, 301445622, 0, 0, 0, -0.09, 0.06, 0, 0, 0, 0, 0, 0
NKF4, 301445622, 0, 0, 0, 0, 0, 2.53008E-06, 0, 0, 0, 19, 229, 0, 0
NKF5, 301445622, 0, 0, 0, 0, 0.2, 0.13, 0, 0.19, 0.5, 4.1005E-05, 0.001134771, 0.002401344
NKQ1, 301445622, 0.8203691, -0.005891282, 0.003594051, 0.5717926
AHR2, 301445664, 0.07, -0.59, 61.71, -0.57, 0, 0, 0.8584343, 0.003251806, -0.004092039, 0.5128969
MOTB, 301445671, 1, 1, 0, 1
RCIN, 301445675, 0, 0, 0, 0, 0, 0, 0, 0, 0, 0, 0, 0, 0, 0
RCOU, 301445681, 1101, 1101, 1101, 1101, 0, 0, 0, 0, 0, 0, 0, 0, 0, 0
VIBE, 301445690, 0.02145738, 0.02127532, 0.03559779, 0, 0, 0
CTRL, 301445696, 0.000424851, 0.0001669676, 0.004282002, 0.0001742514, 0.0001221927
PRX, 301445729, 2, 0.77, 0, 0.82, 0, 3.6, 0, 0.91, 0, 0, 0, 0.77
IMU, 301447908, -0.0003781953, 0.0004106785, -0.001027467, 0.1181155, 0.07490543, -9.778156, 0, 0, 44.51412, 1, 1, 1000, 1000
IMU, 301487992, 0.0006787291, 0.00106215, -0.0004983948, 0.1177655, 0.08008558, -9.813012, 0, 0, 44.51851, 1, 1, 1000, 1000
RFND, 301496111, 0.2, 25, 0, 0
IMU, 301527921, -0.0007701833, 0.0001773119, -0.0003381467, 0.1080023, 0.06860968, -9.790172, 0, 0, 44.52232, 1, 1, 1000, 1000
MAG, 301545473, -18, 337, 188, 0, 0, 0, 0, 0, 0, 1, 301545464
RFND, 301545506, 0.2, 25, 0, 0
BARO, 301545538, -0.6612183, 983.5599, 43.5, 0.01412859, 301545, 0, 35
CTUN, 301545550, 0, 0, 0, 0.3021772, 0.0749776, 0.0749776, -0.66, 0, 0.19, 0, 0, 0
ATT, 301545606, 0, 0.03, 0, -0.39, 69.75, 69.75, 0, 1
RATE, 301545612, -0.17772, 0.04233911, -0.0006028749, 1.785329, 0.04967763, 0.003946654, -3.425791E-05, 0.03009252, -8.906731E-05, -278.0442, -0.5304337, 0
NKF1, 301545620, 0.03, -0.39, 69.75, -0.06811789, 0.0210353, -0.006865289, 0, 0, 0, -0.0749776, -0.04, 0.01, -0.03
NKF2, 301545620, 1, 0, 0, 0, 0, 0, 0, 0, 0, 0, 0, 0, 0
NKF3, 301545620, 0, 0, 0, -0.1, 0.07, 0, 0, 0, 0, 0, 0
NKF4, 301545620, 0, 0, 0, 0, 0, 2.793351E-06, 0, 0, 0, 19, 229, 0, 0
NKF5, 301545620, 0, 0, 0, 0, 0.2, 0.13, 0, 0.19, 0.5, 4.266701E-05, 0.001183541, 0.00247042
NKQ1, 301545620, 0.8203539, -0.005910401, 0.003637312, 0.5718141
AHR2, 301545662, 0.08, -0.59, 61.71, -0.66, 0, 0, 0.8584349, 0.003273755, -0.00410089, 0.5128958
MOTB, 301545669, 1, 1, 0, 1
RCIN, 301545673, 0, 0, 0, 0, 0, 0, 0, 0, 0, 0, 0, 0, 0, 0
RCOU, 301545680, 1101, 1101, 1101, 1101, 0, 0, 0, 0, 0, 0, 0, 0, 0, 0
VIBE, 301545688, 0.02347896, 0.02176361, 0.03166762, 0, 0, 0
CTRL, 301545694, 0.0004336539, 0.000182783, 0.004235338, 0.000162628, 0.0001132934
PRX, 301545727, 2, 0.77, 0, 0.82, 0, 3.6, 0, 0.9, 0, 0, 0, 0.77
IMU, 301567880, -0.0001519436, 0.001727322, 0.0006438448, 0.1057549, 0.07372978, -9.787277, 0, 0, 44.52422, 1, 1, 1000, 1000
RFND, 301595546, 0.2, 25, 0, 0
IMU, 301607910, -0.000748803, 0.001189316, -0.0003950212, 0.1094415, 0.06839333, -9.80153, 0, 0, 44.52402, 1, 1, 1000, 1000
MAG, 301645619, -16, 340, 193, 0, 0, 0, 0, 0, 0, 1, 301645611
RFND, 301645652, 0.2, 25, 0, 0
BARO, 301645683, -0.6725212, 983.5611, 43.49, -0.05298223, 301645, 0, 35
CTUN, 301645696, 0, 0, 0, 0.3021772, 0.07535385, 0.07535385, -0.67, 0, 0.19, 0, 0, 0
ATT, 301645751, 0, 0.03, 0, -0.39, 69.75, 69.75, 0, 1
RATE, 301645757, -0.1738528, -0.007406769, -0.0005672621, 1.763346, 0.06946412, 0.004001266, -0.0009409357, 0.05390358, -0.0001170096, -299.263, 0.7668495, 0
NKF1, 301645765, 0.03, -0.39, 69.75, -0.06974375, 0.02012262, -0.007389209, 0, 0, 0, -0.07535385, -0.04, 0.01, -0.03
NKF2, 301645765, 1, 0, 0, 0, 0, 0, 0, 0, 0, 0, 0, 0, 0
NKF3, 301645765, 0, 0, 0, -0.1, 0.07, 0, 0, 0, 0, 0, 0
NKF4, 301645765, 0, 0, 0, 0, 0, 3.063631E-06, 0, 0, 0, 19, 229, 0, 0
NKF5, 301645765, 0, 0, 0, 0, 0.2, 0.13, 0, 0.19, 0.5, 4.16439E-05, 0.001060083, 0.00224182
NKQ1, 301645765, 0.8203295, -0.005941811, 0.003669077, 0.5718486
AHR2, 301645807, 0.08, -0.59, 61.71, -0.67, 0, 0, 0.8584274, 0.003278077, -0.004119975, 0.512908
MOTB, 301645814, 1, 1, 0, 1
RCIN, 301645819, 0, 0, 0, 0, 0, 0, 0, 0, 0, 0, 0, 0, 0, 0
RCOU, 301645825, 1101, 1101, 1101, 1101, 0, 0, 0, 0, 0, 0, 0, 0, 0, 0
VIBE, 301645834, 0.02103966, 0.01967213, 0.03017216, 0, 0, 0
CTRL, 301645840, 0.000425539, 0.0001629954, 0.004179956, 0.000183126, 0.000116153
PRX, 301645872, 2, 0.77, 0, 0.83, 0, 3.6, 0, 0.9, 0, 0, 0, 0.77
IMU, 301647887, -0.000763895, 0.001377439, 0.0004002066, 0.1195191, 0.0628689, -9.798987, 0, 0, 44.52433, 1, 1, 1000, 1000
EV, 301652470, 57
IMU, 301687894, -0.001182653, 3.462533E-05, 0.000170513, 0.1071272, 0.06686196, -9.776634, 0, 0, 44.52117, 1, 1, 1000, 1000
RFND, 301695558, 0.2, 25, 0, 0
IMU, 301727914, -0.00051022, 0.0001939583, -0.000472195, 0.1118772, 0.07335681, -9.790649, 0, 0, 44.5167, 1, 1, 1000, 1000
MAG, 301745448, -13, 339, 184, 0, 0, 0, 0, 0, 0, 1, 301745440
RFND, 301745478, 0.2, 25, 0, 0
BARO, 301745509, -0.6216583, 983.5556, 43.49, -0.2225254, 301745, 0, 35
CTUN, 301745522, 0, 0, 0, 0.3021772, 0.07562224, 0.07562224, -0.62, 0, 0.19, 0, 0, 0
ATT, 301745574, 0, 0.03, 0, -0.38, 69.76, 69.76, 0, 1
RATE, 301745579, -0.1713745, -0.02149955, -0.0003130031, 1.754565, 0.02176402, 0.003931341, -0.0006643096, 0.07748796, -0.0001478837, -277.8866, 0.5645752, 0
NKF1, 301745588, 0.03, -0.38, 69.76, -0.07211647, 0.01890043, -0.006861398, 0, 0, 0, -0.07562224, -0.04, 0.01, -0.03
NKF2, 301745588, 1, 0, 0, 0, 0, 0, 0, 0, 0, 0, 0, 0, 0
NKF3, 301745588, 0, 0, 0, -0.11, 0.07, 0, 0, 0, 0, 0, 0
NKF4, 301745588, 0, 0, 0, 0, 0, 3.428928E-06, 0, 0, 0, 19, 229, 0, 0
NKF5, 301745588, 0, 0, 0, 0, 0.2, 0.13, 0, 0.19, 0.5, 4.36006E-05, 0.001114504, 0.002313919
NKQ1, 301745588, 0.8202999, -0.005955861, 0.003680679, 0.5718908
AHR2, 301745631, 0.07, -0.6, 61.71, -0.62, 0, 0, 0.8584148, 0.003298744, -0.004161176, 0.5129287
MOTB, 301745638, 1, 1, 0, 1
RCIN, 301745642, 0, 0, 0, 0, 0, 0, 0, 0, 0, 0, 0, 0, 0, 0
RCOU, 301745648, 1122, 1122, 1122, 1122, 0, 0, 0, 0, 0, 0, 0, 0, 0, 0
VIBE, 301745657, 0.02175245, 0.0242081, 0.03486357, 0, 0, 0
CTRL, 301745663, 0.0004177683, 0.0001530396, 0.004155864, 0.0001675648, 0.0001331733
PRX, 301745696, 2, 0.77, 0, 0.83, 0, 3.6, 0, 0.91, 0, 0, 0, 0.77
IMU, 301767946, -0.001171303, 0.0002059846, -0.000840773, 0.105543, 0.07240094, -9.771886, 0, 0, 44.51175, 1, 1, 1000, 1000
RFND, 301795360, 0.2, 25, 0, 0
IMU, 301807767, -0.0003282531, 0.0009377756, -0.0006538728, 0.1135726, 0.07509346, -9.780795, 0, 0, 44.50568, 1, 1, 1000, 1000
MAG, 301845428, -16, 331, 190, 0, 0, 0, 0, 0, 0, 1, 301845420
RFND, 301845459, 0.2, 25, 0, 0
BARO, 301845490, -0.5425382, 983.5467, 43.49, -0.1925021, 301845, 0, 35
CTUN, 301845502, 0, 0, 0, 0.3021772, 0.07586788, 0.07586788, -0.54, 0, 0.19, 0, 0, 0
DU32, 301845521, 7, 33611992
ATT, 301845610, 0, 0.03, 0, -0.38, 69.76, 69.76, 0, 1
RATE, 301845615, -0.1627501, -0.02701054, -0.0004192896, 1.750856, -0.03380684, 0.004240224, -0.0004953434, 0.03837096, -7.124846E-05, -229.5203, -0.4423141, 0
NKF1, 301845623, 0.03, -0.38, 69.76, -0.074254, 0.01788965, -0.005667168, 0, 0, 0, -0.07586788, -0.04, 0.01, -0.03
NKF2, 301845623, 1, 0, 0, 0, 0, 0, 0, 0, 0, 0, 0, 0, 0
NKF3, 301845623, 0, 0, 0, -0.12, 0.07, 0, 0, 0, 0, 0, 0
NKF4, 301845623, 0, 0, 0, 0, 0, 3.712674E-06, 0, 0, 0, 19, 229, 0, 0
NKF5, 301845623, 0, 0, 0, 0, 0.2, 0.13, 0, 0.19, 0.5, 4.576871E-05, 0.001252679, 0.002567747
NKQ1, 301845623, 0.8202924, -0.005972383, 0.003674524, 0.5719013
AHR2, 301845668, 0.07, -0.61, 61.71, -0.54, 0, 0, 0.858422, 0.003315883, -0.004224996, 0.5129161
MOTB, 301845675, 1, 1, 0, 1
RCIN, 301845679, 0, 0, 0, 0, 0, 0, 0, 0, 0, 0, 0, 0, 0, 0
RCOU, 301845685, 1146, 1146, 1146, 1146, 0, 0, 0, 0, 0, 0, 0, 0, 0, 0
VIBE, 301845694, 0.02195027, 0.02267152, 0.03464297, 0, 0, 0
CTRL, 301845700, 0.0003989837, 0.0001427648, 0.004145291, 0.0001639425, 0.000126189
PRX, 301845732, 2, 0.77, 0, 0.82, 0, 3.6, 0, 0.91, 0, 0, 0, 0.77
IMU, 301847809, -0.0009799061, -0.0001037582, 8.710896E-05, 0.1127518, 0.05884973, -9.785585, 0, 0, 44.49901, 1, 1, 1000, 1000
IMU, 301887804, -0.002154273, -3.968766E-05, -0.0003055515, 0.1088787, 0.06263795, -9.795618, 0, 0, 44.48978, 1, 1, 1000, 1000
RFND, 301895494, 0.2, 25, 0, 0
IMU, 301927762, -0.001441186, 0.001152497, 0.001195084, 0.1101411, 0.07030678, -9.788872, 0, 0, 44.48092, 1, 1, 1000, 1000
MAG, 301945316, -14, 339, 187, 0, 0, 0, 0, 0, 0, 1, 301945249
RFND, 301945350, 0.2, 25, 0, 0
BARO, 301945380, -0.6329612, 983.5569, 43.49, 0.08123937, 301945, 0, 35
CTUN, 301945393, 0, 0, 0, 0.3021772, 0.07598502, 0.07598502, -0.63, 0, 0.19, 0, 0, 0
ATT, 301945443, 0, 0.03, 0, -0.38, 69.77, 69.77, 0, 1
RATE, 301945449, -0.1517045, 0.008741304, -0.0005720668, 1.740482, 0.05957175, 0.003882501, -0.0004800505, 0.07677884, -0.0001731286, -233.3554, -0.6157875, 0
NKF1, 301945457, 0.03, -0.38, 69.77, -0.07591937, 0.01645627, -0.005761861, 0, 0, 0, -0.07598502, -0.04, 0.01, -0.03
NKF2, 301945457, 1, 0, 0, 0, 0, 0, 0, 0, 0, 0, 0, 0, 0
NKF3, 301945457, 0, 0, 0, -0.12, 0.07, 0, 0, 0, 0, 0, 0
NKF4, 301945457, 0, 0, 0, 0, 0, 4.174701E-06, 0, 0, 0, 19, 229, 0, 0
NKF5, 301945457, 0, 0, 0, 0, 0.2, 0.13, 0, 0.19, 0.5, 4.43903E-05, 0.001052478, 0.002164364
NKQ1, 301945457, 0.8202643, -0.006002616, 0.003680412, 0.5719414
AHR2, 301945500, 0.07, -0.61, 61.71, -0.63, 0, 0, 0.8584106, 0.003320156, -0.004275079, 0.5129346
MOTB, 301945507, 1, 1, 0, 1
RCIN, 301945511, 0, 0, 0, 0, 0, 0, 0, 0, 0, 0, 0, 0, 0, 0
RCOU, 301945518, 1170, 1170, 1170, 1170, 0, 0, 0, 0, 0, 0, 0, 0, 0, 0
VIBE, 301945526, 0.02358041, 0.02955073, 0.03378718, 0, 0, 0
CTRL, 301945532, 0.000372179, 0.0001457321, 0.004123383, 0.0001496185, 0.0001205068
PRX, 301945564, 2, 0.77, 0, 0.82, 0, 3.6, 0, 0.91, 0, 0, 0, 0.77
IMU, 301967794, -0.0006467549, 0.001640704, -0.007439922, 0.09394765, 0.07923231, -9.806656, 0, 0, 44.47195, 1, 1, 1000, 1000
RFND, 301995733, 0.2, 25, 0, 0
IMU, 302007862, -0.001070483, 0.003454827, 0.016924, 0.0430197, 0.01778211, -9.774809, 0, 0, 44.46285, 1, 1, 1000, 1000
MAG, 302045521, -18, 339, 185, 0, 0, 0, 0, 0, 0, 1, 302045513
RFND, 302045554, 0.2, 25, 0, 0
BARO, 302045585, -0.5990525, 983.553, 43.48, 0.2295897, 302045, 0, 35
CTUN, 302045598, 0, 0, 0, 0.3021772, 0.076113, 0.076113, -0.59, 0, 0.19, 0, 0, 0
ATT, 302045650, 0, 0.03, 0, -0.38, 69.77, 69.77, 0, 1
RATE, 302045655, -0.1498658, -0.06300572, 0.0004875044, 1.724608, -0.1831114, 0.005079917, -0.0005568561, 0.1913188, 0.0002785298, -246.6157, 1.490974, 0
NKF1, 302045663, 0.03, -0.38, 69.77, -0.07772932, 0.01530511, -0.006089275, 0, 0, 0, -0.076113, -0.04, 0.01, -0.03
NKF2, 302045663, 1, 0, 0, 0, 0, 0, 0, 0, 0, 0, 0, 0, 0
NKF3, 302045663, 0, 0, 0, -0.14, 0.08, 0, 0, 0, 0, 0, 0
NKF4, 302045663, 0, 0, 0, 0, 0, 4.585511E-06, 0, 0, 0, 19, 229, 0, 0
NKF5, 302045663, 0, 0, 0, 0, 0.2, 0.13, 0, 0.19, 0.5, 4.708952E-05, 0.001193845, 0.002441998
NKQ1, 302045663, 0.8202533, -0.006020544, 0.00370262, 0.5719569
AHR2, 302045759, 0.07, -0.61, 61.71, -0.59, 0, 0, 0.8584147, 0.00333552, -0.004307949, 0.5129274
MOTB, 302045766, 1, 1, 0, 1
RCIN, 302045771, 0, 0, 0, 0, 0, 0, 0, 0, 0, 0, 0, 0, 0, 0
RCOU, 302045777, 1194, 1194, 1194, 1194, 0, 0, 0, 0, 0, 0, 0, 0, 0, 0
VIBE, 302045785, 0.2008743, 0.23563, 0.1447794, 0, 0, 0
CTRL, 302045792, 0.000396335, 0.0002729602, 0.004080175, 0.0002799935, 0.0002437166
PRX, 302045823, 2, 0.77, 0, 0.83, 0, 3.6, 0, 0.91, 0, 0, 0, 0.77
IMU, 302047846, -0.001673094, -0.001840927, 0.007289371, 0.1228808, 0.07482178, -9.79341, 0, 0, 44.45241, 1, 1, 1000, 1000
IMU, 302087790, -0.002043407, 0.001939382, -0.01872492, 0.0116235, 0.0467122, -9.774754, 0, 0, 44.44318, 1, 1, 1000, 1000
RFND, 302095369, 0.2, 25, 0, 0
IMU, 302127792, 0.0005046941, 0.003704778, 0.005751936, 0.01769295, 0.0360951, -9.786138, 0, 0, 44.43581, 1, 1, 1000, 1000
MAG, 302145350, -18, 339, 190, 0, 0, 0, 0, 0, 0, 1, 302145342
RFND, 302145381, 0.2, 25, 0, 0
BARO, 302145412, -0.6103554, 983.5544, 43.48, 0.09006985, 302145, 0, 35
CTUN, 302145424, 0, 0, 0, 0.3021772, 0.07622075, 0.07622075, -0.61, 0, 0.19, 0, 0, 0
ATT, 302145476, 0, 0.03, 0, -0.37, 69.75, 69.75, 0, 1
RATE, 302145482, -0.1456352, 0.04434476, -0.0005189754, 1.687769, 0.003975462, 0.004522563, -0.0004492865, -0.9009858, 0.0003133811, -212.8847, -2.174377, 0
NKF1, 302145490, 0.03, -0.37, 69.75, -0.07841346, 0.01357398, -0.005256412, 0, 0, 0, -0.07622075, -0.04, 0.01, -0.03
NKF2, 302145490, 1, 0, 0, 0, 0, 0, 0, 0, 0, 0, 0, 0, 0
NKF3, 302145490, 0, 0, 0, -0.14, 0.08, 0, 0, 0, 0, 0, 0
NKF4, 302145490, 0, 0, 0, 0, 0, 5.047656E-06, 0, 0, 0, 19, 229, 0, 0
NKF5, 302145490, 0, 0, 0, 0, 0.2, 0.13, 0, 0.19, 0.5, 4.518779E-05, 0.0009831392, 0.00200307
NKQ1, 302145490, 0.8203482, -0.006078701, 0.00374917, 0.5718199
AHR2, 302145534, 0.07, -0.61, 61.69, -0.61, 0, 0, 0.8585145, 0.003309392, -0.004315581, 0.5127605
MOTB, 302145541, 1, 1, 0, 1
RCIN, 302145545, 0, 0, 0, 0, 0, 0, 0, 0, 0, 0, 0, 0, 0, 0
RCOU, 302145551, 1218, 1218, 1218, 1218, 0, 0, 0, 0, 0, 0, 0, 0, 0, 0
VIBE, 302145559, 0.5343996, 0.4871709, 0.345124, 0, 0, 0
CTRL, 302145566, 0.0004083619, 0.0003850951, 0.003971631, 0.0005349833, 0.0002708503
PRX, 302145598, 2, 0.77, 0, 0.82, 0, 3.6, 0, 0.91, 0, 0, 0, 0.77
IMU, 302167955, 0.002094527, 0.006034329, 0.007467006, 0.1683986, 0.0669115, -9.82233, 0, 0, 44.42862, 1, 1, 1000, 1000
RFND, 302195488, 0.2, 25, 0, 0
IMU, 302207827, -0.004456934, -0.001320903, 0.001464546, 0.1798977, 0.1034025, -9.770567, 0, 0, 44.42181, 1, 1, 1000, 1000
MAG, 302245391, -12, 342, 192, 0, 0, 0, 0, 0, 0, 1, 302245382
RFND, 302245422, 0.2, 25, 0, 0
BARO, 302245453, -0.5934011, 983.5522, 43.48, -0.04945006, 302245, 0, 35
CTUN, 302245466, 0, 0, 0, 0.3021772, 0.07624032, 0.07624032, -0.59, 0, 0.19, 0, 0, 0
ATT, 302245519, 0, 0.03, 0, -0.36, 69.73, 69.73, 0, 1
RATE, 302245524, -0.1658216, -0.008082558, 0.0001566624, 1.652631, -0.1422607, 0.005763382, -0.0004797187, -0.9999192, 0.0001814864, -241.1452, 1.621819, 0
NKF1, 302245532, 0.03, -0.36, 69.73, -0.08044884, 0.01128633, -0.005954203, 0, 0, 0, -0.07624032, -0.04, 0.01, -0.03
NKF2, 302245532, 1, 0, 0, 0, 0, 0, 0, 0, 0, 0, 0, 0, 0
NKF3, 302245532, 0, 0, 0, -0.15, 0.08, 0, 0, 0, 0, 0, 0
NKF4, 302245532, 0, 0, 0, 0, 0, 5.565932E-06, 0, 0, 0, 19, 229, 0, 0
NKF5, 302245532, 0, 0, 0, 0, 0.2, 0.13, 0, 0.19, 0.5, 4.833814E-05, 0.001124986, 0.002291687
NKQ1, 302245532, 0.8204319, -0.006087416, 0.0038297, 0.5716989
AHR2, 302245574, 0.07, -0.61, 61.67, -0.59, 0, 0, 0.8586043, 0.00332947, -0.004295842, 0.5126101
MOTB, 302245581, 1, 1, 0, 1
RCIN, 302245586, 0, 0, 0, 0, 0, 0, 0, 0, 0, 0, 0, 0, 0, 0
RCOU, 302245592, 1231, 1221, 1231, 1221, 0, 0, 0, 0, 0, 0, 0, 0, 0, 0
VIBE, 302245601, 0.4836726, 0.4154539, 0.3780525, 0, 0, 0
CTRL, 302245607, 0.0004379413, 0.0004845063, 0.003892412, 0.0007349526, 0.0003114846
PRX, 302245640, 2, 0.77, 0, 0.83, 0, 3.6, 0, 0.91, 0, 0, 0, 0.77
IMU, 302247839, -0.002043757, -0.004001116, -0.02258042, 0.066006, 0.03900128, -9.823059, 0, 0, 44.41426, 1, 1, 1000, 1000
IMU, 302287766, 0.001293195, 0.006365003, 0.01685562, 0.1165944, 0.05295762, -9.811722, 0, 0, 44.40722, 1, 1, 1000, 1000
RFND, 302295415, 0.2, 25, 0, 0
IMU, 302327798, 0.007442041, 0.007206837, 0.0001913111, 0.2544969, 0.03019141, -9.811428, 0, 0, 44.4042, 1, 1, 1000, 1000
MAG, 302345391, -18, 341, 189, 0, 0, 0, 0, 0, 0, 1, 302345383
RFND, 302345421, 0.2, 25, 0, 0
BARO, 302345451, -0.604704, 983.5539, 43.48, -0.02295896, 302345, 0, 35
CTUN, 302345463, 0, 0, 0, 0.3021772, 0.07635184, 0.07635184, -0.6, 0, 0.19, 0, 0, 0
ATT, 302345514, 0, 0.02, 0, -0.34, 69.79, 69.79, 0, 1
RATE, 302345520, -0.09229395, -0.6167071, 0.004269486, 1.56981, 0.1952824, 0.005267467, -0.0003418044, 0.4659002, -0.0007755417, -240.7739, -3.204155, 0
NKF1, 302345528, 0.02, -0.34, 69.79, -0.0828151, 0.008749566, -0.005945034, 0, 0, 0, -0.07635184, -0.04, 0.01, -0.03
NKF2, 302345528, 1, 0, 0, 0, 0, 0, 0, 0, 0, 0, 0, 0, 0
NKF3, 302345528, 0, 0, 0, -0.15, 0.08, 0, 0, 0, 0, 0, 0
NKF4, 302345528, 0, 0, 0, 0, 0, 6.026526E-06, 0, 0, 0, 19, 229, 0, 0
NKF5, 302345528, 0, 0, 0, 0, 0.2, 0.13, 0, 0.19, 0.5, 4.592013E-05, 0.0009091908, 0.001839658
NKQ1, 302345528, 0.8201355, -0.006283628, 0.003887255, 0.5721216
AHR2, 302345571, 0.06, -0.6, 61.73, -0.6, 0, 0, 0.8583537, 0.00316809, -0.004275904, 0.5130308
MOTB, 302345577, 1, 1, 0, 1
RCIN, 302345582, 0, 0, 0, 0, 0, 0, 0, 0, 0, 0, 0, 0, 0, 0
RCOU, 302345587, 1229, 1227, 1237, 1221, 0, 0, 0, 0, 0, 0, 0, 0, 0, 0
VIBE, 302345596, 0.4199792, 0.3620919, 0.3345381, 0, 0, 0
CTRL, 302345603, 0.0005798463, 0.001138628, 0.003750524, 0.001301913, 0.0005391452
PRX, 302345635, 2, 0.77, 0, 0.82, 0, 3.6, 0, 0.9, 0, 0, 0, 0.77
IMU, 302367865, 0.009269769, 0.000623934, -0.01443982, 0.2665257, 0.09820394, -9.798216, 0, 0, 44.40186, 1, 1, 1000, 1000
RFND, 302395345, 0.2, 25, 0, 0
IMU, 302407770, 0.002314127, -0.003154389, -0.01310363, 0.245649, 0.07723501, -9.791916, 0, 0, 44.40009, 1, 1, 1000, 1000
MAG, 302445242, -18, 341, 196, 0, 0, 0, 0, 0, 0, 1, 302445234
RFND, 302445338, 0.2, 25, 0, 0
BARO, 302445368, -0.514281, 983.5438, 43.48, 0.05298229, 302445, 0, 35
CTUN, 302445381, 0, 0, 0, 0.3021772, 0.0763712, 0.0763712, -0.51, 0, 0.19, 0, 0, 0
ATT, 302445432, 0, 0.02, 0, -0.33, 69.79, 69.79, 0, 1
RATE, 302445437, -0.1047523, -0.2250444, 0.002157197, 1.504473, 0.5210566, 0.0005860584, -0.0002801003, -0.9801459, -0.0003457274, -190.868, -2.820492, 0
NKF1, 302445445, 0.02, -0.33, 69.79, -0.08480686, 0.009842191, -0.00471279, 0, 0, 0, -0.0763712, -0.04, 0.01, -0.03
NKF2, 302445445, 1, 0, 0, 0, 0, 0, 0, 0, 0, 0, 0, 0, 0
NKF3, 302445445, 0, 0, 0, -0.16, 0.08, 0, 0, 0, 0, 0, 0
NKF4, 302445445, 0, 0, 0, 0, 0, 6.664499E-06, 0, 0, 0, 19, 229, 0, 0
NKF5, 302445445, 0, 0, 0, 0, 0.2, 0.13, 0, 0.19, 0.5, 4.959926E-05, 0.001053118, 0.002152205
NKQ1, 302445445, 0.8201379, -0.006349756, 0.003995315, 0.5721167
AHR2, 302445488, 0.06, -0.59, 61.72, -0.51, 0, 0, 0.8583714, 0.003152992, -0.004191226, 0.5130021
MOTB, 302445495, 1, 1, 0, 1
RCIN, 302445500, 0, 0, 0, 0, 0, 0, 0, 0, 0, 0, 0, 0, 0, 0
RCOU, 302445506, 1221, 1224, 1225, 1221, 0, 0, 0, 0, 0, 0, 0, 0, 0, 0
VIBE, 302445514, 0.3780358, 0.4435604, 0.3110532, 0, 0, 0
CTRL, 302445520, 0.0006246746, 0.001262118, 0.003695451, 0.001480478, 0.0006092418
PRX, 302445552, 2, 0.77, 0, 0.82, 0, 3.6, 0, 0.9, 0, 0, 0, 0.77
IMU, 302447796, -0.006706134, 0.008852613, -0.01545617, 0.1265565, 0.1117225, -9.747561, 0, 0, 44.40088, 1, 1, 1000, 1000
IMU, 302487794, -0.00542131, 0.008624697, -0.008469789, 0.112807, 0.0816593, -9.768622, 0, 0, 44.39845, 1, 1, 1000, 1000
RFND, 302495355, 7.65, 25, 0, 0
IMU, 302527853, -0.003007561, 0.002003292, 0.005079485, -0.05194561, 0.06198523, -9.777977, 0, 0, 44.39262, 1, 1, 1000, 1000
MAG, 302545482, -14, 342, 191, 0, 0, 0, 0, 0, 0, 1, 302545473
RFND, 302545511, 0.2, 25, 0, 0
BARO, 302545541, -0.5594925, 983.5485, 43.48, 0.1377539, 302545, 0, 35
CTUN, 302545553, 0, 0, 0, 0.3021772, 0.07619739, 0.07619739, -0.55, 0, 0.19, 0, 0, 0
ATT, 302545604, 0, 0.02, 0, -0.33, 69.78, 69.78, 0, 1
RATE, 302545610, -0.1049056, 0.1511594, -0.0008084755, 1.488539, 0.1836219, 0.0006104936, -0.0004029664, -0.4168019, 6.693858E-05, -48.58187, 2.384377, 0
NKF1, 302545617, 0.02, -0.33, 69.78, -0.0852452, 0.01111091, -0.001199552, 0, 0, 0, -0.07619739, -0.04, 0.01, -0.03
NKF2, 302545617, 1, 0, 0, 0, 0, 0, 0, 0, 0, 0, 0, 0, 0
NKF3, 302545617, 0, 0, 0, -0.17, 0.08, 0, 0, 0, 0, 0, 0
NKF4, 302545617, 0, 0, 0, 0, 0, 7.167769E-06, 0, 0, 0, 19, 229, 0, 0
NKF5, 302545617, 0, 0, 0, 0, 0.2, 0.13, 0, 0.19, 0.5, 6.12599E-05, 0.00187845, 0.004261093
NKQ1, 302545617, 0.8201674, -0.006359101, 0.004021614, 0.5720743
AHR2, 302545659, 0.06, -0.6, 61.71, -0.55, 0, 0, 0.8584118, 0.003185053, -0.004200078, 0.5129341
MOTB, 302545666, 1, 1, 0, 1
RCIN, 302545670, 0, 0, 0, 0, 0, 0, 0, 0, 0, 0, 0, 0, 0, 0
RCOU, 302545676, 1223, 1221, 1221, 1222, 0, 0, 0, 0, 0, 0, 0, 0, 0, 0
VIBE, 302545686, 0.4273049, 0.3706826, 0.3593418, 0, 0, 0
CTRL, 302545692, 0.0006838054, 0.001453741, 0.003714132, 0.001631934, 0.0005070844
PRX, 302545724, 2, 0.77, 0, 0.82, 0, 3.6, 0, 0.9, 0, 0, 0, 0.77
IMU, 302567832, -0.003489285, -0.006340421, 0.005163166, -0.1035628, 0.08223437, -9.781128, 0, 0, 44.38491, 1, 1, 1000, 1000
RFND, 302595512, 0.2, 25, 0, 0
IMU, 302607748, -0.002779505, 0.0001333406, 0.001472455, 0.1325208, 0.03112157, -9.817062, 0, 0, 44.37624, 1, 1, 1000, 1000
MAG, 302645236, -14, 336, 196, 0, 0, 0, 0, 0, 0, 1, 302645228
RFND, 302645327, 0.2, 25, 0, 0
BARO, 302645358, -0.5820982, 983.5514, 43.45, 0.1925021, 302645, 0, 35
CTUN, 302645371, 0, 0, 0, 0.3021772, 0.07552712, 0.07552712, -0.58, 0, 0.19, 0, 0, 0
ATT, 302645422, 0, 0.02, 0, -0.32, 69.79, 69.79, 0, 1
RATE, 302645427, -0.1288191, 0.2960508, -0.00167579, 1.457003, 0.01635935, 0.0020654, -0.0003257582, 0.1259609, 1.101625E-05, -3.63992, -2.858257, 0
NKF1, 302645435, 0.02, -0.32, 69.79, -0.08664887, 0.01072349, -8.987456E-05, 0, 0, 0, -0.07552712, -0.04, 0.01, -0.03
NKF2, 302645435, 1, 0, 0, 0, 0, 0, 0, 0, 0, 0, 0, 0, 0
NKF3, 302645435, 0, 0, 0, -0.17, 0.08, 0, 0, 0, 0, 0, 0
NKF4, 302645435, 0, 0, 0, 0, 0, 7.850565E-06, 0, 0, 0, 19, 229, 0, 0
NKF5, 302645435, 0, 0, 0, 0, 0.2, 0.13, 0, 0.19, 0.5, 5.808349E-05, 0.00134362, 0.002921539
NKQ1, 302645435, 0.8201498, -0.006353318, 0.004104266, 0.5720989
AHR2, 302645478, 0.06, -0.6, 61.71, -0.58, 0, 0, 0.8584106, 0.003216201, -0.004196644, 0.5129359
MOTB, 302645484, 1, 1, 0, 1
RCIN, 302645489, 0, 0, 0, 0, 0, 0, 0, 0, 0, 0, 0, 0, 0, 0
RCOU, 302645495, 1227, 1221, 1224, 1224, 0, 0, 0, 0, 0, 0, 0, 0, 0, 0
VIBE, 302645505, 0.5568562, 0.3571012, 0.3624575, 0, 0, 0
CTRL, 302645511, 0.0006954664, 0.001454933, 0.00362447, 0.001802472, 0.000423352
PRX, 302645543, 2, 0.77, 0, 0.82, 0, 3.6, 0, 0.9, 0, 0, 0, 0.77
IMU, 302647771, 0.004341027, 0.00439691, 0.0007082395, 0.4410284, 0.06506546, -9.755599, 0, 0, 44.3674, 1, 1, 1000, 1000
IMU, 302687783, 0.004965467, 0.005833902, -0.002522077, 0.1622105, 0.07419207, -9.73749, 0, 0, 44.3586, 1, 1, 1000, 1000
RFND, 302695365, 0.2, 25, 0, 0
IMU, 302727861, -0.003263494, 0.002019814, -0.007625719, -0.08725352, 0.08881435, -9.764105, 0, 0, 44.35063, 1, 1, 1000, 1000
MAG, 302745500, -21, 340, 192, 0, 0, 0, 0, 0, 0, 1, 302745492
RFND, 302745533, 0.2, 25, 0, 0
BARO, 302745564, -0.5820982, 983.5513, 43.42, 0.09360186, 302745, 0, 35
