FMT, 128, 89, FMT, BBnNZ, Type,Length,Name,Format,Columns
FMT, 129, 31, PARM, QNf, TimeUS,Name,Value
FMT, 130, 46, GPS, QBIHBcLLefffB, TimeUS,Status,GMS,GWk,NSats,HDop,Lat,Lng,Alt,Spd,GCrs,VZ,U
FMT, 131, 46, GPS2, QBIHBcLLefffB, TimeUS,Status,GMS,GWk,NSats,HDop,Lat,Lng,Alt,Spd,GCrs,VZ,U
FMT, 132, 46, GPSB, QBIHBcLLefffB, TimeUS,Status,GMS,GWk,NSats,HDop,Lat,Lng,Alt,Spd,GCrs,VZ,U
FMT, 193, 24, GPA, QCCCCBI, TimeUS,VDop,HAcc,VAcc,SAcc,VV,SMS
FMT, 194, 24, GPA2, QCCCCBI, TimeUS,VDop,HAcc,VAcc,SAcc,VV,SMS
FMT, 195, 24, GPAB, QCCCCBI, TimeUS,VDop,HAcc,VAcc,SAcc,VV,SMS
FMT, 133, 53, IMU, QffffffIIfBBHH, TimeUS,GyrX,GyrY,GyrZ,AccX,AccY,AccZ,EG,EA,T,GH,AH,GHz,AHz
FMT, 134, 75, MSG, QZ, TimeUS,Message
FMT, 135, 39, RCIN, QHHHHHHHHHHHHHH, TimeUS,C1,C2,C3,C4,C5,C6,C7,C8,C9,C10,C11,C12,C13,C14
FMT, 136, 39, RCOU, QHHHHHHHHHHHHHH, TimeUS,C1,C2,C3,C4,C5,C6,C7,C8,C9,C10,C11,C12,C13,C14
FMT, 137, 15, RSSI, Qf, TimeUS,RXRSSI
FMT, 139, 37, BARO, QffcfIff, TimeUS,Alt,Press,Temp,CRt,SMS,Offset,GndTemp
FMT, 140, 22, POWR, QffHB, TimeUS,Vcc,VServo,Flags,Safety
FMT, 143, 45, CMD, QHHHfffffff, TimeUS,CTot,CNum,CId,Prm1,Prm2,Prm3,Prm4,Lat,Lng,Alt
FMT, 144, 20, RAD, QBBBBBHH, TimeUS,RSSI,RemRSSI,TxBuf,Noise,RemNoise,RxErrors,Fixed
FMT, 146, 43, CAM, QIHLLeeeccC, TimeUS,GPSTime,GPSWeek,Lat,Lng,Alt,RelAlt,GPSAlt,Roll,Pitch,Yaw
FMT, 232, 43, TRIG, QIHLLeeeccC, TimeUS,GPSTime,GPSWeek,Lat,Lng,Alt,RelAlt,GPSAlt,Roll,Pitch,Yaw
FMT, 162, 30, ARSP, QffcffB, TimeUS,Airspeed,DiffPress,Temp,RawPress,Offset,U
FMT, 164, 45, CURR, QfffcHHHHHHHHHH, TimeUS,Volt,Curr,CurrTot,Temp,V1,V2,V3,V4,V5,V6,V7,V8,V9,V10
FMT, 165, 45, CUR2, QfffcHHHHHHHHHH, TimeUS,Volt,Curr,CurrTot,Temp,V1,V2,V3,V4,V5,V6,V7,V8,V9,V10
FMT, 163, 27, ATT, QccccCCCC, TimeUS,DesRoll,Roll,DesPitch,Pitch,DesYaw,Yaw,ErrRP,ErrYaw
FMT, 166, 34, MAG, QhhhhhhhhhBI, TimeUS,MagX,MagY,MagZ,OfsX,OfsY,OfsZ,MOfsX,MOfsY,MOfsZ,Health,S
FMT, 169, 14, MODE, QMBB, TimeUS,Mode,ModeNum,Rsn
FMT, 196, 17, RFND, QCBCB, TimeUS,Dist1,Orient1,Dist2,Orient2
FMT, 223, 33, DMS, IIIIIBBBBBBBBBB, TimeMS,N,Dp,RT,RS,Er,Fa,Fmn,Fmx,Pa,Pmn,Pmx,Sa,Smn,Smx
FMT, 240, 41, BCN, QBBfffffff, TimeUS,Health,Cnt,D0,D1,D2,D3,PosX,PosY,PosZ
FMT, 138, 53, IMU2, QffffffIIfBBHH, TimeUS,GyrX,GyrY,GyrZ,AccX,AccY,AccZ,EG,EA,T,GH,AH,GHz,AHz
FMT, 147, 53, IMU3, QffffffIIfBBHH, TimeUS,GyrX,GyrY,GyrZ,AccX,AccY,AccZ,EG,EA,T,GH,AH,GHz,AHz
FMT, 141, 45, AHR2, QccCfLLffff, TimeUS,Roll,Pitch,Yaw,Alt,Lat,Lng,Q1,Q2,Q3,Q4
FMT, 180, 31, POS, QLLfff, TimeUS,Lat,Lng,Alt,RelHomeAlt,RelOriginAlt
FMT, 142, 45, SIM, QccCfLLffff, TimeUS,Roll,Pitch,Yaw,Alt,Lat,Lng,Q1,Q2,Q3,Q4
FMT, 198, 51, NKF1, QccCfffffffccc, TimeUS,Roll,Pitch,Yaw,VN,VE,VD,dPD,PN,PE,PD,GX,GY,GZ
FMT, 199, 35, NKF2, QbccccchhhhhhB, TimeUS,AZbias,GSX,GSY,GSZ,VWN,VWE,MN,ME,MD,MX,MY,MZ,MI
FMT, 200, 33, NKF3, Qcccccchhhcc, TimeUS,IVN,IVE,IVD,IPN,IPE,IPD,IMX,IMY,IMZ,IYAW,IVT
FMT, 201, 35, NKF4, QcccccfbbHBHHb, TimeUS,SV,SP,SH,SM,SVT,errRP,OFN,OFE,FS,TS,SS,GPS,PI
FMT, 202, 40, NKF5, QBhhhcccCCfff, TimeUS,NI,FIX,FIY,AFI,HAGL,offset,RI,rng,Herr,eAng,eVel,ePos
FMT, 203, 51, NKF6, QccCfffffffccc, TimeUS,Roll,Pitch,Yaw,VN,VE,VD,dPD,PN,PE,PD,GX,GY,GZ
FMT, 204, 35, NKF7, QbccccchhhhhhB, TimeUS,AZbias,GSX,GSY,GSZ,VWN,VWE,MN,ME,MD,MX,MY,MZ,MI
FMT, 205, 33, NKF8, Qcccccchhhcc, TimeUS,IVN,IVE,IVD,IPN,IPE,IPD,IMX,IMY,IMZ,IYAW,IVT
FMT, 206, 35, NKF9, QcccccfbbHBHHb, TimeUS,SV,SP,SH,SM,SVT,errRP,OFN,OFE,FS,TS,SS,GPS,PI
FMT, 207, 36, NKF0, QBccCCcccccccc, TimeUS,ID,rng,innov,SIV,TR,BPN,BPE,BPD,OFH,OFL,OFN,OFE,OFD
FMT, 208, 27, NKQ1, Qffff, TimeUS,Q1,Q2,Q3,Q4
FMT, 209, 27, NKQ2, Qffff, TimeUS,Q1,Q2,Q3,Q4
FMT, 210, 51, XKF1, QccCfffffffccc, TimeUS,Roll,Pitch,Yaw,VN,VE,VD,dPD,PN,PE,PD,GX,GY,GZ
FMT, 211, 34, XKF2, QccccchhhhhhB, TimeUS,AX,AY,AZ,VWN,VWE,MN,ME,MD,MX,MY,MZ,MI
FMT, 212, 33, XKF3, Qcccccchhhcc, TimeUS,IVN,IVE,IVD,IPN,IPE,IPD,IMX,IMY,IMZ,IYAW,IVT
FMT, 213, 35, XKF4, QcccccfbbHBHHb, TimeUS,SV,SP,SH,SM,SVT,errRP,OFN,OFE,FS,TS,SS,GPS,PI
FMT, 214, 40, XKF5, QBhhhcccCCfff, TimeUS,NI,FIX,FIY,AFI,HAGL,offset,RI,rng,Herr,eAng,eVel,ePos
FMT, 215, 51, XKF6, QccCfffffffccc, TimeUS,Roll,Pitch,Yaw,VN,VE,VD,dPD,PN,PE,PD,GX,GY,GZ
FMT, 216, 34, XKF7, QccccchhhhhhB, TimeUS,AX,AY,AZ,VWN,VWE,MN,ME,MD,MX,MY,MZ,MI
FMT, 217, 33, XKF8, Qcccccchhhcc, TimeUS,IVN,IVE,IVD,IPN,IPE,IPD,IMX,IMY,IMZ,IYAW,IVT
FMT, 218, 35, XKF9, QcccccfbbHBHHb, TimeUS,SV,SP,SH,SM,SVT,errRP,OFN,OFE,FS,TS,SS,GPS,PI
FMT, 219, 36, XKF0, QBccCCcccccccc, TimeUS,ID,rng,innov,SIV,TR,BPN,BPE,BPD,OFH,OFL,OFN,OFE,OFD
FMT, 220, 27, XKQ1, Qffff, TimeUS,Q1,Q2,Q3,Q4
FMT, 221, 27, XKQ2, Qffff, TimeUS,Q1,Q2,Q3,Q4
FMT, 222, 35, XKFD, Qffffff, TimeUS,IX,IY,IZ,IVX,IVY,IVZ
FMT, 148, 34, TERR, QBLLHffHH, TimeUS,Status,Lat,Lng,Spacing,TerrH,CHeight,Pending,Loaded
FMT, 149, 18, UBX1, QBHBBH, TimeUS,Instance,noisePerMS,jamInd,aPower,agcCnt
FMT, 150, 16, UBX2, QBbBbB, TimeUS,Instance,ofsI,magI,ofsQ,magQ
FMT, 151, 18, UBY1, QBHBBH, TimeUS,Instance,noisePerMS,jamInd,aPower,agcCnt
FMT, 152, 16, UBY2, QBbBbB, TimeUS,Instance,ofsI,magI,ofsQ,magQ
FMT, 170, 42, GRAW, QIHBBddfBbB, TimeUS,WkMS,Week,numSV,sv,cpMes,prMes,doMes,mesQI,cno,lli
FMT, 171, 24, GRXH, QdHbBB, TimeUS,rcvTime,week,leapS,numMeas,recStat
FMT, 172, 41, GRXS, QddfBBBHBBBBB, TimeUS,prMes,cpMes,doMes,gnss,sv,freq,lock,cno,prD,cpD,doD,trk
FMT, 173, 63, SBFE, QIHBBdddfffff, TimeUS,TOW,WN,Mode,Err,Lat,Lng,Height,Undul,Vn,Ve,Vu,COG
FMT, 153, 19, ESC1, Qcccc, TimeUS,RPM,Volt,Curr,Temp
FMT, 154, 19, ESC2, Qcccc, TimeUS,RPM,Volt,Curr,Temp
FMT, 155, 19, ESC3, Qcccc, TimeUS,RPM,Volt,Curr,Temp
FMT, 156, 19, ESC4, Qcccc, TimeUS,RPM,Volt,Curr,Temp
FMT, 157, 19, ESC5, Qcccc, TimeUS,RPM,Volt,Curr,Temp
FMT, 158, 19, ESC6, Qcccc, TimeUS,RPM,Volt,Curr,Temp
FMT, 159, 19, ESC7, Qcccc, TimeUS,RPM,Volt,Curr,Temp
FMT, 160, 19, ESC8, Qcccc, TimeUS,RPM,Volt,Curr,Temp
FMT, 167, 34, MAG2, QhhhhhhhhhBI, TimeUS,MagX,MagY,MagZ,OfsX,OfsY,OfsZ,MOfsX,MOfsY,MOfsZ,Health,S
FMT, 168, 34, MAG3, QhhhhhhhhhBI, TimeUS,MagX,MagY,MagZ,OfsX,OfsY,OfsZ,MOfsX,MOfsY,MOfsZ,Health,S
FMT, 174, 31, ACC1, QQfff, TimeUS,SampleUS,AccX,AccY,AccZ
FMT, 175, 31, ACC2, QQfff, TimeUS,SampleUS,AccX,AccY,AccZ
FMT, 176, 31, ACC3, QQfff, TimeUS,SampleUS,AccX,AccY,AccZ
FMT, 177, 31, GYR1, QQfff, TimeUS,SampleUS,GyrX,GyrY,GyrZ
FMT, 178, 31, GYR2, QQfff, TimeUS,SampleUS,GyrX,GyrY,GyrZ
FMT, 179, 31, GYR3, QQfff, TimeUS,SampleUS,GyrX,GyrY,GyrZ
FMT, 181, 35, PIDR, Qffffff, TimeUS,Des,P,I,D,FF,AFF
FMT, 182, 35, PIDP, Qffffff, TimeUS,Des,P,I,D,FF,AFF
FMT, 183, 35, PIDY, Qffffff, TimeUS,Des,P,I,D,FF,AFF
FMT, 184, 35, PIDA, Qffffff, TimeUS,Des,P,I,D,FF,AFF
FMT, 185, 35, PIDS, Qffffff, TimeUS,Des,P,I,D,FF,AFF
FMT, 186, 35, PIDL, Qffffff, TimeUS,Des,P,I,D,FF,AFF
FMT, 161, 37, BAR2, QffcfIff, TimeUS,Alt,Press,Temp,CRt,SMS,Offset,GndTemp
FMT, 197, 37, BAR3, QffcfIff, TimeUS,Alt,Press,Temp,CRt,SMS,Offset,GndTemp
FMT, 187, 35, VIBE, QfffIII, TimeUS,VibeX,VibeY,VibeZ,Clip0,Clip1,Clip2
FMT, 188, 47, IMT, Qfffffffff, TimeUS,DelT,DelvT,DelaT,DelAX,DelAY,DelAZ,DelVX,DelVY,DelVZ
FMT, 189, 47, IMT2, Qfffffffff, TimeUS,DelT,DelvT,DelaT,DelAX,DelAY,DelAZ,DelVX,DelVY,DelVZ
FMT, 190, 47, IMT3, Qfffffffff, TimeUS,DelT,DelvT,DelaT,DelAX,DelAY,DelAZ,DelVX,DelVY,DelVZ
FMT, 191, 24, ORGN, QBLLe, TimeUS,Type,Lat,Lng,Alt
FMT, 192, 19, RPM, Qff, TimeUS,rpm1,rpm2
FMT, 233, 47, GMB1, Iffffffffff, TimeMS,dt,dax,day,daz,dvx,dvy,dvz,jx,jy,jz
FMT, 234, 44, GMB2, IBfffffffff, TimeMS,es,ex,ey,ez,rx,ry,rz,tx,ty,tz
FMT, 235, 13, GMB3, Ihhh, TimeMS,rl_torque_cmd,el_torque_cmd,az_torque_cmd
FMT, 236, 59, RATE, Qffffffffffff, TimeUS,RDes,R,ROut,PDes,P,POut,YDes,Y,YOut,ADes,A,AOut
FMT, 237, 23, RALY, QBBLLh, TimeUS,Tot,Seq,Lat,Lng,Alt
FMT, 238, 43, VISO, Qffffffff, TimeUS,dt,AngDX,AngDY,AngDZ,PosDX,PosDY,PosDZ,conf
FMT, 224, 23, SBPH, QIII, TimeUS,CrcError,LastInject,IARhyp
FMT, 229, 80, SBR1, QHHBZ, TimeUS,msg_type,sender_id,msg_len,d1
FMT, 230, 205, SBR2, QHZZZ, TimeUS,msg_type,d2,d3,d4
FMT, 25, 41, ATUN, QBBfffffff, TimeUS,Axis,TuneStep,Targ,Min,Max,RP,RD,SP,ddt
FMT, 26, 19, ATDE, Qff, TimeUS,Angle,Rate
FMT, 31, 22, PTUN, QBfHHH, TimeUS,Param,TunVal,CtrlIn,TunLo,TunHi
FMT, 12, 28, OF, QBffff, TimeUS,Qual,flowX,flowY,bodyX,bodyY
FMT, 5, 51, NTUN, Qffffffffff, TimeUS,DPosX,DPosY,PosX,PosY,DVelX,DVelY,VelX,VelY,DAccX,DAccY
FMT, 4, 51, CTUN, Qffffffeccfhh, TimeUS,ThI,ABst,ThO,ThH,DAlt,Alt,BAlt,DSAlt,SAlt,TAlt,DCRt,CRt
FMT, 6, 32, PM, QHHIhBHII, TimeUS,NLon,NLoop,MaxT,PMT,I2CErr,INSErr,LogDrop,Mem
FMT, 30, 27, MOTB, Qffff, TimeUS,LiftMax,BatVolt,BatRes,ThLimit
FMT, 13, 12, EV, QB, TimeUS,Id
FMT, 20, 14, D16, QBh, TimeUS,Id,Value
FMT, 21, 14, DU16, QBH, TimeUS,Id,Value
FMT, 22, 16, D32, QBi, TimeUS,Id,Value
FMT, 23, 16, DU32, QBI, TimeUS,Id,Value
FMT, 24, 16, DFLT, QBf, TimeUS,Id,Value
FMT, 19, 13, ERR, QBB, TimeUS,Subsys,ECode
FMT, 32, 19, HELI, Qff, TimeUS,DRRPM,ERRPM
FMT, 33, 29, PL, QBBffff, TimeUS,Heal,TAcq,pX,pY,vX,vY
FMT, 34, 36, GUID, QBffffff, TimeUS,Type,pX,pY,pZ,vX,vY,vZ
FMT, 35, 32, THRO, QBffffbbbb, TimeUS,Stage,Vel,VelZ,Acc,AccEfZ,Throw,AttOk,HgtOk,PosOk
FMT, 36, 56, PRX, QBfffffffffff, TimeUS,Health,D0,D45,D90,D135,D180,D225,D270,D315,DUp,CAn,CDis
MODE, 40331165, 100, 100, 2
IMU, 40333989, 0.0003345672, 0.000540962, 0.0001523875, 0.1129355, -0.1399333, -9.773857, 0, 0, 39.94175, 1, 1, 998, 998
EV, 40337360, 15
RFND, 40358080, 0.2, 25, 0, 0
FMT, 254, 47, NKT1, QIffffffff, TimeUS,Cnt,IMUMin,IMUMax,EKFMin,EKFMax,AngMin,AngMax,VelMin,VelM
FMT, 253, 31, CTRL, Qfffff, TimeUS,RMSRollP,RMSRollD,RMSPitchP,RMSPitchD,RMSYaw
MSG, 40463373, APM:Copter V3.5.7 (15576f2a)
MSG, 40463379, New mission
MSG, 40463391, Frame: QUAD
MODE, 40463397, Autonomous, 100, 2
IMU, 40495046, 4.687322E-05, 0.0002740645, -1.497672E-05, 0.1029981, -0.1471738, -9.791344, 0, 0, 39.94742, 1, 1, 998, 998
MAG, 40510228, 282, 516, 506, 0, 0, 0, 0, 0, 0, 1, 40510220
RFND, 40510263, 0.2, 25, 0, 0
BARO, 40510294, 0.2345347, 1001.298, 38.48, -0.01779314, 40510, 0, 35
CTUN, 40510307, 0, 0, 0, 0.3244556, 0.04742083, 0.04742083, 0.23, 0, 0.19, 0, 0, -1
ATT, 40510363, 0, 0.45, 0, 0.13, 359.43, 359.44, 0, 1
RATE, 40510369, -2.046599, -0.02480094, -0.004534709, -0.5893079, 0.01634759, -0.001532928, 0.001410184, 0.06201817, -1.734681E-05, 622.9876, -1.037884, 0
NKF1, 40510377, 0.45, 0.13, 359.43, -0.01019879, -0.008964877, 0.01538241, 0, 0, 0, -0.04742083, 0, 0, 0
NKF2, 40510377, 1, 0, 0, 0, 0, 0, 0, 0, 0, 0, 0, 0, 0
NKF3, 40510377, 0, 0, 0, 0, 0, 0.01, 0, 0, 0, 0, 0
NKF4, 40510377, 0, 0, 0, 0, 0, 1.345466E-05, 0, 0, 0, 19, 229, 0, 0
NKF5, 40510377, 0, 0, 0, 0, 0.18, 0.13, 0, 0.19, 0.5, 3.020825E-05, 0.0007082252, 0.001913013
NKQ1, 40510377, 0.9999455, 0.00700976, 0.005951007, -0.004966638
AHR2, 40510419, 0.46, 0.14, 359.4, 0.23, 0, 0, 0.9999776, 0.004047911, 0.00124099, -0.005184714
MOTB, 40510426, 1, 1, 0, 1
RCIN, 40510431, 0, 0, 0, 0, 0, 0, 0, 0, 0, 0, 0, 0, 0, 0
RCOU, 40510436, 1101, 1101, 1101, 1101, 0, 0, 0, 0, 0, 0, 0, 0, 0, 0
VIBE, 40510446, 0.02036639, 0.0215878, 0.03213333, 0, 0, 0
CTRL, 40510451, 0.004835933, 0.0001584745, 0.001403349, 0.0001996456, 7.777202E-05
PRX, 40510484, 2, 0.56, 0, 0.59, 0, 2.6, 0, 2.23, 0, 0, 0, 0.56
IMU, 40535100, -0.0004471675, 0.001920774, -0.0007358693, 0.1191673, -0.1420455, -9.795991, 0, 0, 39.9485, 1, 1, 998, 998
RFND, 40560124, 0.2, 25, 0, 0
IMU, 40578370, 0.0001239979, 0.0003886059, -0.0008882105, 0.1045611, -0.1384564, -9.770158, 0, 0, 39.94935, 1, 1, 998, 998
MAG, 40612007, 284, 522, 503, 0, 0, 0, 0, 0, 0, 1, 40611999
RFND, 40612042, 0.2, 25, 0, 0
BARO, 40612072, 0.3419121, 1001.286, 38.48, -0.340734, 40612, 0, 35
CTUN, 40612084, 0, 0, 0, 0.3244556, 0.04679531, 0.04679531, 0.34, 0, 0.19, 0, 0, -1
ATT, 40612230, 0, 0.45, 0, 0.13, 359.43, 359.44, 0, 1
RATE, 40612237, -2.048488, 0.02661241, -0.004906309, -0.5961649, -0.04261095, -0.001485059, 0.002164229, -0.002722803, -1.714631E-05, 655.9832, -0.5539894, 0
NKF1, 40612246, 0.45, 0.13, 359.43, -0.01132274, -0.009075475, 0.01619712, 0, 0, 0, -0.04679531, 0, 0, 0
NKF2, 40612246, 1, 0, 0, 0, 0, 0, 0, 0, 0, 0, 0, 0, 0
NKF3, 40612246, 0, 0, 0, 0, 0, 0.01, 0, 0, 0, 0, 0
NKF4, 40612246, 0, 0, 0, 0, 0, 8.729466E-06, 0, 0, 0, 19, 229, 0, 0
NKF5, 40612246, 0, 0, 0, 0, 0.18, 0.13, 0, 0.19, 0.5, 2.864224E-05, 0.0004789301, 0.001172755
NKQ1, 40612246, 0.9999453, 0.007012849, 0.00596295, -0.004976055
AHR2, 40612292, 0.46, 0.14, 359.4, 0.34, 0, 0, 0.9999775, 0.004051968, 0.001249661, -0.005194197
MOTB, 40612299, 1, 1, 0, 1
RCIN, 40612303, 0, 0, 0, 0, 0, 0, 0, 0, 0, 0, 0, 0, 0, 0
RCOU, 40612309, 1101, 1101, 1101, 1101, 0, 0, 0, 0, 0, 0, 0, 0, 0, 0
VIBE, 40612318, 0.02163377, 0.0184744, 0.03116124, 0, 0, 0
CTRL, 40612325, 0.00483368, 0.0001383148, 0.001415867, 0.0002010161, 6.535036E-05
PRX, 40612358, 2, 0.56, 0, 0.59, 0, 2.93, 0, 2.23, 0, 0, 0, 0.56
IMU, 40616884, 0.0001295952, 7.121149E-05, -0.0005991589, 0.09626202, -0.1335817, -9.77772, 0, 0, 39.95008, 1, 1, 998, 998
IMU, 40657048, -0.0009410168, -0.001692872, -0.0007663364, 0.1116583, -0.1305609, -9.773806, 0, 0, 39.94991, 1, 1, 998, 998
RFND, 40662067, 0.2, 25, 0, 0
IMU, 40697816, 0.0007279871, -0.00045066, -0.001259513, 0.1178703, -0.1341489, -9.789193, 0, 0, 39.94914, 1, 1, 998, 998
MAG, 40712074, 285, 521, 501, 0, 0, 0, 0, 0, 0, 1, 40712066
RFND, 40712171, 0.2, 25, 0, 0
BARO, 40712203, 0.4040779, 1001.279, 38.48, -0.2853667, 40712, 0, 35
CTUN, 40712215, 0, 0, 0, 0.3244556, 0.04643329, 0.04643329, 0.4, 0, 0.19, 0, 0, -1
ATT, 40712273, 0, 0.45, 0, 0.12, 359.42, 359.44, 0, 1
RATE, 40712279, -2.046408, 0.03240787, -0.004858057, -0.5832064, -0.01882982, -0.001333302, 0.002250556, 0.01798794, 6.779216E-05, 660.8675, 0.702095, 0
NKF1, 40712287, 0.45, 0.12, 359.43, -0.01172453, -0.008869174, 0.01631772, 0, 0, 0, -0.04643329, 0, 0, 0
NKF2, 40712287, 1, 0, 0, 0, 0, 0, 0, 0, 0, 0, 0, 0, 0
NKF3, 40712287, 0, 0, 0, 0, 0, 0.01, 0, 0, 0, 0, 0
NKF4, 40712287, 0, 0, 0, 0, 0, 5.818448E-06, 0, 0, 0, 19, 229, 0, 0
NKF5, 40712287, 0, 0, 0, 0, 0.18, 0.13, 0, 0.19, 0.5, 2.985635E-05, 0.0007057466, 0.001806875
NKQ1, 40712287, 0.9999454, 0.00700936, 0.005938263, -0.004987759
AHR2, 40712332, 0.46, 0.14, 359.4, 0.4, 0, 0, 0.9999775, 0.00405266, 0.001216523, -0.005206061
MOTB, 40712338, 1, 1, 0, 1
RCIN, 40712342, 0, 0, 0, 0, 0, 0, 0, 0, 0, 0, 0, 0, 0, 0
RCOU, 40712348, 1101, 1101, 1101, 1101, 0, 0, 0, 0, 0, 0, 0, 0, 0, 0
VIBE, 40712357, 0.02109517, 0.02040649, 0.03226806, 0, 0, 0
CTRL, 40712363, 0.00482844, 0.0001423312, 0.001390228, 0.0002100988, 5.762015E-05
PRX, 40712396, 2, 0.56, 0, 0.59, 0, 2.24, 0, 2.23, 0, 0, 0, 0.56
IMU, 40737043, 9.761077E-05, -0.0003262268, 0.000647366, 0.1088743, -0.1368634, -9.790902, 0, 0, 39.94932, 1, 1, 998, 998
RFND, 40761985, 0.2, 25, 0, 0
IMU, 40777039, -0.0003900834, -0.0004826278, -0.001265912, 0.1048535, -0.1491243, -9.776338, 0, 0, 39.94897, 1, 1, 998, 998
MAG, 40812021, 279, 527, 498, 0, 0, 0, 0, 0, 0, 1, 40812013
RFND, 40812057, 0.2, 25, 0, 0
BARO, 40812088, 0.3164806, 1001.289, 38.49, 0.08917354, 40812, 0, 35
CTUN, 40812168, 0, 0, 0, 0.3244556, 0.04585091, 0.04585091, 0.31, 0, 0.19, 0, 0, -1
ATT, 40812231, 0, 0.45, 0, 0.12, 359.42, 359.43, 0, 1
RATE, 40812236, -2.024883, -0.03247632, -0.004837405, -0.5766798, 0.01176228, -0.001599379, 0.002924319, -0.08991281, 9.698025E-05, 687.3775, -1.895618, 0
NKF1, 40812245, 0.45, 0.12, 359.42, -0.01235935, -0.008909713, 0.01697228, 0, 0, 0, -0.04585091, 0, 0, 0
NKF2, 40812245, 1, 0, 0, 0, 0, 0, 0, 0, 0, 0, 0, 0, 0
NKF3, 40812245, 0, 0, 0, 0, 0, 0.01, 0, 0, 0, 0, 0
NKF4, 40812245, 0, 0, 0, 0, 0, 3.938082E-06, 0, 0, 0, 19, 229, 0, 0
NKF5, 40812245, 0, 0, 0, 0, 0.18, 0.13, 0, 0.19, 0.5, 3.239294E-05, 0.001034036, 0.002672181
NKQ1, 40812245, 0.9999456, 0.006968468, 0.00592405, -0.005016348
AHR2, 40812289, 0.45, 0.13, 359.4, 0.31, 0, 0, 0.9999775, 0.004015491, 0.001194057, -0.005234641
MOTB, 40812296, 1, 1, 0, 1
RCIN, 40812300, 0, 0, 0, 0, 0, 0, 0, 0, 0, 0, 0, 0, 0, 0
RCOU, 40812306, 1101, 1101, 1101, 1101, 0, 0, 0, 0, 0, 0, 0, 0, 0, 0
VIBE, 40812314, 0.02399497, 0.02077475, 0.03015282, 0, 0, 0
CTRL, 40812321, 0.004788927, 0.0001602624, 0.001362141, 0.0001852826, 5.579703E-05
PRX, 40812449, 2, 0.56, 0, 0.59, 0, 2.69, 0, 2.23, 0, 0, 0, 0.56
IMU, 40816914, -0.0009251542, 0.00123459, -0.001857512, 0.100655, -0.1280138, -9.776561, 0, 0, 39.94809, 1, 1, 998, 998
IMU, 40856922, 0.0004318324, -0.0007136997, -0.00198188, 0.1040015, -0.1432255, -9.775082, 0, 0, 39.94809, 1, 1, 998, 998
RFND, 40862030, 0.2, 25, 0, 0
IMU, 40897252, -0.0006847564, -0.0009932177, -0.0006822377, 0.1028713, -0.1493156, -9.792854, 0, 0, 39.94797, 1, 1, 998, 998
MAG, 40916241, 283, 521, 501, 0, 0, 0, 0, 0, 0, 1, 40916233
RFND, 40916273, 0.2, 25, 0, 0
BARO, 40916306, 0.2853977, 1001.293, 38.49, 0.2635934, 40916, 0, 35
CTUN, 40916318, 0, 0, 0, 0.3244556, 0.04533181, 0.04533181, 0.28, 0, 0.19, 0, 0, -1
ATT, 40916378, 0, 0.44, 0, 0.12, 359.42, 359.43, 0, 1
RATE, 40916384, -2.02334, 0.02075134, -0.004926364, -0.5820629, 0.03130252, -0.001650296, 0.001075908, -0.005734128, 0.0001258263, 709.6076, -1.309013, 0
NKF1, 40916392, 0.44, 0.12, 359.42, -0.01300952, -0.009730167, 0.01752117, 0, 0, 0, -0.04533181, 0, 0, 0
NKF2, 40916392, 1, 0, 0, 0, 0, 0, 0, 0, 0, 0, 0, 0, 0
NKF3, 40916392, 0, 0, 0, 0, 0, 0.01, 0, 0, 0, 0, 0
NKF4, 40916392, 0, 0, 0, 0, 0, 2.656978E-06, 0, 0, 0, 19, 229, 0, 0
NKF5, 40916392, 0, 0, 0, 0, 0.18, 0.13, 0, 0.19, 0.5, 3.496889E-05, 0.0007113672, 0.00171897
NKQ1, 40916392, 0.9999454, 0.006963957, 0.005935168, -0.005048965
AHR2, 40916436, 0.45, 0.13, 359.39, 0.28, 0, 0, 0.9999774, 0.004009481, 0.001200191, -0.00526741
MOTB, 40916443, 1, 1, 0, 1
RCIN, 40916447, 0, 0, 0, 0, 0, 0, 0, 0, 0, 0, 0, 0, 0, 0
RCOU, 40916453, 1101, 1101, 1101, 1101, 0, 0, 0, 0, 0, 0, 0, 0, 0, 0
VIBE, 40916461, 0.01985406, 0.02096644, 0.03178918, 0, 0, 0
CTRL, 40916468, 0.004778604, 0.0001563161, 0.001374418, 0.0002354298, 9.46178E-05
PRX, 40916523, 2, 0.56, 0, 0.59, 0, 2.99, 0, 2.24, 0, 0, 0, 0.56
IMU, 40941479, -0.0008150485, -0.0009410497, -0.001331367, 0.1058091, -0.1329536, -9.794555, 0, 0, 39.94827, 1, 1, 998, 998
RFND, 40964859, 0.2, 25, 0, 0
IMU, 40979653, 0.001061628, -0.0006736511, -0.000505976, 0.09889853, -0.1305855, -9.791091, 0, 0, 39.94809, 1, 1, 998, 998
MAG, 41014657, 279, 521, 501, 0, 0, 0, 0, 0, 0, 1, 41014649
RFND, 41014687, 0.2, 25, 0, 0
BARO, 41014721, 0.2712691, 1001.294, 38.49, 0.01413052, 41014, 0, 35
CTUN, 41014733, 0, 0, 0, 0.3244556, 0.0447921, 0.0447921, 0.27, 0, 0.19, 0, 0, -1
DU32, 41014754, 7, 50357752
ATT, 41014850, 0, 0.44, 0, 0.12, 359.41, 359.43, 0, 1
RATE, 41014856, -2.020329, -0.03552984, -0.004611382, -0.5650155, -0.07689917, -0.000927109, 0.003879915, -0.01031629, 6.336811E-05, 702.8207, -0.4981041, 0
NKF1, 41014864, 0.44, 0.12, 359.42, -0.01427713, -0.009733642, 0.0173536, 0, 0, 0, -0.0447921, 0, 0, 0
NKF2, 41014864, 1, 0, 0, 0, 0, 0, 0, 0, 0, 0, 0, 0, 0
NKF3, 41014864, 0, 0, 0, -0.01, 0, 0.01, 0, 0, 0, 0, 0
NKF4, 41014864, 0, 0, 0, 0, 0, 1.834722E-06, 0, 0, 0, 19, 229, 0, 0
NKF5, 41014864, 0, 0, 0, 0, 0.18, 0.13, 0, 0.19, 0.5, 3.663753E-05, 0.000988662, 0.002519031
NKQ1, 41014864, 0.9999456, 0.006956516, 0.00590149, -0.005069453
AHR2, 41014907, 0.45, 0.13, 359.39, 0.27, 0, 0, 0.9999774, 0.004001653, 0.001161216, -0.005288183
MOTB, 41014913, 1, 1, 0, 1
RCIN, 41014918, 0, 0, 0, 0, 0, 0, 0, 0, 0, 0, 0, 0, 0, 0
RCOU, 41014923, 1101, 1101, 1101, 1101, 0, 0, 0, 0, 0, 0, 0, 0, 0, 0
VIBE, 41014932, 0.02197413, 0.02008993, 0.03358048, 0, 0, 0
CTRL, 41014939, 0.004773492, 0.0001572574, 0.001348821, 0.0002184635, 9.488239E-05
PRX, 41014971, 2, 0.56, 0, 0.59, 0, 3.32, 0, 2.22, 0, 0, 0, 0.56
IMU, 41019871, -0.0004432951, -0.0009514864, -0.0007513873, 0.09554598, -0.1367034, -9.787938, 0, 0, 39.94812, 1, 1, 998, 998
IMU, 41059728, -0.0009818358, 0.001176636, 0.0006687013, 0.1034918, -0.1517544, -9.792597, 0, 0, 39.94813, 1, 1, 998, 998
RFND, 41064632, 0.2, 25, 0, 0
IMU, 41099634, -0.000530256, 0.001598198, 2.449313E-06, 0.1101471, -0.1451413, -9.781548, 0, 0, 39.9481, 1, 1, 998, 998
MAG, 41114890, 287, 518, 500, 0, 0, 0, 0, 0, 0, 1, 41114882
RFND, 41114922, 0.2, 25, 0, 0
BARO, 41114954, 0.4803723, 1001.271, 38.48, -0.1933507, 41114, 0, 35
CTUN, 41114967, 0, 0, 0, 0.3244556, 0.04432252, 0.04432252, 0.48, 0, 0.19, 0, 0, -1
ATT, 41115024, 0, 0.44, 0, 0.12, 359.41, 359.43, 0, 1
RATE, 41115029, -2.015449, 0.004511055, -0.004921804, -0.5753281, 0.08367289, -0.001548317, 0.00334767, -0.0373443, 5.257242E-05, 701.134, -1.785088, 0
NKF1, 41115037, 0.44, 0.12, 359.42, -0.01532446, -0.01090374, 0.01731195, 0, 0, 0, -0.04432252, 0, 0, 0
NKF2, 41115037, 1, 0, 0, 0, 0, 0, 0, 0, 0, 0, 0, 0, 0
NKF3, 41115037, 0, 0, 0, -0.01, 0, 0.01, 0, 0, 0, 0, 0
NKF4, 41115037, 0, 0, 0, 0, 0, 1.291433E-06, 0, 0, 0, 19, 229, 0, 0
NKF5, 41115037, 0, 0, 0, 0, 0.18, 0.13, 0, 0.19, 0.5, 3.759551E-05, 0.0006850651, 0.001622337
NKQ1, 41115037, 0.9999454, 0.006949247, 0.005921514, -0.005088347
AHR2, 41115080, 0.45, 0.13, 359.39, 0.48, 0, 0, 0.9999772, 0.003997986, 0.001173584, -0.005307198
MOTB, 41115088, 1, 1, 0, 1
RCIN, 41115192, 0, 0, 0, 0, 0, 0, 0, 0, 0, 0, 0, 0, 0, 0
RCOU, 41115198, 1101, 1101, 1101, 1101, 0, 0, 0, 0, 0, 0, 0, 0, 0, 0
VIBE, 41115270, 0.02055686, 0.01953724, 0.03182353, 0, 0, 0
CTRL, 41115278, 0.004762019, 0.0001595237, 0.001360291, 0.00022029, 9.106989E-05
PRX, 41115311, 2, 0.56, 0, 0.59, 0, 2.48, 0, 2.21, 0, 0, 0, 0.56
IMU, 41139777, 0.0002799153, 0.0009628345, 0.0007095624, 0.09954157, -0.135819, -9.799858, 0, 0, 39.94815, 1, 1, 998, 998
RFND, 41164642, 0.2, 25, 0, 0
IMU, 41179596, 0.0006984733, -0.002983965, -0.0006080268, 0.1139279, -0.1424748, -9.776271, 0, 0, 39.94812, 1, 1, 998, 998
MAG, 41214668, 284, 520, 503, 0, 0, 0, 0, 0, 0, 1, 41214660
RFND, 41214699, 0.2, 25, 0, 0
BARO, 41214733, 0.4747209, 1001.272, 38.49, 0.06631491, 41214, 0, 35
CTUN, 41214744, 0, 0, 0, 0.3244556, 0.04396837, 0.04396837, 0.47, 0, 0.19, 0, 0, -1
ATT, 41214802, 0, 0.44, 0, 0.12, 359.41, 359.42, 0, 1
RATE, 41214807, -2.017576, -0.03313969, -0.004522795, -0.5536759, -0.1162368, -0.0008459048, 0.0009529354, -0.1085317, 0.0001280495, 704.5902, -0.3656387, 0
NKF1, 41214814, 0.44, 0.12, 359.41, -0.01627753, -0.0112173, 0.01739729, 0, 0, 0, -0.04396837, 0, 0, 0
NKF2, 41214814, 1, 0, 0, 0, 0, 0, 0, 0, 0, 0, 0, 0, 0
NKF3, 41214814, 0, 0, 0, -0.01, -0.01, 0.01, 0, 0, 0, 0, 0
NKF4, 41214814, 0, 0, 0, 0, 0, 9.361093E-07, 0, 0, 0, 19, 229, 0, 0
NKF5, 41214814, 0, 0, 0, 0, 0.18, 0.13, 0, 0.19, 0.5, 3.806723E-05, 0.0008981952, 0.002281165
NKQ1, 41214814, 0.9999455, 0.006952671, 0.005877975, -0.005115347
AHR2, 41214859, 0.45, 0.13, 359.38, 0.47, 0, 0, 0.9999771, 0.004005512, 0.001121867, -0.005334572
MOTB, 41214866, 1, 1, 0, 1
RCIN, 41214870, 0, 0, 0, 0, 0, 0, 0, 0, 0, 0, 0, 0, 0, 0
RCOU, 41214876, 1101, 1101, 1101, 1101, 0, 0, 0, 0, 0, 0, 0, 0, 0, 0
VIBE, 41214885, 0.01974249, 0.0198284, 0.0330223, 0, 0, 0
CTRL, 41214891, 0.004770342, 0.000140739, 0.001326782, 0.0002506283, 8.34117E-05
PRX, 41214923, 2, 0.56, 0, 0.59, 0, 1.93, 0, 2.21, 0, 0, 0, 0.56
IMU, 41219650, -0.000359556, -0.002395333, -0.001500677, 0.1140694, -0.1500613, -9.79707, 0, 0, 39.94827, 1, 1, 998, 998
IMU, 41259619, -0.0001434601, 0.001673901, 0.0003253232, 0.1069911, -0.1373181, -9.791774, 0, 0, 39.94829, 1, 1, 998, 998
RFND, 41264641, 0.2, 25, 0, 0
IMU, 41299569, -0.0005428112, -0.001944083, -0.0007842011, 0.1070094, -0.1517518, -9.802685, 0, 0, 39.94807, 1, 1, 998, 998
MAG, 41314621, 282, 519, 505, 0, 0, 0, 0, 0, 0, 1, 41314613
RFND, 41314653, 0.2, 25, 0, 0
BARO, 41314687, 0.5764468, 1001.26, 38.48, 0.5582278, 41314, 0, 35
CTUN, 41314699, 0, 0, 0, 0.3244556, 0.04345967, 0.04345967, 0.57, 0, 0.19, 0, 0, -1
ATT, 41314757, 0, 0.44, 0, 0.11, 359.41, 359.42, 0, 1
RATE, 41314763, -2.014351, -0.04549208, -0.004557509, -0.5290524, -0.08298479, -0.001028216, 0.002394173, -0.05942744, 6.141122E-05, 661.355, 0.7253647, 0
NKF1, 41314770, 0.44, 0.11, 359.41, -0.01697553, -0.0121602, 0.01632975, 0, 0, 0, -0.04345967, 0, 0, 0
NKF2, 41314770, 1, 0, 0, 0, 0, 0, 0, 0, 0, 0, 0, 0, 0
NKF3, 41314770, 0, 0, 0, -0.01, -0.01, 0.01, 0, 0, 0, 0, 0
NKF4, 41314770, 0, 0, 0, 0, 0, 7.150792E-07, 0, 0, 0, 19, 229, 0, 0
NKF5, 41314770, 0, 0, 0, 0, 0.18, 0.13, 0, 0.19, 0.5, 3.8065E-05, 0.0006319744, 0.001461754
NKQ1, 41314770, 0.9999458, 0.006945197, 0.005830696, -0.005128452
AHR2, 41314813, 0.45, 0.12, 359.38, 0.57, 0, 0, 0.9999771, 0.004005693, 0.001062943, -0.005347996
MOTB, 41314820, 1, 1, 0, 1
RCIN, 41314824, 0, 0, 0, 0, 0, 0, 0, 0, 0, 0, 0, 0, 0, 0
RCOU, 41314830, 1101, 1101, 1101, 1101, 0, 0, 0, 0, 0, 0, 0, 0, 0, 0
VIBE, 41314838, 0.01984071, 0.02089943, 0.03441783, 0, 0, 0
CTRL, 41314844, 0.004761835, 0.0001479094, 0.001275839, 0.0002853879, 9.068326E-05
PRX, 41314877, 2, 0.56, 0, 0.59, 0, 1.92, 0, 2.22, 0, 0, 0, 0.56
IMU, 41341377, 0.0008892306, -0.001198079, -0.0009110864, 0.1182816, -0.1500969, -9.794949, 0, 0, 39.94813, 1, 1, 998, 998
RFND, 41365640, 0.2, 25, 0, 0
IMU, 41380640, -0.001787578, 0.0007366529, -0.0001005721, 0.1052684, -0.1388659, -9.783906, 0, 0, 39.94814, 1, 1, 998, 998
MAG, 41415586, 284, 525, 496, 0, 0, 0, 0, 0, 0, 1, 41415578
RFND, 41415618, 0.2, 25, 0, 0
BARO, 41415650, 0.6075297, 1001.257, 38.48, 0.7740334, 41415, 0, 35
CTUN, 41415662, 0, 0, 0, 0.3244556, 0.04321276, 0.04321276, 0.6, 0, 0.19, 0, 0, -1
ATT, 41415721, 0, 0.44, 0, 0.11, 359.4, 359.42, 0, 1
RATE, 41415726, -2.009723, 0.003308091, -0.004956915, -0.5165061, -0.04783217, -0.001094718, 0.0002199844, -0.01143336, 0.0001521999, 633.4095, 1.423073, 0
NKF1, 41415734, 0.44, 0.11, 359.41, -0.01708369, -0.01289482, 0.01563974, 0, 0, 0, -0.04321276, 0, 0, 0
NKF2, 41415734, 1, 0, 0, 0, 0, 0, 0, 0, 0, 0, 0, 0, 0
NKF3, 41415734, 0, 0, 0, -0.01, -0.01, 0.01, 0, 0, 0, 0, 0
NKF4, 41415734, 0, 0, 0, 0, 0, 5.958624E-07, 0, 0, 0, 19, 229, 0, 0
NKF5, 41415734, 0, 0, 0, 0, 0.18, 0.13, 0, 0.19, 0.5, 3.778905E-05, 0.0008513581, 0.00217117
NKQ1, 41415734, 0.9999457, 0.006937949, 0.005807316, -0.00516924
AHR2, 41415804, 0.45, 0.12, 359.38, 0.6, 0, 0, 0.9999769, 0.00400619, 0.001028802, -0.005389036
MOTB, 41415812, 1, 1, 0, 1
RCIN, 41415817, 0, 0, 0, 0, 0, 0, 0, 0, 0, 0, 0, 0, 0, 0
RCOU, 41415822, 1101, 1101, 1101, 1101, 0, 0, 0, 0, 0, 0, 0, 0, 0, 0
VIBE, 41415831, 0.02035349, 0.02116979, 0.0362961, 0, 0, 0
CTRL, 41415989, 0.004750693, 0.0001923611, 0.001236773, 0.0002568238, 0.0001080773
PRX, 41416022, 2, 0.56, 0, 0.59, 0, 2.48, 0, 2.22, 0, 0, 0, 0.56
IMU, 41420465, -4.892648E-05, -0.0001989273, 0.0004985239, 0.1302081, -0.146315, -9.805725, 0, 0, 39.94862, 1, 1, 998, 998
IMU, 41461822, 0.001010127, 0.0002362987, -0.0009080038, 0.1107728, -0.140557, -9.794157, 0, 0, 39.94976, 1, 1, 998, 998
RFND, 41466255, 0.2, 25, 0, 0
IMU, 41500575, 8.248317E-05, -0.001694021, -0.0008435142, 0.1081983, -0.1426699, -9.796403, 0, 0, 39.95006, 1, 1, 998, 998
MAG, 41515607, 278, 522, 498, 0, 0, 0, 0, 0, 0, 1, 41515599
RFND, 41515644, 0.2, 25, 0, 0
BARO, 41515675, 0.5481896, 1001.263, 38.49, 0.6516535, 41515, 0, 35
CTUN, 41515687, 0, 0, 0, 0.3244556, 0.04285556, 0.04285556, 0.54, 0, 0.19, 0, 0, -1
ATT, 41515744, 0, 0.44, 0, 0.11, 359.4, 359.42, 0, 1
RATE, 41515750, -2.005767, 0.001766182, -0.004651878, -0.5009246, -0.06461377, -0.001120636, 0.001769125, 0.02659794, 7.61999E-05, 619.0259, 0.0995636, 0
NKF1, 41515757, 0.44, 0.11, 359.41, -0.01723958, -0.01388651, 0.01528459, 0, 0, 0, -0.04285556, 0, 0, 0
NKF2, 41515757, 1, 0, 0, 0, 0, 0, 0, 0, 0, 0, 0, 0, 0
NKF3, 41515757, 0, 0, 0, -0.01, -0.01, 0.01, 0, 0, 0, 0, 0
NKF4, 41515757, 0, 0, 0, 0, 0, 5.224052E-07, 0, 0, 0, 19, 229, 0, 0
NKF5, 41515757, 0, 0, 0, 0, 0.18, 0.13, 0, 0.19, 0.5, 3.737293E-05, 0.000581669, 0.001345689
NKQ1, 41515757, 0.9999459, 0.006929616, 0.005777563, -0.005175824
AHR2, 41515800, 0.45, 0.11, 359.38, 0.54, 0, 0, 0.9999769, 0.00400708, 0.000994902, -0.005395909
MOTB, 41515808, 1, 1, 0, 1
RCIN, 41515812, 0, 0, 0, 0, 0, 0, 0, 0, 0, 0, 0, 0, 0, 0
RCOU, 41515818, 1101, 1101, 1101, 1101, 0, 0, 0, 0, 0, 0, 0, 0, 0, 0
VIBE, 41515827, 0.01796054, 0.01908867, 0.03271076, 0, 0, 0
CTRL, 41516029, 0.004742665, 0.0001833171, 0.001205924, 0.0002349445, 0.0001020708
PRX, 41516063, 2, 0.56, 0, 0.59, 0, 2.85, 0, 2.22, 0, 0, 0, 0.56
IMU, 41540962, -0.0004503294, -0.001741591, 0.0004592469, 0.1151618, -0.1393986, -9.796638, 0, 0, 39.94966, 1, 1, 998, 998
RFND, 41565468, 0.2, 25, 0, 0
IMU, 41580570, -0.000648551, 0.0003287251, -0.0003170102, 0.1073952, -0.1491343, -9.785515, 0, 0, 39.94975, 1, 1, 998, 998
MAG, 41615581, 283, 523, 503, 0, 0, 0, 0, 0, 0, 1, 41615573
RFND, 41615614, 0.2, 25, 0, 0
BARO, 41615646, 0.463418, 1001.273, 38.5, 0.3509882, 41615, 0, 35
CTUN, 41615657, 0, 0, 0, 0.3244556, 0.04299959, 0.04299959, 0.46, 0, 0.19, 0, 0, -1
ATT, 41615715, 0, 0.44, 0, 0.11, 359.4, 359.42, 0, 1
RATE, 41615721, -2.004284, 0.001773035, -0.004735042, -0.4989418, 0.06425339, -0.001296291, 0.0004424292, 0.0816808, -1.940008E-05, 562.9323, 1.14994, 0
NKF1, 41615728, 0.44, 0.11, 359.41, -0.01776903, -0.01517456, 0.01389956, 0, 0, 0, -0.04299959, 0, 0, 0
NKF2, 41615728, 1, 0, 0, 0, 0, 0, 0, 0, 0, 0, 0, 0, 0
NKF3, 41615728, 0, 0, 0, -0.01, -0.01, 0.01, 0, 0, 0, 0, 0
NKF4, 41615728, 0, 0, 0, 0, 0, 5.143953E-07, 0, 0, 0, 19, 229, 0, 0
NKF5, 41615728, 0, 0, 0, 0, 0.18, 0.13, 0, 0.19, 0.5, 3.690742E-05, 0.0007479899, 0.001924302
NKQ1, 41615728, 0.9999461, 0.006925368, 0.005774451, -0.005155607
AHR2, 41615776, 0.45, 0.11, 359.38, 0.46, 0, 0, 0.9999771, 0.004012279, 0.0009880621, -0.005375917
MOTB, 41615782, 1, 1, 0, 1
RCIN, 41615787, 0, 0, 0, 0, 0, 0, 0, 0, 0, 0, 0, 0, 0, 0
RCOU, 41615792, 1101, 1101, 1101, 1101, 0, 0, 0, 0, 0, 0, 0, 0, 0, 0
VIBE, 41615802, 0.01854389, 0.0196215, 0.03385803, 0, 0, 0
CTRL, 41615808, 0.004735765, 0.000168439, 0.001188897, 0.0002269562, 8.479675E-05
PRX, 41615987, 2, 0.56, 0, 0.59, 0, 2.36, 0, 2.23, 0, 0, 0, 0.56
IMU, 41620599, 2.24381E-05, 0.0006567789, 0.00125341, 0.1066875, -0.1452025, -9.794906, 0, 0, 39.94999, 1, 1, 998, 998
IMU, 41660559, 0.0002553434, -0.0008674662, 0.0003520857, 0.1084385, -0.1474554, -9.785563, 0, 0, 39.94972, 1, 1, 998, 998
RFND, 41665573, 0.2, 25, 0, 0
IMU, 41700587, -0.0007052471, -0.0005105108, -0.0007266913, 0.1132043, -0.1392481, -9.788069, 0, 0, 39.9498, 1, 1, 998, 998
MAG, 41715466, 280, 525, 503, 0, 0, 0, 0, 0, 0, 1, 41715458
RFND, 41715554, 0.2, 25, 0, 0
BARO, 41715586, 0.322132, 1001.289, 38.5, -0.1073934, 41715, 0, 35
CTUN, 41715597, 0, 0, 0, 0.3244556, 0.04301842, 0.04301842, 0.32, 0, 0.19, 0, 0, -1
ATT, 41715650, 0, 0.44, 0, 0.11, 359.4, 359.42, 0, 1
RATE, 41715656, -1.991075, -0.03939429, -0.004513741, -0.4961592, 0.07420243, -0.001789953, 0.0009935079, -0.0214172, 4.948202E-05, 564.6899, -0.3648758, 0
NKF1, 41715664, 0.44, 0.11, 359.41, -0.01791723, -0.01534471, 0.01394296, 0, 0, 0, -0.04301842, 0, 0, 0
NKF2, 41715664, 1, 0, 0, 0, 0, 0, 0, 0, 0, 0, 0, 0, 0
NKF3, 41715664, 0, 0, 0, -0.02, -0.01, 0.01, 0, 0, 0, 0, 0
NKF4, 41715664, 0, 0, 0, 0, 0, 5.265705E-07, 0, 0, 0, 19, 229, 0, 0
NKF5, 41715664, 0, 0, 0, 0, 0.18, 0.13, 0, 0.19, 0.5, 3.632724E-05, 0.00107756, 0.002836017
NKQ1, 41715664, 0.9999462, 0.006899833, 0.005767415, -0.005174192
AHR2, 41715708, 0.45, 0.11, 359.38, 0.32, 0, 0, 0.999977, 0.003997239, 0.0009815411, -0.005394649
MOTB, 41715715, 1, 1, 0, 1
RCIN, 41715719, 0, 0, 0, 0, 0, 0, 0, 0, 0, 0, 0, 0, 0, 0
RCOU, 41715725, 1101, 1101, 1101, 1101, 0, 0, 0, 0, 0, 0, 0, 0, 0, 0
VIBE, 41715733, 0.01909234, 0.02161985, 0.03197587, 0, 0, 0
CTRL, 41715739, 0.004710421, 0.0001701182, 0.001170752, 0.0002262409, 7.111325E-05
PRX, 41715772, 2, 0.56, 0, 0.59, 0, 2.36, 0, 2.23, 0, 0, 0, 0.56
IMU, 41740570, 0.0003606171, -0.001065786, -0.00109365, 0.1159468, -0.1425923, -9.779643, 0, 0, 39.94989, 1, 1, 998, 998
RFND, 41765327, 0.2, 25, 0, 0
IMU, 41780771, -0.0005131302, 0.002110958, 0.001798941, 0.1133381, -0.144239, -9.80072, 0, 0, 39.94969, 1, 1, 998, 998
MAG, 41815611, 285, 519, 500, 0, 0, 0, 0, 0, 0, 1, 41815603
RFND, 41815643, 0.2, 25, 0, 0
BARO, 41815676, 0.3475635, 1001.286, 38.5, -0.5819458, 41815, 0, 35
CTUN, 41815689, 0, 0, 0, 0.3244556, 0.04317671, 0.04317671, 0.34, 0, 0.19, 0, 0, -1
ATT, 41815744, 0, 0.44, 0, 0.1, 359.4, 359.42, 0, 1
RATE, 41815750, -1.983475, 0.02254518, -0.004983395, -0.4946115, -0.07410944, -0.0007370318, 0.001394997, -0.02595124, -5.397078E-05, 539.8805, 0.53339, 0
NKF1, 41815757, 0.44, 0.1, 359.41, -0.01811794, -0.01585096, 0.01333038, 0, 0, 0, -0.04317671, 0, 0, 0
NKF2, 41815757, 1, 0, 0, 0, 0, 0, 0, 0, 0, 0, 0, 0, 0
NKF3, 41815757, 0, 0, 0, -0.02, -0.01, 0.01, 0, 0, 0, 0, 0
NKF4, 41815757, 0, 0, 0, 0, 0, 5.697141E-07, 0, 0, 0, 19, 229, 0, 0
NKF5, 41815757, 0, 0, 0, 0, 0.18, 0.13, 0, 0.19, 0.5, 3.624089E-05, 0.0006290941, 0.001600061
NKQ1, 41815757, 0.9999464, 0.006887616, 0.005765115, -0.005164974
AHR2, 41815803, 0.45, 0.11, 359.38, 0.34, 0, 0, 0.9999771, 0.003994754, 0.0009795976, -0.005385623
MOTB, 41815810, 1, 1, 0, 1
RCIN, 41815814, 0, 0, 0, 0, 0, 0, 0, 0, 0, 0, 0, 0, 0, 0
RCOU, 41815820, 1101, 1101, 1101, 1101, 0, 0, 0, 0, 0, 0, 0, 0, 0, 0
VIBE, 41815932, 0.01789491, 0.01976339, 0.03744662, 0, 0, 0
CTRL, 41815943, 0.004684157, 0.0001535322, 0.001180035, 0.000264652, 6.865398E-05
PRX, 41815977, 2, 0.56, 0, 0.59, 0, 1.87, 0, 2.23, 0, 0, 0, 0.56
IMU, 41820592, 5.964054E-05, -0.0006437717, -0.0006421257, 0.1099814, -0.1333978, -9.78575, 0, 0, 39.94998, 1, 1, 998, 998
IMU, 41860625, 0.0004448335, -0.001380543, -0.00045437, 0.09783018, -0.1308454, -9.796356, 0, 0, 39.94973, 1, 1, 998, 998
RFND, 41865468, 0.2, 25, 0, 0
IMU, 41900818, 0.000658976, 0.001056947, -0.0005049487, 0.09632775, -0.1325378, -9.792203, 0, 0, 39.94986, 1, 1, 998, 998
MAG, 41915618, 281, 524, 500, 0, 0, 0, 0, 0, 0, 1, 41915610
RFND, 41915648, 0.2, 25, 0, 0
BARO, 41915681, 0.3616921, 1001.284, 38.5, -0.7451718, 41915, 0, 35
CTUN, 41915693, 0, 0, 0, 0.3244556, 0.0433369, 0.0433369, 0.36, 0, 0.19, 0, 0, -1
ATT, 41915751, 0, 0.44, 0, 0.11, 359.4, 359.41, 0, 1
RATE, 41915756, -1.981472, -0.005286203, -0.004480662, -0.5025774, 0.08918957, -0.00142325, 0.001011122, 0.008099542, 8.110387E-05, 543.6404, -0.7558823, 0
NKF1, 41915763, 0.44, 0.11, 359.4, -0.01911847, -0.0158067, 0.01342322, 0, 0, 0, -0.0433369, 0, 0, 0
NKF2, 41915763, 1, 0, 0, 0, 0, 0, 0, 0, 0, 0, 0, 0, 0
NKF3, 41915763, 0, 0, 0, -0.02, -0.01, 0.01, 0, 0, 0, 0, 0
NKF4, 41915763, 0, 0, 0, 0, 0, 6.324843E-07, 0, 0, 0, 19, 229, 0, 0
NKF5, 41915763, 0, 0, 0, 0, 0.18, 0.13, 0, 0.19, 0.5, 3.561367E-05, 0.000919469, 0.002420765
NKQ1, 41915763, 0.9999461, 0.006882474, 0.005780573, -0.005192047
AHR2, 41915808, 0.45, 0.11, 359.38, 0.36, 0, 0, 0.9999769, 0.003991354, 0.0009948649, -0.005412874
MOTB, 41915815, 1, 1, 0, 1
RCIN, 41915819, 0, 0, 0, 0, 0, 0, 0, 0, 0, 0, 0, 0, 0, 0
RCOU, 41915825, 1101, 1101, 1101, 1101, 0, 0, 0, 0, 0, 0, 0, 0, 0, 0
VIBE, 41916044, 0.0187914, 0.01863902, 0.03562588, 0, 0, 0
CTRL, 41916055, 0.004680576, 0.0001508842, 0.001190112, 0.0002492614, 6.754189E-05
PRX, 41916088, 2, 0.56, 0, 0.59, 0, 1.54, 0, 2.23, 0, 0, 0, 0.56
IMU, 41940867, -0.000850018, 0.0003116298, 0.000330934, 0.1007335, -0.1386149, -9.787199, 0, 0, 39.95005, 1, 1, 998, 998
RFND, 41965549, 0.2, 25, 0, 0
IMU, 41980582, -0.001004577, -0.0008231854, -0.001862219, 0.09907838, -0.1352823, -9.772515, 0, 0, 39.95063, 1, 1, 998, 998
MAG, 42015609, 280, 522, 502, 0, 0, 0, 0, 0, 0, 1, 42015601
RFND, 42015641, 0.2, 25, 0, 0
BARO, 42015674, 0.3616921, 1001.284, 38.5, -0.4909688, 42015, 0, 35
CTUN, 42015686, 0, 0, 0, 0.3244556, 0.04336009, 0.04336009, 0.36, 0, 0.19, 0, 0, -1
DU32, 42016343, 7, 50357752
ATT, 42016452, 0, 0.43, 0, 0.11, 359.4, 359.41, 0, 1
RATE, 42016459, -1.96833, 0.04426219, -0.005042253, -0.5068346, -0.01628093, -0.001183815, 0.001415798, -0.03290828, 7.098588E-05, 574.0456, -0.1991272, 0
NKF1, 42016468, 0.43, 0.11, 359.4, -0.02022794, -0.01658998, 0.01417396, 0, 0, 0, -0.04336009, 0, 0, 0
NKF2, 42016468, 1, 0, 0, 0, 0, 0, 0, 0, 0, 0, 0, 0, 0
NKF3, 42016468, 0, 0, 0, -0.02, -0.01, 0.01, 0, 0, 0, 0, 0
NKF4, 42016468, 0, 0, 0, 0, 0, 7.058006E-07, 0, 0, 0, 19, 229, 0, 0
NKF5, 42016468, 0, 0, 0, 0, 0.18, 0.13, 0, 0.19, 0.5, 3.561443E-05, 0.0005188538, 0.001289691
NKQ1, 42016468, 0.9999462, 0.006856564, 0.005788054, -0.00520934
AHR2, 42016588, 0.45, 0.11, 359.37, 0.36, 0, 0, 0.9999769, 0.003967152, 0.001001664, -0.005430267
MOTB, 42016595, 1, 1, 0, 1
RCIN, 42016600, 0, 0, 0, 0, 0, 0, 0, 0, 0, 0, 0, 0, 0, 0
RCOU, 42016606, 1101, 1101, 1101, 1101, 0, 0, 0, 0, 0, 0, 0, 0, 0, 0
VIBE, 42016615, 0.01972912, 0.02052576, 0.03443075, 0, 0, 0
CTRL, 42016622, 0.004642789, 0.000151337, 0.001200751, 0.0002238486, 6.653167E-05
PRX, 42016655, 2, 0.56, 0, 0.59, 0, 1.32, 0, 2.23, 0, 0, 0, 0.56
IMU, 42020555, 0.0007567827, -7.395587E-06, -0.0005041158, 0.1010155, -0.1458112, -9.794127, 0, 0, 39.95191, 1, 1, 998, 998
IMU, 42061100, -0.001372503, 0.001316955, 0.0007287973, 0.1107879, -0.1461438, -9.784374, 0, 0, 39.95367, 1, 1, 998, 998
RFND, 42065361, 0.2, 25, 0, 0
IMU, 42100392, -0.0006170247, -0.0005639283, -0.0004165931, 0.1058214, -0.1429609, -9.78142, 0, 0, 39.95548, 1, 1, 998, 998
MAG, 42115333, 281, 523, 494, 0, 0, 0, 0, 0, 0, 1, 42115325
RFND, 42115361, 0.2, 25, 0, 0
BARO, 42115442, 0.2627919, 1001.295, 38.51, -0.1545315, 42115, 0, 35
CTUN, 42115454, 0, 0, 0, 0.3244556, 0.04362399, 0.04362399, 0.26, 0, 0.19, 0, 0, -1
ATT, 42115555, 0, 0.43, 0, 0.11, 359.4, 359.41, 0, 1
RATE, 42115560, -1.961784, 0.04116616, -0.004956848, -0.5164629, -0.002324178, -0.001349443, 0.002015498, 0.009320909, 4.143569E-05, 564.7081, -0.5718231, 0
NKF1, 42115568, 0.43, 0.11, 359.4, -0.02067045, -0.0173967, 0.01394341, 0, 0, 0, -0.04362399, 0, 0, 0
NKF2, 42115568, 1, 0, 0, 0, 0, 0, 0, 0, 0, 0, 0, 0, 0
NKF3, 42115568, 0, 0, 0, -0.02, -0.02, 0.01, 0, 0, 0, 0, 0
NKF4, 42115568, 0, 0, 0, 0, 0, 8.132503E-07, 0, 0, 0, 19, 229, 0, 0
NKF5, 42115568, 0, 0, 0, 0, 0.18, 0.13, 0, 0.19, 0.5, 3.494834E-05, 0.000726761, 0.001921462
NKQ1, 42115568, 0.9999462, 0.006844256, 0.00580753, -0.005209298
AHR2, 42115611, 0.45, 0.11, 359.37, 0.26, 0, 0, 0.9999769, 0.003956363, 0.001013538, -0.005430319
MOTB, 42115619, 1, 1, 0, 1
RCIN, 42115623, 0, 0, 0, 0, 0, 0, 0, 0, 0, 0, 0, 0, 0, 0
RCOU, 42115628, 1101, 1101, 1101, 1101, 0, 0, 0, 0, 0, 0, 0, 0, 0, 0
VIBE, 42115638, 0.02203271, 0.02022026, 0.03444197, 0, 0, 0
CTRL, 42115643, 0.004628853, 0.0001875895, 0.001225278, 0.0002115903, 6.071022E-05
PRX, 42115675, 2, 0.56, 0, 0.59, 0, 1.32, 0, 2.23, 0, 0, 0, 0.56
IMU, 42140589, 0.0006553633, -0.0003204828, -0.000219517, 0.1160979, -0.1414364, -9.784856, 0, 0, 39.95745, 1, 1, 998, 998
RFND, 42165386, 0.2, 25, 0, 0
IMU, 42180675, 0.0008238059, -0.0005252771, -0.001816606, 0.1012293, -0.1365177, -9.774915, 0, 0, 39.95939, 1, 1, 998, 998
MAG, 42215577, 283, 524, 501, 0, 0, 0, 0, 0, 0, 1, 42215568
RFND, 42215609, 0.2, 25, 0, 0
BARO, 42215642, 0.1667175, 1001.306, 38.51, -0.1448181, 42215, 0, 35
CTUN, 42215654, 0, 0, 0, 0.3244556, 0.04354148, 0.04354148, 0.16, 0, 0.19, 0, 0, -1
ATT, 42215711, 0, 0.44, 0, 0.11, 359.39, 359.41, 0, 1
RATE, 42215717, -1.98085, 0.0530346, -0.004856972, -0.5128159, 0.06609683, -0.002085706, 0.002231043, -0.1033117, 0.0001974464, 573.0668, -2.492237, 0
NKF1, 42215724, 0.44, 0.11, 359.4, -0.02148037, -0.01775876, 0.0141498, 0, 0, 0, -0.04354148, 0, 0, 0
NKF2, 42215724, 1, 0, 0, 0, 0, 0, 0, 0, 0, 0, 0, 0, 0
NKF3, 42215724, 0, 0, 0, -0.02, -0.02, 0.01, 0, 0, 0, 0, 0
NKF4, 42215724, 0, 0, 0, 0, 0, 9.004103E-07, 0, 0, 0, 19, 229, 0, 0
NKF5, 42215724, 0, 0, 0, 0, 0.18, 0.13, 0, 0.19, 0.5, 3.517439E-05, 0.0004081173, 0.0009532879
NKQ1, 42215724, 0.9999457, 0.006882358, 0.005798333, -0.005262104
AHR2, 42215768, 0.45, 0.11, 359.37, 0.16, 0, 0, 0.9999765, 0.00399584, 0.0009970529, -0.005483557
MOTB, 42215775, 1, 1, 0, 1
RCIN, 42215779, 0, 0, 0, 0, 0, 0, 0, 0, 0, 0, 0, 0, 0, 0
RCOU, 42215785, 1101, 1101, 1101, 1101, 0, 0, 0, 0, 0, 0, 0, 0, 0, 0
VIBE, 42215793, 0.0203469, 0.01874027, 0.0322023, 0, 0, 0
CTRL, 42215800, 0.004670106, 0.0001721184, 0.001196202, 0.0002125622, 7.61938E-05
PRX, 42216306, 2, 0.56, 0, 0.59, 0, 1.18, 0, 2.24, 0, 0, 0, 0.56
IMU, 42220991, 0.00113441, 0.00210204, -0.00133619, 0.09927939, -0.1314151, -9.770485, 0, 0, 39.96049, 1, 1, 998, 998
IMU, 42260645, 0.0002346193, 0.0006532855, -0.0009754628, 0.1032025, -0.1403485, -9.775307, 0, 0, 39.96136, 1, 1, 998, 998
RFND, 42265405, 0.2, 25, 0, 0
IMU, 42300469, 1.152108E-05, 0.0002379864, -3.732686E-05, 0.1041133, -0.1442418, -9.802114, 0, 0, 39.96249, 1, 1, 998, 998
MAG, 42315538, 278, 522, 500, 0, 0, 0, 0, 0, 0, 1, 42315465
RFND, 42315569, 0.2, 25, 0, 0
BARO, 42315602, 0.2599662, 1001.296, 38.51, -0.4000159, 42315, 0, 35
CTUN, 42315614, 0, 0, 0, 0.3244556, 0.04386679, 0.04386679, 0.25, 0, 0.19, 0, 0, -1
ATT, 42315672, 0, 0.44, 0, 0.11, 359.39, 359.4, 0, 1
RATE, 42315678, -1.980064, -0.05471094, -0.004374465, -0.5158436, -0.05607684, -0.0007767437, 0.002904866, -0.0517723, 6.905678E-05, 522.1567, 1.022625, 0
NKF1, 42315686, 0.44, 0.11, 359.39, -0.02200194, -0.01875497, 0.01289276, 0, 0, 0, -0.04386679, 0, 0, 0
NKF2, 42315686, 1, 0, 0, 0, 0, 0, 0, 0, 0, 0, 0, 0, 0
NKF3, 42315686, 0, 0, 0, -0.03, -0.02, 0.01, 0, 0, 0, 0, 0
NKF4, 42315686, 0, 0, 0, 0, 0, 1.047507E-06, 0, 0, 0, 19, 229, 0, 0
NKF5, 42315686, 0, 0, 0, 0, 0.18, 0.13, 0, 0.19, 0.5, 3.455269E-05, 0.0005624343, 0.00147922
NKQ1, 42315686, 0.9999455, 0.006882193, 0.005805249, -0.005276478
AHR2, 42315730, 0.45, 0.11, 359.37, 0.25, 0, 0, 0.9999764, 0.004000197, 0.0009991265, -0.005498134
MOTB, 42315737, 1, 1, 0, 1
RCIN, 42315741, 0, 0, 0, 0, 0, 0, 0, 0, 0, 0, 0, 0, 0, 0
RCOU, 42315746, 1101, 1101, 1101, 1101, 0, 0, 0, 0, 0, 0, 0, 0, 0, 0
VIBE, 42315755, 0.02006362, 0.01812205, 0.03290385, 0, 0, 0
CTRL, 42315762, 0.004682033, 0.0001637462, 0.001231004, 0.0002137392, 0.000106033
PRX, 42315795, 2, 0.56, 0, 0.59, 0, 1.18, 0, 2.24, 0, 0, 0, 0.56
EV, 42332736, 57
IMU, 42340872, -0.000984665, -0.0009762781, -0.0001384623, 0.1140523, -0.1351486, -9.781849, 0, 0, 39.96295, 1, 1, 998, 998
RFND, 42365301, 0.2, 25, 0, 0
IMU, 42380619, 0.001032251, -0.0008598536, 0.0004079144, 0.1169168, -0.1322417, -9.820085, 0, 0, 39.96339, 1, 1, 998, 998
MAG, 42416941, 282, 523, 501, 0, 0, 0, 0, 0, 0, 1, 42416934
RFND, 42417032, 0.2, 25, 0, 0
BARO, 42417067, 0.1949746, 1001.303, 38.51, -0.4793309, 42417, 0, 35
CTUN, 42417081, 0, 0, 0, 0.3244556, 0.04404463, 0.04404463, 0.19, 0, 0.19, 0, 0, -1
ATT, 42417193, 0, 0.44, 0, 0.11, 359.39, 359.41, 0, 1
RATE, 42417199, -1.983533, -0.04336011, -0.004260853, -0.5023363, -0.05681129, -0.000698412, 0.001933911, 0.006179785, -3.081841E-05, 510.6055, -0.6573677, 0
NKF1, 42417207, 0.44, 0.11, 359.4, -0.02203218, -0.01896073, 0.01260754, 0, 0, 0, -0.04404463, 0, 0, 0
NKF2, 42417207, 1, 0, 0, 0, 0, 0, 0, 0, 0, 0, 0, 0, 0
NKF3, 42417207, 0, 0, 0, -0.03, -0.02, 0.01, 0, 0, 0, 0, 0
NKF4, 42417207, 0, 0, 0, 0, 0, 1.179805E-06, 0, 0, 0, 19, 229, 0, 0
NKF5, 42417207, 0, 0, 0, 0, 0.18, 0.13, 0, 0.19, 0.5, 3.378238E-05, 0.0008775373, 0.002320217
NKQ1, 42417207, 0.9999458, 0.006888714, 0.005779983, -0.005267266
AHR2, 42417257, 0.45, 0.11, 359.37, 0.19, 0, 0, 0.9999765, 0.004011368, 0.0009691375, -0.005489253
MOTB, 42417263, 1, 1, 0, 1
RCIN, 42417267, 0, 0, 0, 0, 0, 0, 0, 0, 0, 0, 0, 0, 0, 0
RCOU, 42417273, 1120, 1120, 1120, 1120, 0, 0, 0, 0, 0, 0, 0, 0, 0, 0
VIBE, 42417282, 0.01910748, 0.01961582, 0.03651794, 0, 0, 0
CTRL, 42417288, 0.0046913, 0.0001787084, 0.001208679, 0.00024726, 9.22824E-05
PRX, 42417321, 2, 0.56, 0, 0.59, 0, 1.61, 0, 2.24, 0, 0, 0, 0.56
IMU, 42420578, -0.001176614, -0.001863358, -0.0002722559, 0.1078758, -0.1346587, -9.788081, 0, 0, 39.96378, 1, 1, 998, 998
IMU, 42461230, 0.0002011299, 0.001367577, -0.0003332222, 0.1077717, -0.1357692, -9.77916, 0, 0, 39.96368, 1, 1, 998, 998
RFND, 42465491, 0.2, 25, 0, 0
IMU, 42500638, -9.906686E-06, -0.001310458, -0.00203142, 0.1072908, -0.141396, -9.781224, 0, 0, 39.96368, 1, 1, 998, 998
MAG, 42516284, 277, 522, 501, 0, 0, 0, 0, 0, 0, 1, 42516276
RFND, 42516315, 0.2, 25, 0, 0
BARO, 42516348, 0.1356345, 1001.309, 38.51, -0.2823007, 42516, 0, 35
CTUN, 42516361, 0, 0, 0, 0.3244556, 0.04425426, 0.04425426, 0.13, 0, 0.19, 0, 0, -1
ATT, 42516420, 0, 0.43, 0, 0.11, 359.39, 359.4, 0, 1
RATE, 42516426, -1.978534, -0.07275449, -0.004234264, -0.5062426, 0.004728337, -0.001476698, 0.001938272, -0.1211999, 0.0001678451, 528.6533, -0.8355141, 0
NKF1, 42516434, 0.43, 0.11, 359.39, -0.02258188, -0.01961295, 0.01305317, 0, 0, 0, -0.04425426, 0, 0, 0
NKF2, 42516434, 1, 0, 0, 0, 0, 0, 0, 0, 0, 0, 0, 0, 0
NKF3, 42516434, 0, 0, 0, -0.03, -0.02, 0.01, 0, 0, 0, 0, 0
NKF4, 42516434, 0, 0, 0, 0, 0, 1.338631E-06, 0, 0, 0, 19, 229, 0, 0
NKF5, 42516434, 0, 0, 0, 0, 0.18, 0.13, 0, 0.19, 0.5, 3.407255E-05, 0.0004063253, 0.001029562
NKQ1, 42516434, 0.9999455, 0.006878502, 0.005785031, -0.005319038
AHR2, 42516558, 0.45, 0.11, 359.36, 0.13, 0, 0, 0.9999762, 0.004005762, 0.0009742951, -0.005541201
MOTB, 42516566, 1, 1, 0, 1
RCIN, 42516570, 0, 0, 0, 0, 0, 0, 0, 0, 0, 0, 0, 0, 0, 0
RCOU, 42516576, 1144, 1144, 1144, 1144, 0, 0, 0, 0, 0, 0, 0, 0, 0, 0
VIBE, 42516586, 0.01835593, 0.02128309, 0.03364955, 0, 0, 0
CTRL, 42516592, 0.004682625, 0.0001715015, 0.001191614, 0.0002698708, 8.634345E-05
PRX, 42516623, 2, 0.56, 0, 0.59, 0, 1.61, 0, 2.23, 0, 0, 0, 0.56
IMU, 42540594, -0.0004368148, 0.001151272, -0.0009667708, 0.1136125, -0.133182, -9.789871, 0, 0, 39.96383, 1, 1, 998, 998
RFND, 42565432, 0.2, 25, 0, 0
IMU, 42580571, 0.0004830314, -0.0001805263, 0.000221152, 0.1117292, -0.1482806, -9.771051, 0, 0, 39.96432, 1, 1, 998, 998
MAG, 42615607, 284, 519, 502, 0, 0, 0, 0, 0, 0, 1, 42615599
RFND, 42615644, 0.2, 25, 0, 0
BARO, 42615675, 0.1638917, 1001.306, 38.51, -0.1766483, 42615, 0, 35
CTUN, 42615687, 0, 0, 0, 0.3244556, 0.04444475, 0.04444475, 0.16, 0, 0.19, 0, 0, -1
ATT, 42615745, 0, 0.43, 0, 0.11, 359.38, 359.4, 0, 1
RATE, 42615751, -1.96937, -0.04203918, -0.00448243, -0.5106047, 0.03135881, -0.00130436, 0.00195107, -0.007781456, 8.869664E-05, 538.0722, 0.6173134, 0
NKF1, 42615758, 0.43, 0.11, 359.39, -0.02296995, -0.02006469, 0.01328573, 0, 0, 0, -0.04444476, 0, 0, 0
NKF2, 42615758, 1, 0, 0, 0, 0, 0, 0, 0, 0, 0, 0, 0, 0
NKF3, 42615758, 0, 0, 0, -0.03, -0.03, 0.01, 0, 0, 0, 0, 0
NKF4, 42615758, 0, 0, 0, 0, 0, 1.509529E-06, 0, 0, 0, 19, 229, 0, 0
NKF5, 42615758, 0, 0, 0, 0, 0.18, 0.13, 0, 0.19, 0.5, 3.320365E-05, 0.0006819603, 0.001811707
NKQ1, 42615758, 0.9999455, 0.006861217, 0.005795389, -0.005331682
AHR2, 42615802, 0.45, 0.11, 359.36, 0.16, 0, 0, 0.9999761, 0.003993221, 0.0009844927, -0.005553956
MOTB, 42615808, 1, 1, 0, 1
RCIN, 42615813, 0, 0, 0, 0, 0, 0, 0, 0, 0, 0, 0, 0, 0, 0
RCOU, 42615818, 1168, 1168, 1168, 1168, 0, 0, 0, 0, 0, 0, 0, 0, 0, 0
VIBE, 42615827, 0.01992027, 0.01932486, 0.03167813, 0, 0, 0
CTRL, 42615943, 0.00465656, 0.0001641465, 0.001210897, 0.0002356415, 0.0001072859
PRX, 42615977, 2, 0.56, 0, 0.59, 0, 2.27, 0, 2.24, 0, 0, 0, 0.56
IMU, 42622019, -0.0007268159, 0.0003535789, 0.0003882363, 0.1070331, -0.1320471, -9.797216, 0, 0, 39.9646, 1, 1, 998, 998
IMU, 42661031, -0.0007245876, 0.001021879, -0.0002158444, 0.1071927, -0.1352434, -9.765764, 0, 0, 39.96505, 1, 1, 998, 998
RFND, 42665425, 0.2, 25, 0, 0
IMU, 42700541, -0.001571425, 0.0004180926, -0.001437653, 0.1040494, -0.142824, -9.783533, 0, 0, 39.96523, 1, 1, 998, 998
MAG, 42715707, 281, 517, 504, 0, 0, 0, 0, 0, 0, 1, 42715699
RFND, 42715744, 0.2, 25, 0, 0
BARO, 42715774, 0.2853977, 1001.293, 38.51, -0.1897696, 42715, 0, 35
CTUN, 42715786, 0, 0, 0, 0.3244556, 0.0445139, 0.0445139, 0.28, 0, 0.19, 0, 0, -1
ATT, 42715997, 0, 0.43, 0, 0.11, 359.38, 359.39, 0, 1
RATE, 42716004, -1.94864, -0.0799064, -0.004379375, -0.5276906, -0.0004336086, -0.001176315, 0.00199378, -0.04485207, 0.0001505238, 532.8098, 0.1540184, 0
NKF1, 42716013, 0.43, 0.11, 359.38, -0.02364498, -0.02071927, 0.0131558, 0, 0, 0, -0.0445139, 0, 0, 0
NKF2, 42716013, 1, 0, 0, 0, 0, 0, 0, 0, 0, 0, 0, 0, 0
NKF3, 42716013, 0, 0, 0, -0.03, -0.03, 0.01, 0, 0, 0, 0, 0
NKF4, 42716013, 0, 0, 0, 0, 0, 1.686455E-06, 0, 0, 0, 19, 229, 0, 0
NKF5, 42716013, 0, 0, 0, 0, 0.18, 0.13, 0, 0.19, 0.5, 3.363724E-05, 0.0002903086, 0.0006671348
NKQ1, 42716013, 0.9999453, 0.006821194, 0.005827873, -0.005367909
AHR2, 42716060, 0.45, 0.11, 359.35, 0.28, 0, 0, 0.999976, 0.003955162, 0.001013109, -0.005590111
MOTB, 42716068, 1, 1, 0, 1
RCIN, 42716072, 0, 0, 0, 0, 0, 0, 0, 0, 0, 0, 0, 0, 0, 0
RCOU, 42716078, 1192, 1192, 1192, 1192, 0, 0, 0, 0, 0, 0, 0, 0, 0, 0
VIBE, 42716087, 0.0209657, 0.02042952, 0.0341385, 0, 0, 0
CTRL, 42716093, 0.004615455, 0.0001615883, 0.001245662, 0.0002181804, 0.000101861
PRX, 42716125, 2, 0.56, 0, 0.59, 0, 1.53, 0, 2.24, 0, 0, 0, 0.56
IMU, 42740581, 0.0006378024, 0.001605649, -0.001066005, 0.1074241, -0.1399363, -9.776973, 0, 0, 39.96519, 1, 1, 998, 998
RFND, 42765450, 0.2, 25, 0, 0
IMU, 42781068, -0.000131877, 0.000103236, -0.002161241, 0.1185136, -0.1443321, -9.784565, 0, 0, 39.96523, 1, 1, 998, 998
MAG, 42815574, 285, 520, 502, 0, 0, 0, 0, 0, 0, 1, 42815566
RFND, 42815608, 0.2, 25, 0, 0
BARO, 42815709, 0.251489, 1001.296, 38.52, 0.009222849, 42815, 0, 35
CTUN, 42815722, 0, 0, 0, 0.3244556, 0.0447361, 0.0447361, 0.25, 0, 0.19, 0, 0, -1
ATT, 42815778, 0, 0.43, 0, 0.11, 359.38, 359.39, 0, 1
RATE, 42815784, -1.956252, 0.01111671, -0.004567035, -0.5370382, -0.03306584, -0.00124243, 0.002039728, 0.08981869, 0.0001589815, 578.3153, -3.171062, 0
NKF1, 42815792, 0.43, 0.11, 359.38, -0.02386538, -0.02148685, 0.01427939, 0, 0, 0, -0.0447361, 0, 0, 0
NKF2, 42815792, 1, 0, 0, 0, 0, 0, 0, 0, 0, 0, 0, 0, 0
NKF3, 42815792, 0, 0, 0, -0.04, -0.03, 0.01, 0, 0, 0, 0, 0
NKF4, 42815792, 0, 0, 0, 0, 0, 1.915171E-06, 0, 0, 0, 19, 229, 0, 0
NKF5, 42815792, 0, 0, 0, 0, 0.18, 0.13, 0, 0.19, 0.5, 3.28037E-05, 0.0004826811, 0.001277708
NKQ1, 42815792, 0.999945, 0.006834195, 0.005847208, -0.005408391
AHR2, 42815928, 0.45, 0.12, 359.35, 0.25, 0, 0, 0.9999757, 0.003970058, 0.001028656, -0.005630814
MOTB, 42815939, 1, 1, 0, 1
RCIN, 42815943, 0, 0, 0, 0, 0, 0, 0, 0, 0, 0, 0, 0, 0, 0
RCOU, 42815949, 1216, 1216, 1216, 1216, 0, 0, 0, 0, 0, 0, 0, 0, 0, 0
VIBE, 42815957, 0.01927136, 0.01919429, 0.03425147, 0, 0, 0
CTRL, 42815963, 0.004618009, 0.0001636209, 0.001269492, 0.0002067849, 0.0001463974
PRX, 42815996, 2, 0.56, 0, 0.59, 0, 1.53, 0, 2.24, 0, 0, 0, 0.56
IMU, 42820586, 0.0006444546, -0.0004524058, 0.001621367, 0.1060131, -0.1452026, -9.761391, 0, 0, 39.96531, 1, 1, 998, 998
IMU, 42860798, 0.0006719677, -0.001086752, 0.0005637539, 0.09556711, -0.1476764, -9.791518, 0, 0, 39.96505, 1, 1, 998, 998
RFND, 42865414, 0.2, 25, 0, 0
IMU, 42900842, -0.001240475, -0.0009234048, 3.554502E-05, 0.1127938, -0.1340465, -9.767992, 0, 0, 39.96485, 1, 1, 998, 998
MAG, 42915560, 283, 525, 499, 0, 0, 0, 0, 0, 0, 1, 42915552
RFND, 42915596, 0.2, 25, 0, 0
BARO, 42915699, 0.2430119, 1001.297, 38.51, 0.3008806, 42915, 0, 35
CTUN, 42915713, 0, 0, 0, 0.3244556, 0.04457954, 0.04457954, 0.24, 0, 0.19, 0, 0, -1
ATT, 42915772, 0, 0.43, 0, 0.11, 359.37, 359.39, 0, 1
RATE, 42915778, -1.952256, -0.01852801, -0.004753325, -0.514155, -0.09335385, -0.0007906322, 0.001945376, -0.05083196, 7.008612E-05, 587.7388, -0.8859634, 0
NKF1, 42915785, 0.43, 0.11, 359.38, -0.02444357, -0.02243504, 0.01451207, 0, 0, 0, -0.04457954, 0, 0, 0
NKF2, 42915785, 1, 0, 0, 0, 0, 0, 0, 0, 0, 0, 0, 0, 0
NKF3, 42915785, 0, 0, 0, -0.04, -0.03, 0.01, 0, 0, 0, 0, 0
NKF4, 42915785, 0, 0, 0, 0, 0, 2.093397E-06, 0, 0, 0, 19, 229, 0, 0
NKF5, 42915785, 0, 0, 0, 0, 0.18, 0.13, 0, 0.19, 0.5, 3.335708E-05, 0.0002212396, 0.0003761012
NKQ1, 42915785, 0.9999451, 0.006827274, 0.005800741, -0.005432675
AHR2, 42915964, 0.45, 0.11, 359.35, 0.24, 0, 0, 0.9999756, 0.0039679, 0.0009800029, -0.005655431
MOTB, 42915976, 1, 1, 0, 1
RCIN, 42915980, 0, 0, 0, 0, 0, 0, 0, 0, 0, 0, 0, 0, 0, 0
RCOU, 42915986, 1229, 1222, 1221, 1230, 0, 0, 0, 0, 0, 0, 0, 0, 0, 0
VIBE, 42915995, 0.02149838, 0.02007136, 0.03589412, 0, 0, 0
CTRL, 42916001, 0.004609865, 0.0001561942, 0.001227009, 0.0001984032, 0.0001276557
PRX, 42916034, 2, 0.56, 0, 0.59, 0, 2.22, 0, 2.24, 0, 0, 0, 0.56
IMU, 42940577, 0.0004875161, 0.001170814, -0.0004085131, 0.1100554, -0.1457266, -9.796438, 0, 0, 39.96481, 1, 1, 998, 998
RFND, 42965499, 0.2, 25, 0, 0
IMU, 42981010, 0.0007352802, -0.0009509959, -0.0005632842, 0.110716, -0.1381009, -9.794422, 0, 0, 39.96484, 1, 1, 998, 998
MAG, 43015516, 284, 520, 506, 0, 0, 0, 0, 0, 0, 1, 43015508
RFND, 43015553, 0.2, 25, 0, 0
BARO, 43015584, 0.6103554, 1001.257, 38.49, 0.4016695, 43015, 0, 35
CTUN, 43015596, 0, 0, 0, 0.3244556, 0.04478126, 0.04478126, 0.61, 0, 0.19, 0, 0, -1
DU32, 43015617, 7, 33580536
ATT, 43015792, 0, 0.43, 0, 0.11, 359.37, 359.38, 0, 1
RATE, 43015798, -1.970621, 0.03205535, -0.004801514, -0.5057585, -0.02719326, -0.001330956, 0.001932053, 0.02531202, 0.0001379554, 541.1982, 0.4725456, 0
NKF1, 43015805, 0.43, 0.11, 359.37, -0.0245407, -0.02326473, 0.01336292, 0, 0, 0, -0.04478127, 0, 0, 0
NKF2, 43015805, 1, 0, 0, 0, 0, 0, 0, 0, 0, 0, 0, 0, 0
NKF3, 43015805, 0, 0, 0, -0.04, -0.03, 0.01, 0, 0, 0, 0, 0
NKF4, 43015805, 0, 0, 0, 0, 0, 2.372416E-06, 0, 0, 0, 19, 229, 0, 0
NKF5, 43015805, 0, 0, 0, 0, 0.18, 0.13, 0, 0.19, 0.5, 3.226033E-05, 0.0003252282, 0.0008438389
NKQ1, 43015805, 0.9999448, 0.006862572, 0.00578515, -0.005462891
AHR2, 43015949, 0.45, 0.11, 359.34, 0.61, 0, 0, 0.9999753, 0.004007704, 0.0009625389, -0.005686085
MOTB, 43015956, 1, 1, 0, 1
RCIN, 43015961, 0, 0, 0, 0, 0, 0, 0, 0, 0, 0, 0, 0, 0, 0
RCOU, 43015967, 1229, 1223, 1221, 1231, 0, 0, 0, 0, 0, 0, 0, 0, 0, 0
VIBE, 43015976, 0.01891598, 0.01922729, 0.03570322, 0, 0, 0
CTRL, 43015982, 0.004642821, 0.0001639468, 0.001198884, 0.0001999254, 0.000126809
PRX, 43016013, 2, 0.56, 0, 0.59, 0, 2.68, 0, 2.24, 0, 0, 0, 0.56
IMU, 43020524, 0.001395926, -4.012676E-05, 0.0008899507, 0.12506, -0.1355055, -9.793743, 0, 0, 39.96475, 1, 1, 998, 998
IMU, 43060944, 0.0003162354, 0.0008310094, -0.0003814919, 0.1197845, -0.1304869, -9.799042, 0, 0, 39.96465, 1, 1, 998, 998
RFND, 43065533, 0.2, 25, 0, 0
IMU, 43100513, 0.0005327531, -1.264026E-05, 0.001319817, 0.1106863, -0.1507114, -9.770994, 0, 0, 39.96458, 1, 1, 998, 998
MAG, 43117903, 277, 522, 500, 0, 0, 0, 0, 0, 0, 1, 43117895
RFND, 43117938, 0.2, 25, 0, 0
BARO, 43117968, 0.3814721, 1001.282, 38.51, 0.5685482, 43117, 0, 35
CTUN, 43117980, 0, 0, 0, 0.3244556, 0.04475419, 0.04475419, 0.38, 0, 0.19, 0, 0, -1
ATT, 43118035, 0, 0.43, 0, 0.11, 359.37, 359.38, 0, 1
RATE, 43118042, -1.979535, 0.05100879, -0.004944978, -0.5023137, -0.02251221, -0.001137679, 0.00192671, -0.06677386, 1.75133E-05, 535.4292, -1.526833, 0
NKF1, 43118049, 0.43, 0.11, 359.37, -0.02437956, -0.02376931, 0.01322047, 0, 0, 0, -0.04475419, 0, 0, 0
NKF2, 43118049, 1, 0, 0, 0, 0, 0, 0, 0, 0, 0, 0, 0, 0
NKF3, 43118049, 0, 0, 0, -0.04, -0.04, 0.01, 0, 0, 0, 0, 0
NKF4, 43118049, 0, 0, 0, 0, 0, 2.602963E-06, 0, 0, 0, 19, 229, 0, 0
NKF5, 43118049, 0, 0, 0, 0, 0.18, 0.13, 0, 0.19, 0.5, 3.116289E-05, 0.0007046124, 0.001855766
NKQ1, 43118049, 0.9999447, 0.006880913, 0.005777053, -0.005479367
AHR2, 43118092, 0.46, 0.11, 359.34, 0.38, 0, 0, 0.9999751, 0.004032675, 0.000953861, -0.005702902
MOTB, 43118099, 1, 1, 0, 1
RCIN, 43118103, 0, 0, 0, 0, 0, 0, 0, 0, 0, 0, 0, 0, 0, 0
RCOU, 43118109, 1229, 1223, 1221, 1231, 0, 0, 0, 0, 0, 0, 0, 0, 0, 0
VIBE, 43118117, 0.0201724, 0.02151578, 0.03242442, 0, 0, 0
CTRL, 43118123, 0.004665202, 0.0001641931, 0.001195899, 0.0001855294, 0.0001164949
PRX, 43118231, 2, 0.56, 0, 0.59, 0, 3.18, 0, 2.24, 0, 0, 0, 0.56
IMU, 43141984, -0.0003576504, -0.000621217, -0.001116042, 0.1103779, -0.1438902, -9.773185, 0, 0, 39.96497, 1, 1, 998, 998
RFND, 43166919, 0.2, 25, 0, 0
IMU, 43181944, -0.0003743291, 8.673681E-05, 0.0001540034, 0.1126015, -0.1451087, -9.779527, 0, 0, 39.96507, 1, 1, 998, 998
MAG, 43216856, 283, 522, 502, 0, 0, 0, 0, 0, 0, 1, 43216848
RFND, 43216888, 0.2, 25, 0, 0
BARO, 43216920, 0.2825719, 1001.293, 38.52, 0.7172502, 43216, 0, 35
CTUN, 43216931, 0, 0, 0, 0.3244556, 0.04490456, 0.04490456, 0.28, 0, 0.19, 0, 0, -1
ATT, 43217104, 0, 0.43, 0, 0.11, 359.37, 359.38, 0, 1
RATE, 43217112, -1.961311, -0.1141048, -0.003920263, -0.5027186, -0.01519529, -0.001209426, 0.001911871, -0.02934143, 1.188792E-05, 554.1774, 0.1842499, 0
NKF1, 43217120, 0.43, 0.11, 359.37, -0.02483286, -0.02444903, 0.01368339, 0, 0, 0, -0.04490456, 0, 0, 0
NKF2, 43217120, 1, 0, 0, 0, 0, 0, 0, 0, 0, 0, 0, 0, 0
NKF3, 43217120, 0, 0, 0, -0.04, -0.04, 0.01, 0, 0, 0, 0, 0
NKF4, 43217120, 0, 0, 0, 0, 0, 2.905282E-06, 0, 0, 0, 19, 229, 0, 0
NKF5, 43217120, 0, 0, 0, 0, 0.18, 0.13, 0, 0.19, 0.5, 3.177266E-05, 0.0001956068, 0.0004814536
NKQ1, 43217120, 0.9999449, 0.006846633, 0.005778864, -0.005483189
AHR2, 43217168, 0.45, 0.11, 359.34, 0.28, 0, 0, 0.9999753, 0.004004888, 0.0009552391, -0.005706762
MOTB, 43217175, 1, 1, 0, 1
RCIN, 43217180, 0, 0, 0, 0, 0, 0, 0, 0, 0, 0, 0, 0, 0, 0
RCOU, 43217185, 1228, 1223, 1221, 1230, 0, 0, 0, 0, 0, 0, 0, 0, 0, 0
VIBE, 43217194, 0.01929157, 0.0205904, 0.03212798, 0, 0, 0
CTRL, 43217200, 0.004648786, 0.0001760697, 0.001185063, 0.0001893151, 9.992852E-05
PRX, 43217233, 2, 0.56, 0, 0.59, 0, 3.32, 0, 2.24, 0, 0, 0, 0.56
IMU, 43222419, -0.002322141, 0.001071178, -0.0001614884, 0.09862042, -0.1398872, -9.787521, 0, 0, 39.96512, 1, 1, 998, 998
IMU, 43261907, -0.001676782, -3.564711E-06, -8.112163E-05, 0.103381, -0.1334846, -9.802802, 0, 0, 39.96512, 1, 1, 998, 998
RFND, 43267163, 0.2, 25, 0, 0
IMU, 43302028, -0.0008856027, 0.001027907, 0.0002284192, 0.09993389, -0.1271436, -9.781193, 0, 0, 39.96487, 1, 1, 998, 998
MAG, 43316858, 284, 527, 501, 0, 0, 0, 0, 0, 0, 1, 43316850
RFND, 43316891, 0.2, 25, 0, 0
BARO, 43316923, 0.3249578, 1001.288, 38.52, 0.2653008, 43316, 0, 35
CTUN, 43316935, 0, 0, 0, 0.3244556, 0.0449463, 0.0449463, 0.32, 0, 0.19, 0, 0, -1
ATT, 43317164, 0, 0.43, 0, 0.11, 359.37, 359.38, 0, 1
RATE, 43317171, -1.941756, 0.002879188, -0.004752908, -0.5229716, 0.02582792, -0.001214067, 0.001969258, -0.04780749, -7.794558E-07, 533.4092, -0.3679276, 0
NKF1, 43317180, 0.43, 0.11, 359.37, -0.02582864, -0.02422621, 0.0131706, 0, 0, 0, -0.0449463, 0, 0, 0
NKF2, 43317180, 1, 0, 0, 0, 0, 0, 0, 0, 0, 0, 0, 0, 0
NKF3, 43317180, 0, 0, 0, -0.05, -0.04, 0.01, 0, 0, 0, 0, 0
NKF4, 43317180, 0, 0, 0, 0, 0, 3.197259E-06, 0, 0, 0, 19, 229, 0, 0
NKF5, 43317180, 0, 0, 0, 0, 0.18, 0.13, 0, 0.19, 0.5, 3.054292E-05, 0.0005514812, 0.001481805
NKQ1, 43317180, 0.9999449, 0.0068091, 0.00581819, -0.005476096
AHR2, 43317228, 0.45, 0.11, 359.34, 0.32, 0, 0, 0.9999754, 0.003971884, 0.0009946511, -0.005699579
MOTB, 43317234, 1, 1, 0, 1
RCIN, 43317239, 0, 0, 0, 0, 0, 0, 0, 0, 0, 0, 0, 0, 0, 0
RCOU, 43317244, 1229, 1223, 1221, 1231, 0, 0, 0, 0, 0, 0, 0, 0, 0, 0
VIBE, 43317253, 0.01829093, 0.01868046, 0.03315324, 0, 0, 0
CTRL, 43317260, 0.004588998, 0.0001782156, 0.001234134, 0.0001943288, 8.237537E-05
PRX, 43317292, 2, 0.56, 0, 0.59, 0, 2.58, 0, 2.24, 0, 0, 0, 0.56
IMU, 43341911, -6.658764E-05, 0.001867645, 0.0001574326, 0.1155356, -0.1307563, -9.800155, 0, 0, 39.96434, 1, 1, 998, 998
RFND, 43367499, 0.2, 25, 0, 0
IMU, 43382225, -0.000299834, 0.0005556191, 0.0003263886, 0.121137, -0.1411078, -9.786457, 0, 0, 39.96431, 1, 1, 998, 998
MAG, 43416853, 289, 524, 502, 0, 0, 0, 0, 0, 0, 1, 43416845
RFND, 43416886, 0.2, 25, 0, 0
BARO, 43417017, 0.3503892, 1001.285, 38.52, -0.3766331, 43417, 0, 35
CTUN, 43417029, 0, 0, 0, 0.3244556, 0.04502435, 0.04502435, 0.35, 0, 0.19, 0, 0, -1
ATT, 43417087, 0, 0.43, 0, 0.12, 359.37, 359.38, 0, 1
RATE, 43417093, -1.95101, 0.09795244, -0.004963145, -0.5485902, 0.0381248, -0.001519902, 0.002093395, 0.0510456, -9.374386E-06, 521.8947, -0.5671501, 0
NKF1, 43417164, 0.43, 0.12, 359.37, -0.02604875, -0.02446979, 0.01288629, 0, 0, 0, -0.04502435, 0, 0, 0
NKF2, 43417164, 1, 0, 0, 0, 0, 0, 0, 0, 0, 0, 0, 0, 0
NKF3, 43417164, 0, 0, 0, -0.05, -0.04, 0.01, 0, 0, 0, 0, 0
NKF4, 43417164, 0, 0, 0, 0, 0, 3.517722E-06, 0, 0, 0, 19, 229, 0, 0
NKF5, 43417164, 0, 0, 0, 0, 0.18, 0.13, 0, 0.19, 0.5, 3.135803E-05, 0.000109858, 0.0002159587
NKQ1, 43417164, 0.9999446, 0.006824419, 0.005868596, -0.00547083
AHR2, 43417211, 0.45, 0.12, 359.34, 0.35, 0, 0, 0.9999753, 0.003991625, 0.001045251, -0.005694443
MOTB, 43417218, 1, 1, 0, 1
RCIN, 43417222, 0, 0, 0, 0, 0, 0, 0, 0, 0, 0, 0, 0, 0, 0
RCOU, 43417228, 1229, 1223, 1221, 1232, 0, 0, 0, 0, 0, 0, 0, 0, 0, 0
VIBE, 43417236, 0.01888034, 0.01962953, 0.03176485, 0, 0, 0
CTRL, 43417242, 0.004599025, 0.00017082, 0.001292578, 0.0001791058, 6.932998E-05
PRX, 43417274, 2, 0.56, 0, 0.59, 0, 2.58, 0, 2.24, 0, 0, 0, 0.56
