FMT, 128, 89, FMT, BBnNZ, Type,Length,Name,Format,Columns
FMT, 129, 31, PARM, QNf, TimeUS,Name,Value
FMT, 130, 46, GPS, QBIHBcLLefffB, TimeUS,Status,GMS,GWk,NSats,HDop,Lat,Lng,Alt,Spd,GCrs,VZ,U
FMT, 131, 46, GPS2, QBIHBcLLefffB, TimeUS,Status,GMS,GWk,NSats,HDop,Lat,Lng,Alt,Spd,GCrs,VZ,U
FMT, 132, 46, GPSB, QBIHBcLLefffB, TimeUS,Status,GMS,GWk,NSats,HDop,Lat,Lng,Alt,Spd,GCrs,VZ,U
FMT, 193, 24, GPA, QCCCCBI, TimeUS,VDop,HAcc,VAcc,SAcc,VV,SMS
FMT, 194, 24, GPA2, QCCCCBI, TimeUS,VDop,HAcc,VAcc,SAcc,VV,SMS
FMT, 195, 24, GPAB, QCCCCBI, TimeUS,VDop,HAcc,VAcc,SAcc,VV,SMS
FMT, 133, 53, IMU, QffffffIIfBBHH, TimeUS,GyrX,GyrY,GyrZ,AccX,AccY,AccZ,EG,EA,T,GH,AH,GHz,AHz
FMT, 134, 75, MSG, QZ, TimeUS,Message
FMT, 135, 39, RCIN, QHHHHHHHHHHHHHH, TimeUS,C1,C2,C3,C4,C5,C6,C7,C8,C9,C10,C11,C12,C13,C14
FMT, 136, 39, RCOU, QHHHHHHHHHHHHHH, TimeUS,C1,C2,C3,C4,C5,C6,C7,C8,C9,C10,C11,C12,C13,C14
FMT, 137, 15, RSSI, Qf, TimeUS,RXRSSI
FMT, 139, 37, BARO, QffcfIff, TimeUS,Alt,Press,Temp,CRt,SMS,Offset,GndTemp
FMT, 140, 22, POWR, QffHB, TimeUS,Vcc,VServo,Flags,Safety
FMT, 143, 45, CMD, QHHHfffffff, TimeUS,CTot,CNum,CId,Prm1,Prm2,Prm3,Prm4,Lat,Lng,Alt
FMT, 144, 20, RAD, QBBBBBHH, TimeUS,RSSI,RemRSSI,TxBuf,Noise,RemNoise,RxErrors,Fixed
FMT, 146, 43, CAM, QIHLLeeeccC, TimeUS,GPSTime,GPSWeek,Lat,Lng,Alt,RelAlt,GPSAlt,Roll,Pitch,Yaw
FMT, 232, 43, TRIG, QIHLLeeeccC, TimeUS,GPSTime,GPSWeek,Lat,Lng,Alt,RelAlt,GPSAlt,Roll,Pitch,Yaw
FMT, 162, 30, ARSP, QffcffB, TimeUS,Airspeed,DiffPress,Temp,RawPress,Offset,U
FMT, 164, 45, CURR, QfffcHHHHHHHHHH, TimeUS,Volt,Curr,CurrTot,Temp,V1,V2,V3,V4,V5,V6,V7,V8,V9,V10
FMT, 165, 45, CUR2, QfffcHHHHHHHHHH, TimeUS,Volt,Curr,CurrTot,Temp,V1,V2,V3,V4,V5,V6,V7,V8,V9,V10
FMT, 163, 27, ATT, QccccCCCC, TimeUS,DesRoll,Roll,DesPitch,Pitch,DesYaw,Yaw,ErrRP,ErrYaw
FMT, 166, 34, MAG, QhhhhhhhhhBI, TimeUS,MagX,MagY,MagZ,OfsX,OfsY,OfsZ,MOfsX,MOfsY,MOfsZ,Health,S
FMT, 169, 14, MODE, QMBB, TimeUS,Mode,ModeNum,Rsn
FMT, 196, 17, RFND, QCBCB, TimeUS,Dist1,Orient1,Dist2,Orient2
FMT, 223, 33, DMS, IIIIIBBBBBBBBBB, TimeMS,N,Dp,RT,RS,Er,Fa,Fmn,Fmx,Pa,Pmn,Pmx,Sa,Smn,Smx
FMT, 240, 41, BCN, QBBfffffff, TimeUS,Health,Cnt,D0,D1,D2,D3,PosX,PosY,PosZ
FMT, 138, 53, IMU2, QffffffIIfBBHH, TimeUS,GyrX,GyrY,GyrZ,AccX,AccY,AccZ,EG,EA,T,GH,AH,GHz,AHz
FMT, 147, 53, IMU3, QffffffIIfBBHH, TimeUS,GyrX,GyrY,GyrZ,AccX,AccY,AccZ,EG,EA,T,GH,AH,GHz,AHz
FMT, 141, 45, AHR2, QccCfLLffff, TimeUS,Roll,Pitch,Yaw,Alt,Lat,Lng,Q1,Q2,Q3,Q4
FMT, 180, 31, POS, QLLfff, TimeUS,Lat,Lng,Alt,RelHomeAlt,RelOriginAlt
FMT, 142, 45, SIM, QccCfLLffff, TimeUS,Roll,Pitch,Yaw,Alt,Lat,Lng,Q1,Q2,Q3,Q4
FMT, 198, 51, NKF1, QccCfffffffccc, TimeUS,Roll,Pitch,Yaw,VN,VE,VD,dPD,PN,PE,PD,GX,GY,GZ
FMT, 199, 35, NKF2, QbccccchhhhhhB, TimeUS,AZbias,GSX,GSY,GSZ,VWN,VWE,MN,ME,MD,MX,MY,MZ,MI
FMT, 200, 33, NKF3, Qcccccchhhcc, TimeUS,IVN,IVE,IVD,IPN,IPE,IPD,IMX,IMY,IMZ,IYAW,IVT
FMT, 201, 35, NKF4, QcccccfbbHBHHb, TimeUS,SV,SP,SH,SM,SVT,errRP,OFN,OFE,FS,TS,SS,GPS,PI
FMT, 202, 40, NKF5, QBhhhcccCCfff, TimeUS,NI,FIX,FIY,AFI,HAGL,offset,RI,rng,Herr,eAng,eVel,ePos
FMT, 203, 51, NKF6, QccCfffffffccc, TimeUS,Roll,Pitch,Yaw,VN,VE,VD,dPD,PN,PE,PD,GX,GY,GZ
FMT, 204, 35, NKF7, QbccccchhhhhhB, TimeUS,AZbias,GSX,GSY,GSZ,VWN,VWE,MN,ME,MD,MX,MY,MZ,MI
FMT, 205, 33, NKF8, Qcccccchhhcc, TimeUS,IVN,IVE,IVD,IPN,IPE,IPD,IMX,IMY,IMZ,IYAW,IVT
FMT, 206, 35, NKF9, QcccccfbbHBHHb, TimeUS,SV,SP,SH,SM,SVT,errRP,OFN,OFE,FS,TS,SS,GPS,PI
FMT, 207, 36, NKF0, QBccCCcccccccc, TimeUS,ID,rng,innov,SIV,TR,BPN,BPE,BPD,OFH,OFL,OFN,OFE,OFD
FMT, 208, 27, NKQ1, Qffff, TimeUS,Q1,Q2,Q3,Q4
FMT, 209, 27, NKQ2, Qffff, TimeUS,Q1,Q2,Q3,Q4
FMT, 210, 51, XKF1, QccCfffffffccc, TimeUS,Roll,Pitch,Yaw,VN,VE,VD,dPD,PN,PE,PD,GX,GY,GZ
FMT, 211, 34, XKF2, QccccchhhhhhB, TimeUS,AX,AY,AZ,VWN,VWE,MN,ME,MD,MX,MY,MZ,MI
FMT, 212, 33, XKF3, Qcccccchhhcc, TimeUS,IVN,IVE,IVD,IPN,IPE,IPD,IMX,IMY,IMZ,IYAW,IVT
FMT, 213, 35, XKF4, QcccccfbbHBHHb, TimeUS,SV,SP,SH,SM,SVT,errRP,OFN,OFE,FS,TS,SS,GPS,PI
FMT, 214, 40, XKF5, QBhhhcccCCfff, TimeUS,NI,FIX,FIY,AFI,HAGL,offset,RI,rng,Herr,eAng,eVel,ePos
FMT, 215, 51, XKF6, QccCfffffffccc, TimeUS,Roll,Pitch,Yaw,VN,VE,VD,dPD,PN,PE,PD,GX,GY,GZ
FMT, 216, 34, XKF7, QccccchhhhhhB, TimeUS,AX,AY,AZ,VWN,VWE,MN,ME,MD,MX,MY,MZ,MI
FMT, 217, 33, XKF8, Qcccccchhhcc, TimeUS,IVN,IVE,IVD,IPN,IPE,IPD,IMX,IMY,IMZ,IYAW,IVT
FMT, 218, 35, XKF9, QcccccfbbHBHHb, TimeUS,SV,SP,SH,SM,SVT,errRP,OFN,OFE,FS,TS,SS,GPS,PI
FMT, 219, 36, XKF0, QBccCCcccccccc, TimeUS,ID,rng,innov,SIV,TR,BPN,BPE,BPD,OFH,OFL,OFN,OFE,OFD
FMT, 220, 27, XKQ1, Qffff, TimeUS,Q1,Q2,Q3,Q4
FMT, 221, 27, XKQ2, Qffff, TimeUS,Q1,Q2,Q3,Q4
FMT, 222, 35, XKFD, Qffffff, TimeUS,IX,IY,IZ,IVX,IVY,IVZ
FMT, 148, 34, TERR, QBLLHffHH, TimeUS,Status,Lat,Lng,Spacing,TerrH,CHeight,Pending,Loaded
FMT, 149, 18, UBX1, QBHBBH, TimeUS,Instance,noisePerMS,jamInd,aPower,agcCnt
FMT, 150, 16, UBX2, QBbBbB, TimeUS,Instance,ofsI,magI,ofsQ,magQ
FMT, 151, 18, UBY1, QBHBBH, TimeUS,Instance,noisePerMS,jamInd,aPower,agcCnt
FMT, 152, 16, UBY2, QBbBbB, TimeUS,Instance,ofsI,magI,ofsQ,magQ
FMT, 170, 42, GRAW, QIHBBddfBbB, TimeUS,WkMS,Week,numSV,sv,cpMes,prMes,doMes,mesQI,cno,lli
FMT, 171, 24, GRXH, QdHbBB, TimeUS,rcvTime,week,leapS,numMeas,recStat
FMT, 172, 41, GRXS, QddfBBBHBBBBB, TimeUS,prMes,cpMes,doMes,gnss,sv,freq,lock,cno,prD,cpD,doD,trk
FMT, 173, 63, SBFE, QIHBBdddfffff, TimeUS,TOW,WN,Mode,Err,Lat,Lng,Height,Undul,Vn,Ve,Vu,COG
FMT, 153, 19, ESC1, Qcccc, TimeUS,RPM,Volt,Curr,Temp
FMT, 154, 19, ESC2, Qcccc, TimeUS,RPM,Volt,Curr,Temp
FMT, 155, 19, ESC3, Qcccc, TimeUS,RPM,Volt,Curr,Temp
FMT, 156, 19, ESC4, Qcccc, TimeUS,RPM,Volt,Curr,Temp
FMT, 157, 19, ESC5, Qcccc, TimeUS,RPM,Volt,Curr,Temp
FMT, 158, 19, ESC6, Qcccc, TimeUS,RPM,Volt,Curr,Temp
FMT, 159, 19, ESC7, Qcccc, TimeUS,RPM,Volt,Curr,Temp
FMT, 160, 19, ESC8, Qcccc, TimeUS,RPM,Volt,Curr,Temp
FMT, 167, 34, MAG2, QhhhhhhhhhBI, TimeUS,MagX,MagY,MagZ,OfsX,OfsY,OfsZ,MOfsX,MOfsY,MOfsZ,Health,S
FMT, 168, 34, MAG3, QhhhhhhhhhBI, TimeUS,MagX,MagY,MagZ,OfsX,OfsY,OfsZ,MOfsX,MOfsY,MOfsZ,Health,S
FMT, 174, 31, ACC1, QQfff, TimeUS,SampleUS,AccX,AccY,AccZ
FMT, 175, 31, ACC2, QQfff, TimeUS,SampleUS,AccX,AccY,AccZ
FMT, 176, 31, ACC3, QQfff, TimeUS,SampleUS,AccX,AccY,AccZ
FMT, 177, 31, GYR1, QQfff, TimeUS,SampleUS,GyrX,GyrY,GyrZ
FMT, 178, 31, GYR2, QQfff, TimeUS,SampleUS,GyrX,GyrY,GyrZ
FMT, 179, 31, GYR3, QQfff, TimeUS,SampleUS,GyrX,GyrY,GyrZ
FMT, 181, 35, PIDR, Qffffff, TimeUS,Des,P,I,D,FF,AFF
FMT, 182, 35, PIDP, Qffffff, TimeUS,Des,P,I,D,FF,AFF
FMT, 183, 35, PIDY, Qffffff, TimeUS,Des,P,I,D,FF,AFF
FMT, 184, 35, PIDA, Qffffff, TimeUS,Des,P,I,D,FF,AFF
FMT, 185, 35, PIDS, Qffffff, TimeUS,Des,P,I,D,FF,AFF
FMT, 186, 35, PIDL, Qffffff, TimeUS,Des,P,I,D,FF,AFF
FMT, 161, 37, BAR2, QffcfIff, TimeUS,Alt,Press,Temp,CRt,SMS,Offset,GndTemp
FMT, 197, 37, BAR3, QffcfIff, TimeUS,Alt,Press,Temp,CRt,SMS,Offset,GndTemp
FMT, 187, 35, VIBE, QfffIII, TimeUS,VibeX,VibeY,VibeZ,Clip0,Clip1,Clip2
FMT, 188, 47, IMT, Qfffffffff, TimeUS,DelT,DelvT,DelaT,DelAX,DelAY,DelAZ,DelVX,DelVY,DelVZ
FMT, 189, 47, IMT2, Qfffffffff, TimeUS,DelT,DelvT,DelaT,DelAX,DelAY,DelAZ,DelVX,DelVY,DelVZ
FMT, 190, 47, IMT3, Qfffffffff, TimeUS,DelT,DelvT,DelaT,DelAX,DelAY,DelAZ,DelVX,DelVY,DelVZ
FMT, 191, 24, ORGN, QBLLe, TimeUS,Type,Lat,Lng,Alt
FMT, 192, 19, RPM, Qff, TimeUS,rpm1,rpm2
FMT, 233, 47, GMB1, Iffffffffff, TimeMS,dt,dax,day,daz,dvx,dvy,dvz,jx,jy,jz
FMT, 234, 44, GMB2, IBfffffffff, TimeMS,es,ex,ey,ez,rx,ry,rz,tx,ty,tz
FMT, 235, 13, GMB3, Ihhh, TimeMS,rl_torque_cmd,el_torque_cmd,az_torque_cmd
FMT, 236, 59, RATE, Qffffffffffff, TimeUS,RDes,R,ROut,PDes,P,POut,YDes,Y,YOut,ADes,A,AOut
FMT, 237, 23, RALY, QBBLLh, TimeUS,Tot,Seq,Lat,Lng,Alt
FMT, 238, 43, VISO, Qffffffff, TimeUS,dt,AngDX,AngDY,AngDZ,PosDX,PosDY,PosDZ,conf
FMT, 224, 23, SBPH, QIII, TimeUS,CrcError,LastInject,IARhyp
FMT, 229, 80, SBR1, QHHBZ, TimeUS,msg_type,sender_id,msg_len,d1
FMT, 230, 205, SBR2, QHZZZ, TimeUS,msg_type,d2,d3,d4
FMT, 25, 41, ATUN, QBBfffffff, TimeUS,Axis,TuneStep,Targ,Min,Max,RP,RD,SP,ddt
FMT, 26, 19, ATDE, Qff, TimeUS,Angle,Rate
FMT, 31, 22, PTUN, QBfHHH, TimeUS,Param,TunVal,CtrlIn,TunLo,TunHi
FMT, 12, 28, OF, QBffff, TimeUS,Qual,flowX,flowY,bodyX,bodyY
FMT, 5, 51, NTUN, Qffffffffff, TimeUS,DPosX,DPosY,PosX,PosY,DVelX,DVelY,VelX,VelY,DAccX,DAccY
FMT, 4, 51, CTUN, Qffffffeccfhh, TimeUS,ThI,ABst,ThO,ThH,DAlt,Alt,BAlt,DSAlt,SAlt,TAlt,DCRt,CRt
FMT, 6, 32, PM, QHHIhBHII, TimeUS,NLon,NLoop,MaxT,PMT,I2CErr,INSErr,LogDrop,Mem
FMT, 30, 27, MOTB, Qffff, TimeUS,LiftMax,BatVolt,BatRes,ThLimit
FMT, 13, 12, EV, QB, TimeUS,Id
FMT, 20, 14, D16, QBh, TimeUS,Id,Value
FMT, 21, 14, DU16, QBH, TimeUS,Id,Value
FMT, 22, 16, D32, QBi, TimeUS,Id,Value
FMT, 23, 16, DU32, QBI, TimeUS,Id,Value
FMT, 24, 16, DFLT, QBf, TimeUS,Id,Value
FMT, 19, 13, ERR, QBB, TimeUS,Subsys,ECode
FMT, 32, 19, HELI, Qff, TimeUS,DRRPM,ERRPM
FMT, 33, 29, PL, QBBffff, TimeUS,Heal,TAcq,pX,pY,vX,vY
FMT, 34, 36, GUID, QBffffff, TimeUS,Type,pX,pY,pZ,vX,vY,vZ
FMT, 35, 32, THRO, QBffffbbbb, TimeUS,Stage,Vel,VelZ,Acc,AccEfZ,Throw,AttOk,HgtOk,PosOk
FMT, 36, 56, PRX, QBfffffffffff, TimeUS,Health,D0,D45,D90,D135,D180,D225,D270,D315,DUp,CAn,CDis
MODE, 44811006, 100, 100, 2
EV, 44819105, 15
DU32, 44839215, 7, 50357752
FMT, 254, 47, NKT1, QIffffffff, TimeUS,Cnt,IMUMin,IMUMax,EKFMin,EKFMax,AngMin,AngMax,VelMin,VelM
FMT, 253, 31, CTRL, Qfffff, TimeUS,RMSRollP,RMSRollD,RMSPitchP,RMSPitchD,RMSYaw
MSG, 44965341, APM:Copter V3.5.7 (15576f2a)
MSG, 44965346, New mission
MSG, 44965357, Frame: QUAD
MODE, 44965362, Autonomous, 100, 2
RFND, 44990102, 0.2, 25, 0, 0
IMU, 45000128, -0.00151463, 0.001465714, 0.0002838724, 0.09554087, -0.1403735, -9.776932, 0, 0, 41.10844, 1, 1, 998, 998
MAG, 45040092, 292, 522, 494, 0, 0, 0, 0, 0, 0, 1, 45040084
RFND, 45040126, 0.2, 25, 0, 0
BARO, 45040260, -0.2769205, 1001.394, 39.73, -0.1633992, 45040, 0, 35
CTUN, 45040273, 0, 0, 0, 0.322178, 0.06719191, 0.06719191, -0.27, 0, 0.19, 0, 0, 0
ATT, 45040353, 0, 0.43, 0, 0.01, 359.03, 359.05, 0, 1
RATE, 45040359, -1.955783, -0.07186585, -0.004154897, -0.07167087, 0.0155322, -6.54843E-05, -0.001811256, -0.09451044, 7.477429E-05, 172.755, 0.4507065, 0
NKF1, 45040367, 0.43, 0.01, 359.04, 0.0002222124, -0.01833078, 0.004265555, 0, 0, 0, -0.06719191, -0.01, -0.02, 0
NKF2, 45040367, 2, 0, 0, 0, 0, 0, 0, 0, 0, 0, 0, 0, 0
NKF3, 45040367, 0, 0, 0, 0, -0.01, 0, 0, 0, 0, 0, 0
NKF4, 45040367, 0, 0, 0, 0, 0, 2.063708E-05, 0, 0, 0, 19, 229, 0, 0
NKF5, 45040367, 0, 0, 0, 0, 0.19, 0.13, 0, 0.19, 0.5, 1.906593E-05, 0.0007766436, 0.001433997
NKQ1, 45040367, 0.9999294, 0.006844368, 0.004921966, -0.008382552
AHR2, 45040412, 0.4, -0.04, 359.02, -0.27, 0, 0, 0.9999575, 0.00352831, -0.0004641634, -0.008507403
MOTB, 45040419, 1, 1, 0, 1
RCIN, 45040424, 0, 0, 0, 0, 0, 0, 0, 0, 0, 0, 0, 0, 0, 0
RCOU, 45040429, 1101, 1101, 1101, 1101, 0, 0, 0, 0, 0, 0, 0, 0, 0, 0
VIBE, 45040438, 0.01934054, 0.02200177, 0.03197791, 0, 0, 0
CTRL, 45040444, 0.004606582, 0.0001545698, 0.0002268552, 0.0002173271, 0.0001032959
PRX, 45040475, 2, 0.59, 0, 0.57, 0, 3.5, 0, 2.26, 0, 0, 90, 0.57
IMU, 45040481, -0.001588837, -0.00011444, -0.001654569, 0.1111971, -0.1354114, -9.782074, 0, 0, 41.10956, 1, 1, 998, 998
IMU, 45080103, -0.0003212948, -0.001111929, -0.0001650947, 0.09553062, -0.1400007, -9.784695, 0, 0, 41.1109, 1, 1, 998, 998
RFND, 45090031, 0.2, 25, 0, 0
IMU, 45120511, -2.704339E-05, -0.0005527295, 0.0007514783, 0.1000731, -0.1369002, -9.774405, 0, 0, 41.11295, 1, 1, 998, 998
MAG, 45140077, 297, 521, 501, 0, 0, 0, 0, 0, 0, 1, 45140069
RFND, 45140111, 0.2, 25, 0, 0
BARO, 45140149, -0.1469374, 1001.379, 39.72, -0.1673571, 45140, 0, 35
CTUN, 45140537, 0, 0, 0, 0.322178, 0.066743, 0.066743, -0.14, 0, 0.19, 0, 0, 0
ATT, 45140629, 0, 0.43, 0, 0.01, 359.03, 359.05, 0, 1
RATE, 45140636, -1.962135, 0.01504843, -0.004851334, -0.06365436, -0.07698877, 0.0005299246, -0.0005473275, 0.01374177, 3.73134E-06, 192.0672, -1.321507, 0
NKF1, 45140644, 0.43, 0.01, 359.04, 0.0002941051, -0.01852988, 0.004742401, 0, 0, 0, -0.066743, -0.01, -0.02, 0
NKF2, 45140644, 2, 0, 0, 0, 0, 0, 0, 0, 0, 0, 0, 0, 0
NKF3, 45140644, 0, 0, 0, 0, -0.01, 0, 0, 0, 0, 0, 0
NKF4, 45140644, 0, 0, 0, 0, 0, 1.351072E-05, 0, 0, 0, 19, 229, 0, 0
NKF5, 45140644, 0, 0, 0, 0, 0.19, 0.13, 0, 0.19, 0.5, 3.75804E-06, 0.00106187, 0.002001192
NKQ1, 45140644, 0.9999293, 0.006856423, 0.004907892, -0.008384147
AHR2, 45140689, 0.4, -0.05, 359.02, -0.14, 0, 0, 0.9999574, 0.003544183, -0.0004741945, -0.008509335
MOTB, 45140697, 1, 1, 0, 1
RCIN, 45140702, 0, 0, 0, 0, 0, 0, 0, 0, 0, 0, 0, 0, 0, 0
RCOU, 45140707, 1101, 1101, 1101, 1101, 0, 0, 0, 0, 0, 0, 0, 0, 0, 0
VIBE, 45140716, 0.01915954, 0.02088869, 0.02933886, 0, 0, 0
CTRL, 45140723, 0.004607253, 0.0001902221, 0.0002122979, 0.0002139812, 9.57076E-05
PRX, 45140754, 2, 0.59, 0, 0.57, 0, 2.58, 0, 2.27, 0, 0, 90, 0.57
IMU, 45160125, -0.0008852088, -0.0005324478, -0.001033367, 0.1064632, -0.1462738, -9.756746, 0, 0, 41.11369, 1, 1, 998, 998
RFND, 45190138, 0.2, 25, 0, 0
IMU, 45200120, -0.001002966, -0.001792135, -0.0004320303, 0.09352913, -0.1433923, -9.77931, 0, 0, 41.11365, 1, 1, 998, 998
MAG, 45240004, 294, 520, 492, 0, 0, 0, 0, 0, 0, 1, 45239996
RFND, 45240038, 0.2, 25, 0, 0
BARO, 45240076, -0.2656176, 1001.393, 39.73, 0.1297958, 45240, 0, 35
CTUN, 45240089, 0, 0, 0, 0.322178, 0.06628304, 0.06628304, -0.26, 0, 0.19, 0, 0, 0
ATT, 45240262, 0, 0.43, 0, 0.01, 359.03, 359.05, 0, 1
RATE, 45240269, -1.944134, -0.1180113, -0.003982173, -0.05424049, -0.01745347, -0.000103866, 0.0002291638, 0.03462532, 3.745771E-05, 199.9081, 0.480175, 0
NKF1, 45240277, 0.43, 0.01, 359.04, 0.0007265902, -0.01888568, 0.004936001, 0, 0, 0, -0.06628304, -0.01, -0.02, 0
NKF2, 45240277, 2, 0, 0, 0, 0, 0, 0, 0, 0, 0, 0, 0, 0
NKF3, 45240277, 0, 0, 0, 0, -0.02, 0, 0, 0, 0, 0, 0
NKF4, 45240277, 0, 0, 0, 0, 0, 9.007766E-06, 0, 0, 0, 19, 229, 0, 0
NKF5, 45240277, 0, 0, 0, 0, 0.19, 0.13, 0, 0.19, 0.5, 1.763013E-05, 0.001259053, 0.002443012
NKQ1, 45240277, 0.9999295, 0.006821155, 0.004890082, -0.008405215
AHR2, 45240323, 0.4, -0.05, 359.02, -0.26, 0, 0, 0.9999573, 0.003514505, -0.0004873642, -0.008530595
MOTB, 45240330, 1, 1, 0, 1
RCIN, 45240334, 0, 0, 0, 0, 0, 0, 0, 0, 0, 0, 0, 0, 0, 0
RCOU, 45240340, 1101, 1101, 1101, 1101, 0, 0, 0, 0, 0, 0, 0, 0, 0, 0
VIBE, 45240349, 0.01886977, 0.0188462, 0.03093753, 0, 0, 0
CTRL, 45240355, 0.004589261, 0.0001855794, 0.0001888933, 0.0002120294, 8.823052E-05
PRX, 45240387, 2, 0.59, 0, 0.57, 0, 2.58, 0, 2.26, 0, 0, 90, 0.57
IMU, 45240394, -0.002396059, -0.0006922442, 0.0005992481, 0.1136983, -0.1328444, -9.782228, 0, 0, 41.11375, 1, 1, 998, 998
IMU, 45280029, 0.0002852034, -0.0005676188, -0.001305174, 0.1037294, -0.1328058, -9.785385, 0, 0, 41.11317, 1, 1, 998, 998
RFND, 45289998, 0.2, 25, 0, 0
IMU, 45320070, -0.000750498, 0.0002121788, -0.002639455, 0.09982963, -0.1436139, -9.77171, 0, 0, 41.11218, 1, 1, 998, 998
MAG, 45340092, 296, 519, 490, 0, 0, 0, 0, 0, 0, 1, 45340084
RFND, 45340126, 0.2, 25, 0, 0
BARO, 45340307, -0.3277835, 1001.399, 39.74, 0.3589551, 45340, 0, 35
CTUN, 45340322, 0, 0, 0, 0.322178, 0.06585007, 0.06585007, -0.32, 0, 0.19, 0, 0, 0
ATT, 45340403, 0, 0.43, 0, 0.01, 359.03, 359.04, 0, 1
RATE, 45340409, -1.941985, -0.09710288, -0.00405552, -0.05798341, 0.03879111, -0.0003763398, 0.001304475, -0.02585992, 0.0001713175, 209.4992, -0.5930901, 0
NKF1, 45340418, 0.43, 0.01, 359.03, 0.001024109, -0.01925503, 0.00517282, 0, 0, 0, -0.06585007, -0.01, -0.02, 0
NKF2, 45340418, 2, 0, 0, 0, 0, 0, 0, 0, 0, 0, 0, 0, 0
NKF3, 45340418, 0, 0, 0, 0, -0.02, 0, 0, 0, 0, 0, 0
NKF4, 45340418, 0, 0, 0, 0, 0, 6.103286E-06, 0, 0, 0, 19, 229, 0, 0
NKF5, 45340418, 0, 0, 0, 0, 0.19, 0.13, 0, 0.19, 0.5, 2.85128E-05, 0.001382505, 0.002723735
NKQ1, 45340418, 0.999929, 0.006819131, 0.004896166, -0.008458777
AHR2, 45340463, 0.4, -0.05, 359.01, -0.32, 0, 0, 0.9999568, 0.003516082, -0.0004770792, -0.008584464
MOTB, 45340471, 1, 1, 0, 1
RCIN, 45340475, 0, 0, 0, 0, 0, 0, 0, 0, 0, 0, 0, 0, 0, 0
RCOU, 45340480, 1101, 1101, 1101, 1101, 0, 0, 0, 0, 0, 0, 0, 0, 0, 0
VIBE, 45340489, 0.0178384, 0.01799626, 0.02941144, 0, 0, 0
CTRL, 45340495, 0.004593831, 0.0001977486, 0.0001762739, 0.0001957004, 9.909633E-05
PRX, 45340527, 2, 0.59, 0, 0.57, 0, 3.14, 0, 2.26, 0, 0, 90, 0.57
IMU, 45360267, -0.001928277, 0.001480834, -0.0004001324, 0.09703234, -0.1374192, -9.781102, 0, 0, 41.11156, 1, 1, 998, 998
RFND, 45389870, 0.2, 25, 0, 0
IMU, 45400020, -0.0006602065, -0.0003587149, 0.001866937, 0.1015736, -0.1351314, -9.759502, 0, 0, 41.11071, 1, 1, 998, 998
MAG, 45440047, 299, 519, 492, 0, 0, 0, 0, 0, 0, 1, 45440039
RFND, 45440080, 0.2, 25, 0, 0
BARO, 45440116, -0.3277835, 1001.4, 39.74, 0.06373799, 45440, 0, 35
CTUN, 45440128, 0, 0, 0, 0.322178, 0.06536032, 0.06536032, -0.32, 0, 0.19, 0, 0, 0
ATT, 45440476, 0, 0.42, 0, 0.01, 359.03, 359.04, 0, 1
RATE, 45440483, -1.92749, -0.04018447, -0.004225289, -0.06245258, -0.04354253, 0.0002021877, 0.0009515522, -0.1310764, -1.677858E-06, 262.3613, -1.434994, 0
NKF1, 45440509, 0.42, 0.01, 359.03, 0.0009583726, -0.0200216, 0.006478056, 0, 0, 0, -0.06536032, -0.01, -0.02, 0
NKF2, 45440509, 2, 0, 0, 0, 0, 0, 0, 0, 0, 0, 0, 0, 0
NKF3, 45440509, 0, 0, 0, 0, -0.02, 0, 0, 0, 0, 0, 0
NKF4, 45440509, 0, 0, 0, 0, 0, 4.187714E-06, 0, 0, 0, 19, 229, 0, 0
NKF5, 45440509, 0, 0, 0, 0, 0.19, 0.13, 0, 0.19, 0.5, 3.514139E-05, 0.001454324, 0.002932192
NKQ1, 45440509, 0.9999292, 0.00679083, 0.004903598, -0.008451443
AHR2, 45440556, 0.4, -0.04, 359.01, -0.32, 0, 0, 0.999957, 0.003490735, -0.0004660026, -0.008577347
MOTB, 45440564, 1, 1, 0, 1
RCIN, 45440568, 0, 0, 0, 0, 0, 0, 0, 0, 0, 0, 0, 0, 0, 0
RCOU, 45440574, 1101, 1101, 1101, 1101, 0, 0, 0, 0, 0, 0, 0, 0, 0, 0
VIBE, 45440583, 0.01948054, 0.01729954, 0.03480811, 0, 0, 0
CTRL, 45440589, 0.004557349, 0.000177706, 0.000199128, 0.0002257671, 9.512209E-05
PRX, 45440621, 2, 0.59, 0, 0.57, 0, 2.35, 0, 2.26, 0, 0, 90, 0.57
IMU, 45440628, -0.001038468, -0.00114843, -0.002292803, 0.09301554, -0.1407633, -9.763107, 0, 0, 41.10963, 1, 1, 998, 998
IMU, 45480277, -0.0001601836, -0.0006501346, -0.0006066631, 0.09575218, -0.1402001, -9.77408, 0, 0, 41.10841, 1, 1, 998, 998
RFND, 45490043, 0.2, 25, 0, 0
IMU, 45520142, -0.001830599, -0.0006991513, -0.0007174459, 0.09642553, -0.1258858, -9.761688, 0, 0, 41.10754, 1, 1, 998, 998
MAG, 45540060, 293, 517, 492, 0, 0, 0, 0, 0, 0, 1, 45540052
RFND, 45540093, 0.2, 25, 0, 0
BARO, 45540131, -0.3616921, 1001.403, 39.74, -0.3426126, 45540, 0, 35
CTUN, 45540143, 0, 0, 0, 0.322178, 0.06484423, 0.06484423, -0.36, 0, 0.19, 0, 0, 0
ATT, 45540329, 0, 0.42, 0, 0.01, 359.03, 359.04, 0, 1
RATE, 45540336, -1.925686, 0.00594048, -0.004800022, -0.05395703, -0.07851356, 0.0004611542, 0.001044175, 0.1143153, -1.164147E-06, 279.4773, -0.1661301, 0
NKF1, 45540344, 0.42, 0.01, 359.03, 0.001239782, -0.02025048, 0.006900673, 0, 0, 0, -0.06484423, -0.01, -0.02, 0
NKF2, 45540344, 2, 0, 0, 0, 0, 0, 0, 0, 0, 0, 0, 0, 0
NKF3, 45540344, 0, 0, 0, 0, -0.02, 0, 0, 0, 0, 0, 0
NKF4, 45540344, 0, 0, 0, 0, 0, 2.910964E-06, 0, 0, 0, 19, 229, 0, 0
NKF5, 45540344, 0, 0, 0, 0, 0.19, 0.13, 0, 0.19, 0.5, 3.896227E-05, 0.001482826, 0.003018031
NKQ1, 45540344, 0.9999294, 0.006785594, 0.004890712, -0.008445121
AHR2, 45540391, 0.4, -0.05, 359.01, -0.36, 0, 0, 0.9999571, 0.003492436, -0.0004750659, -0.008571409
MOTB, 45540400, 1, 1, 0, 1
RCIN, 45540404, 0, 0, 0, 0, 0, 0, 0, 0, 0, 0, 0, 0, 0, 0
RCOU, 45540410, 1101, 1101, 1101, 1101, 0, 0, 0, 0, 0, 0, 0, 0, 0, 0
VIBE, 45540419, 0.02134596, 0.01987009, 0.03714912, 0, 0, 0
CTRL, 45540425, 0.004543135, 0.000171733, 0.0001855547, 0.0002319816, 8.317765E-05
PRX, 45540457, 2, 0.59, 0, 0.57, 0, 2.35, 0, 2.27, 0, 0, 90, 0.57
IMU, 45560361, 0.0001883886, -0.0004414889, 0.000700791, 0.1078308, -0.1358375, -9.771591, 0, 0, 41.10771, 1, 1, 998, 998
RFND, 45590031, 0.2, 25, 0, 0
IMU, 45600591, -0.0005833202, -0.001519053, 0.0001736222, 0.1151952, -0.1356561, -9.781605, 0, 0, 41.1076, 1, 1, 998, 998
MAG, 45640412, 296, 524, 491, 0, 0, 0, 0, 0, 0, 1, 45640404
RFND, 45640447, 0.2, 25, 0, 0
BARO, 45640552, -0.4069036, 1001.408, 39.74, -0.4061972, 45640, 0, 35
CTUN, 45640565, 0, 0, 0, 0.322178, 0.06433061, 0.06433061, -0.4, 0, 0.19, 0, 0, 0
ATT, 45640646, 0, 0.42, 0, 0.01, 359.03, 359.04, 0, 1
RATE, 45640651, -1.919204, -0.05578492, -0.004253994, -0.06347937, 0.05363894, -0.000460151, -0.000652923, -0.01275961, 2.79935E-05, 294.5175, -1.490402, 0
NKF1, 45640659, 0.42, 0.01, 359.03, 0.001770828, -0.02097664, 0.007272039, 0, 0, 0, -0.06433061, -0.01, -0.02, 0
NKF2, 45640659, 2, 0, 0, 0, 0, 0, 0, 0, 0, 0, 0, 0, 0
NKF3, 45640659, 0, 0, 0, 0, -0.02, 0, 0, 0, 0, 0, 0
NKF4, 45640659, 0, 0, 0, 0, 0, 2.081956E-06, 0, 0, 0, 19, 229, 0, 0
NKF5, 45640659, 0, 0, 0, 0, 0.19, 0.13, 0, 0.19, 0.5, 4.015313E-05, 0.001487023, 0.003083797
NKQ1, 45640659, 0.9999293, 0.006775106, 0.004907442, -0.008452703
AHR2, 45640705, 0.4, -0.04, 359.01, -0.4, 0, 0, 0.999957, 0.003490849, -0.0004547054, -0.00857928
MOTB, 45640712, 1, 1, 0, 1
RCIN, 45640716, 0, 0, 0, 0, 0, 0, 0, 0, 0, 0, 0, 0, 0, 0
RCOU, 45640722, 1101, 1101, 1101, 1101, 0, 0, 0, 0, 0, 0, 0, 0, 0, 0
VIBE, 45640731, 0.01973522, 0.01776948, 0.03320103, 0, 0, 0
CTRL, 45640738, 0.004542417, 0.0001843742, 0.0001822908, 0.0002372883, 7.048836E-05
PRX, 45640769, 2, 0.59, 0, 0.57, 0, 2.76, 0, 2.26, 0, 0, 90, 0.57
IMU, 45640776, -0.001311834, 0.0005464701, -0.0002278022, 0.09112079, -0.1430294, -9.762451, 0, 0, 41.10821, 1, 1, 998, 998
IMU, 45680533, -0.0007495719, 8.641145E-05, 0.0009503589, 0.09363795, -0.150891, -9.787791, 0, 0, 41.10818, 1, 1, 998, 998
RFND, 45690074, 0.2, 25, 0, 0
IMU, 45720123, 0.0001586679, 0.0009807138, 0.0008255001, 0.09357157, -0.1465408, -9.781607, 0, 0, 41.10828, 1, 1, 998, 998
MAG, 45740097, 295, 520, 493, 0, 0, 0, 0, 0, 0, 1, 45740089
RFND, 45740131, 0.2, 25, 0, 0
BARO, 45740265, -0.4521151, 1001.413, 39.74, -0.3249578, 45740, 0, 35
CTUN, 45740279, 0, 0, 0, 0.322178, 0.06380706, 0.06380706, -0.45, 0, 0.19, 0, 0, 0
ATT, 45740365, 0, 0.42, 0, 0.01, 359.03, 359.04, 0, 1
RATE, 45740371, -1.918504, 0.02153371, -0.004584526, -0.08203249, -0.0365168, 0.0002921672, 0.00101517, -0.04429349, -4.971121E-05, 292.1639, -1.21994, 0
NKF1, 45740379, 0.42, 0.01, 359.03, 0.001481441, -0.02207506, 0.007213923, 0, 0, 0, -0.06380706, -0.01, -0.02, 0
NKF2, 45740379, 2, 0, 0, 0, 0, 0, 0, 0, 0, 0, 0, 0, 0
NKF3, 45740379, 0, 0, 0, 0, -0.02, 0, 0, 0, 0, 0, 0
NKF4, 45740379, 0, 0, 0, 0, 0, 1.540875E-06, 0, 0, 0, 19, 229, 0, 0
NKF5, 45740379, 0, 0, 0, 0, 0.19, 0.13, 0, 0.19, 0.5, 4.034247E-05, 0.001464869, 0.003050447
NKQ1, 45740379, 0.9999294, 0.006771646, 0.004943041, -0.008434587
AHR2, 45740425, 0.4, -0.04, 359.01, -0.45, 0, 0, 0.9999571, 0.003495003, -0.0004149662, -0.008561441
MOTB, 45740432, 1, 1, 0, 1
RCIN, 45740436, 0, 0, 0, 0, 0, 0, 0, 0, 0, 0, 0, 0, 0, 0
RCOU, 45740442, 1101, 1101, 1101, 1101, 0, 0, 0, 0, 0, 0, 0, 0, 0, 0
VIBE, 45740450, 0.01852511, 0.01922146, 0.03088668, 0, 0, 0
CTRL, 45740456, 0.004527165, 0.0001790116, 0.0002441099, 0.0002328313, 6.41611E-05
PRX, 45740488, 2, 0.59, 0, 0.57, 0, 3.22, 0, 2.26, 0, 0, 90, 0.57
IMU, 45760136, 0.0008996247, -0.002653968, -0.002225691, 0.1067625, -0.1422957, -9.771263, 0, 0, 41.10765, 1, 1, 998, 998
RFND, 45790042, 0.2, 25, 0, 0
IMU, 45801206, -0.001009997, -0.0004399343, 3.342839E-05, 0.09992525, -0.1350815, -9.769684, 0, 0, 41.10741, 1, 1, 998, 998
MAG, 45840116, 296, 512, 498, 0, 0, 0, 0, 0, 0, 1, 45840107
RFND, 45840448, 0.2, 25, 0, 0
BARO, 45840586, -0.5199324, 1001.421, 39.74, -0.3585132, 45840, 0, 35
CTUN, 45840600, 0, 0, 0, 0.322178, 0.06332088, 0.06332088, -0.51, 0, 0.19, 0, 0, 0
DU32, 45840644, 7, 50357752
ATT, 45840877, 0, 0.42, 0, 0.01, 359.02, 359.04, 0, 1
RATE, 45840884, -1.917199, 0.06401837, -0.004944033, -0.06152953, -0.03947311, -0.0001824799, -0.0003350196, -0.05267358, 0.0001146604, 311.2505, 0.5236626, 0
NKF1, 45840892, 0.42, 0.01, 359.03, 0.001910129, -0.02276629, 0.007685197, 0, 0, 0, -0.06332088, -0.01, -0.02, 0
NKF2, 45840892, 2, 0, 0, 0, 0, 0, 0, 0, 0, 0, 0, 0, 0
NKF3, 45840892, 0, 0, 0, 0, -0.03, 0, 0, 0, 0, 0, 0
NKF4, 45840892, 0, 0, 0, 0, 0, 1.218034E-06, 0, 0, 0, 19, 229, 0, 0
NKF5, 45840892, 0, 0, 0, 0, 0.19, 0.13, 0, 0.19, 0.5, 3.934672E-05, 0.001436282, 0.003043844
NKQ1, 45840892, 0.9999291, 0.00677152, 0.004902884, -0.008487622
AHR2, 45841010, 0.4, -0.04, 359.01, -0.51, 0, 0, 0.9999567, 0.003501243, -0.0004504292, -0.008614975
MOTB, 45841018, 1, 1, 0, 1
RCIN, 45841023, 0, 0, 0, 0, 0, 0, 0, 0, 0, 0, 0, 0, 0, 0
RCOU, 45841029, 1101, 1101, 1101, 1101, 0, 0, 0, 0, 0, 0, 0, 0, 0, 0
VIBE, 45841038, 0.02038803, 0.01989689, 0.03359345, 0, 0, 0
CTRL, 45841044, 0.004527384, 0.0001878583, 0.0002092355, 0.000234312, 7.804744E-05
PRX, 45841075, 2, 0.59, 0, 0.57, 0, 2.48, 0, 2.26, 0, 0, 90, 0.57
IMU, 45841082, 0.0007788719, -0.001078918, -0.0009244361, 0.1035049, -0.1362107, -9.782539, 0, 0, 41.10857, 1, 1, 998, 998
PM, 45841093, 87, 4000, 4691, 10, 0, 0, 42, 262144
IMU, 45880158, -0.0002469992, -0.001404682, -0.001265883, 0.09819444, -0.1362244, -9.744331, 0, 0, 41.10841, 1, 1, 998, 998
RFND, 45890110, 0.2, 25, 0, 0
IMU, 45920118, -0.0003867994, 6.339196E-06, -0.0002471544, 0.1129213, -0.1486248, -9.774534, 0, 0, 41.10755, 1, 1, 998, 998
MAG, 45940112, 296, 519, 495, 0, 0, 0, 0, 0, 0, 1, 45940103
RFND, 45940146, 0.2, 25, 0, 0
BARO, 45940287, -0.1356345, 1001.378, 39.72, -0.3214256, 45940, 0, 35
CTUN, 45940301, 0, 0, 0, 0.322178, 0.06270503, 0.06270503, -0.13, 0, 0.19, 0, 0, 0
ATT, 45940379, 0, 0.42, 0, 0.01, 359.02, 359.03, 0, 1
RATE, 45940385, -1.920657, 0.02800325, -0.0048278, -0.07998941, 0.1089524, -0.0006325321, 0.001007947, 0.02258797, 9.535971E-05, 348.9717, 0.3411293, 0
NKF1, 45940394, 0.42, 0.01, 359.02, 0.002632955, -0.0240471, 0.008616585, 0, 0, 0, -0.06270503, -0.01, -0.02, 0
NKF2, 45940394, 2, 0, 0, 0, 0, 0, 0, 0, 0, 0, 0, 0, 0
NKF3, 45940394, 0, 0, 0, 0, -0.03, 0, 0, 0, 0, 0, 0
NKF4, 45940394, 0, 0, 0, 0, 0, 1.008107E-06, 0, 0, 0, 19, 229, 0, 0
NKF5, 45940394, 0, 0, 0, 0, 0.19, 0.13, 0, 0.19, 0.5, 3.782361E-05, 0.001410162, 0.003057247
NKQ1, 45940394, 0.9999288, 0.006775226, 0.004939483, -0.008507669
AHR2, 45940439, 0.4, -0.04, 359.01, -0.13, 0, 0, 0.9999565, 0.003511622, -0.0004102829, -0.008635323
MOTB, 45940446, 1, 1, 0, 1
RCIN, 45940450, 0, 0, 0, 0, 0, 0, 0, 0, 0, 0, 0, 0, 0, 0
RCOU, 45940456, 1101, 1101, 1101, 1101, 0, 0, 0, 0, 0, 0, 0, 0, 0, 0
VIBE, 45940465, 0.01910468, 0.02031095, 0.03357199, 0, 0, 0
CTRL, 45940471, 0.004530669, 0.0001663655, 0.0002379509, 0.0002591887, 9.260398E-05
PRX, 45940502, 2, 0.59, 0, 0.57, 0, 2.47, 0, 2.24, 0, 0, 90, 0.57
IMU, 45961046, 0.0004809395, 0.0003806846, -0.0009402517, 0.1075125, -0.1350923, -9.766831, 0, 0, 41.10683, 1, 1, 998, 998
RFND, 45990077, 0.2, 25, 0, 0
IMU, 46000281, 7.852759E-05, 0.0005191586, -0.0005486009, 0.1010138, -0.1267253, -9.776064, 0, 0, 41.1069, 1, 1, 998, 998
MAG, 46040129, 295, 518, 499, 0, 0, 0, 0, 0, 0, 1, 46040120
RFND, 46040615, 0.2, 25, 0, 0
BARO, 46040660, -0.1356345, 1001.378, 39.73, 0.166011, 46040, 0, 35
CTUN, 46040674, 0, 0, 0, 0.322178, 0.06212965, 0.06212965, -0.13, 0, 0.19, 0, 0, 0
ATT, 46040884, 0, 0.42, 0, 0.01, 359.02, 359.03, 0, 1
RATE, 46040890, -1.916106, -0.01146036, -0.00465518, -0.08941469, -0.0738234, 2.735478E-05, -0.001397991, 0.002894458, 0.0001038491, 370.1387, 0.2691269, 0
NKF1, 46040898, 0.42, 0.01, 359.02, 0.003438879, -0.0245175, 0.009139228, 0, 0, 0, -0.06212965, -0.01, -0.02, 0
NKF2, 46040898, 2, 0, 0, 0, 0, 0, 0, 0, 0, 0, 0, 0, 0
NKF3, 46040898, 0, 0, 0, 0, -0.03, 0, 0, 0, 0, 0, 0
NKF4, 46040898, 0, 0, 0, 0, 0, 9.232833E-07, 0, 0, 0, 19, 229, 0, 0
NKF5, 46040898, 0, 0, 0, 0, 0.19, 0.13, 0, 0.19, 0.5, 3.703206E-05, 0.001347603, 0.002898512
NKQ1, 46040898, 0.9999285, 0.00676854, 0.004957494, -0.00852593
AHR2, 46041019, 0.4, -0.04, 359, -0.13, 0, 0, 0.9999563, 0.00351187, -0.0003891378, -0.00865389
MOTB, 46041027, 1, 1, 0, 1
RCIN, 46041031, 0, 0, 0, 0, 0, 0, 0, 0, 0, 0, 0, 0, 0, 0
RCOU, 46041037, 1101, 1101, 1101, 1101, 0, 0, 0, 0, 0, 0, 0, 0, 0, 0
VIBE, 46041046, 0.01983405, 0.01981729, 0.03019162, 0, 0, 0
CTRL, 46041052, 0.004525255, 0.0001566336, 0.0002694468, 0.0002651174, 8.843284E-05
PRX, 46041083, 2, 0.59, 0, 0.57, 0, 2.84, 0, 2.24, 0, 0, 90, 0.57
IMU, 46041090, -0.0005392059, -0.001679254, 4.539857E-05, 0.1006336, -0.1475973, -9.779806, 0, 0, 41.10718, 1, 1, 998, 998
IMU, 46080295, -0.0006373519, -0.0005484091, -0.001241763, 0.1064514, -0.1381088, -9.760363, 0, 0, 41.10843, 1, 1, 998, 998
RFND, 46090058, 0.2, 25, 0, 0
IMU, 46120546, 3.432171E-05, -0.0003169432, -0.000863117, 0.1013915, -0.1450914, -9.781062, 0, 0, 41.1095, 1, 1, 998, 998
MAG, 46140133, 293, 518, 493, 0, 0, 0, 0, 0, 0, 1, 46140125
RFND, 46140268, 0.2, 25, 0, 0
BARO, 46140309, -0.2712691, 1001.393, 39.74, 0.8618445, 46140, 0, 35
CTUN, 46140321, 0, 0, 0, 0.322178, 0.06149971, 0.06149971, -0.27, 0, 0.19, 0, 0, 0
ATT, 46140402, 0, 0.42, 0, 0.02, 359.01, 359.03, 0, 1
RATE, 46140408, -1.911616, 0.06521416, -0.004699151, -0.09649467, -0.06872991, 2.524497E-05, 0.0002430887, -0.07146724, 0.0001100411, 389.0901, -0.4970551, 0
NKF1, 46140415, 0.42, 0.02, 359.02, 0.003848758, -0.02558746, 0.009607162, 0, 0, 0, -0.06149971, -0.01, -0.02, 0
NKF2, 46140415, 2, 0, 0, 0, 0, 0, 0, 0, 0, 0, 0, 0, 0
NKF3, 46140415, 0, 0, 0, 0, -0.04, 0, 0, 0, 0, 0, 0
NKF4, 46140415, 0, 0, 0, 0, 0, 8.841878E-07, 0, 0, 0, 19, 229, 0, 0
NKF5, 46140415, 0, 0, 0, 0, 0.19, 0.13, 0, 0.19, 0.5, 3.543394E-05, 0.001314412, 0.002895251
NKQ1, 46140415, 0.9999282, 0.006761309, 0.004970046, -0.008560458
AHR2, 46140462, 0.4, -0.03, 359, -0.27, 0, 0, 0.999956, 0.003513316, -0.000367419, -0.008688744
MOTB, 46140469, 1, 1, 0, 1
RCIN, 46140474, 0, 0, 0, 0, 0, 0, 0, 0, 0, 0, 0, 0, 0, 0
RCOU, 46140479, 1101, 1101, 1101, 1101, 0, 0, 0, 0, 0, 0, 0, 0, 0, 0
VIBE, 46140489, 0.01821524, 0.02039607, 0.03352468, 0, 0, 0
CTRL, 46140495, 0.004515229, 0.0001689632, 0.0002772598, 0.0002696989, 8.908858E-05
PRX, 46140526, 2, 0.59, 0, 0.57, 0, 3.09, 0, 2.24, 0, 0, 90, 0.57
IMU, 46160153, -0.0002569963, 0.0006773347, -0.001213457, 0.1159942, -0.1310944, -9.77448, 0, 0, 41.11052, 1, 1, 998, 998
RFND, 46190059, 0.2, 25, 0, 0
IMU, 46200169, -0.0008007163, -0.001146444, 0.002042785, 0.1019926, -0.147621, -9.745509, 0, 0, 41.11208, 1, 1, 998, 998
MAG, 46240089, 296, 521, 494, 0, 0, 0, 0, 0, 0, 1, 46240081
RFND, 46240123, 0.2, 25, 0, 0
BARO, 46240541, -0.3164806, 1001.398, 39.74, 0.8547801, 46240, 0, 35
CTUN, 46240561, 0, 0, 0, 0.322178, 0.06085349, 0.06085349, -0.31, 0, 0.19, 0, 0, -1
ATT, 46240646, 0, 0.42, 0, 0.01, 359.01, 359.03, 0, 1
RATE, 46240652, -1.897406, -0.06417602, -0.00424925, -0.08876286, 0.00420531, -0.0003381917, 0.0003741432, -0.01098, 2.481307E-06, 440.6411, -1.327229, 0
NKF1, 46240661, 0.42, 0.01, 359.02, 0.004641974, -0.026574, 0.01088003, 0, 0, 0, -0.06085349, -0.01, -0.02, 0
NKF2, 46240661, 2, 0, 0, 0, 0, 0, 0, 0, 0, 0, 0, 0, 0
NKF3, 46240661, 0, 0, 0, 0, -0.04, 0, 0, 0, 0, 0, 0
NKF4, 46240661, 0, 0, 0, 0, 0, 9.06046E-07, 0, 0, 0, 19, 229, 0, 0
NKF5, 46240661, 0, 0, 0, 0, 0.19, 0.13, 0, 0.19, 0.5, 3.509539E-05, 0.001243335, 0.002698603
NKQ1, 46240661, 0.9999284, 0.006730542, 0.004956029, -0.008561756
AHR2, 46240708, 0.4, -0.03, 359, -0.31, 0, 0, 0.9999561, 0.003492137, -0.0003688009, -0.008690355
MOTB, 46240715, 1, 1, 0, 1
RCIN, 46240720, 0, 0, 0, 0, 0, 0, 0, 0, 0, 0, 0, 0, 0, 0
RCOU, 46240725, 1101, 1101, 1101, 1101, 0, 0, 0, 0, 0, 0, 0, 0, 0, 0
VIBE, 46240735, 0.02097894, 0.02051191, 0.03328179, 0, 0, 0
CTRL, 46240741, 0.004487434, 0.000154668, 0.0002546976, 0.0002460157, 9.170461E-05
PRX, 46240773, 2, 0.59, 0, 0.57, 0, 3.37, 0, 2.25, 0, 0, 90, 0.57
IMU, 46240780, -0.001459346, -0.0003174546, -0.0001967573, 0.1026669, -0.1445771, -9.763851, 0, 0, 41.11318, 1, 1, 998, 998
IMU, 46280134, -0.0004164231, -0.0002841972, 0.001532803, 0.1021943, -0.1409036, -9.762522, 0, 0, 41.11286, 1, 1, 998, 998
RFND, 46290140, 0.2, 25, 0, 0
IMU, 46320113, -0.0006204787, -0.0008776339, -0.0007818116, 0.09853874, -0.148575, -9.778396, 0, 0, 41.11427, 1, 1, 998, 998
MAG, 46340107, 292, 517, 492, 0, 0, 0, 0, 0, 0, 1, 46340098
RFND, 46340141, 0.2, 25, 0, 0
BARO, 46340275, -0.2373604, 1001.389, 39.74, 0.1094966, 46340, 0, 35
CTUN, 46340289, 0, 0, 0, 0.322178, 0.06015484, 0.06015484, -0.23, 0, 0.19, 0, 0, -1
ATT, 46340369, 0, 0.41, 0, 0.01, 359.01, 359.03, 0, 1
RATE, 46340374, -1.885253, -0.05522261, -0.004196618, -0.07894652, -0.040157, -0.0001094003, -0.002200551, -0.04179302, 5.351816E-05, 462.8516, -0.6629944, 0
NKF1, 46340382, 0.41, 0.01, 359.02, 0.004507615, -0.02760731, 0.01142843, 0, 0, 0, -0.06015484, -0.01, -0.02, 0
NKF2, 46340382, 2, 0, 0, 0, 0, 0, 0, 0, 0, 0, 0, 0, 0
NKF3, 46340382, 0, 0, 0, 0, -0.04, 0, 0, 0, 0, 0, 0
NKF4, 46340382, 0, 0, 0, 0, 0, 9.596527E-07, 0, 0, 0, 19, 229, 0, 0
NKF5, 46340382, 0, 0, 0, 0, 0.19, 0.13, 0, 0.19, 0.5, 3.376839E-05, 0.001215115, 0.002708271
NKQ1, 46340382, 0.9999285, 0.006707238, 0.0049367, -0.008573519
AHR2, 46340427, 0.39, -0.03, 359, -0.23, 0, 0, 0.999956, 0.003479349, -0.0003781394, -0.008702465
MOTB, 46340434, 1, 1, 0, 1
RCIN, 46340438, 0, 0, 0, 0, 0, 0, 0, 0, 0, 0, 0, 0, 0, 0
RCOU, 46340444, 1101, 1101, 1101, 1101, 0, 0, 0, 0, 0, 0, 0, 0, 0, 0
VIBE, 46340453, 0.02501934, 0.02050751, 0.03453448, 0, 0, 0
CTRL, 46340459, 0.004462074, 0.0001394485, 0.000226745, 0.0002195137, 7.662342E-05
PRX, 46340491, 2, 0.59, 0, 0.57, 0, 3.44, 0, 2.27, 0, 0, 90, 0.57
IMU, 46360308, -0.0003231841, 0.0001488285, -0.0008637935, 0.09985638, -0.1320809, -9.779764, 0, 0, 41.11636, 1, 1, 998, 998
RFND, 46390071, 0.2, 25, 0, 0
IMU, 46400279, -0.0002317857, -0.0008915713, -0.0002862048, 0.09917502, -0.139336, -9.756589, 0, 0, 41.11742, 1, 1, 998, 998
MAG, 46440046, 298, 522, 493, 0, 0, 0, 0, 0, 0, 1, 46440038
RFND, 46440080, 0.2, 25, 0, 0
BARO, 46440117, 0.1215059, 1001.35, 39.72, -0.2092798, 46440, 0, 35
CTUN, 46440129, 0, 0, 0, 0.322178, 0.05941406, 0.05941406, 0.12, 0, 0.19, 0, 0, -1
ATT, 46440757, 0, 0.42, 0, 0.01, 359.01, 359.03, 0, 1
RATE, 46440764, -1.891663, 0.05202463, -0.004859603, -0.0763475, -0.04657955, 0.000106358, 0.0002760544, 0.01874401, -4.196152E-05, 488.5576, -0.9192467, 0
NKF1, 46440775, 0.42, 0.01, 359.02, 0.004426102, -0.02843381, 0.01206315, 0, 0, 0, -0.05941406, -0.01, -0.02, 0
NKF2, 46440775, 2, 0, 0, 0, 0, 0, 0, 0, 0, 0, 0, 0, 0
NKF3, 46440775, 0, 0, 0, 0, -0.04, 0, 0, 0, 0, 0, 0
NKF4, 46440775, 0, 0, 0, 0, 0, 1.036929E-06, 0, 0, 0, 19, 229, 0, 0
NKF5, 46440775, 0, 0, 0, 0, 0.19, 0.13, 0, 0.19, 0.5, 3.386534E-05, 0.001141, 0.002482997
NKQ1, 46440775, 0.9999286, 0.006719651, 0.004932425, -0.00857177
AHR2, 46440822, 0.4, -0.03, 359, 0.12, 0, 0, 0.999956, 0.003503026, -0.0003744557, -0.008701166
MOTB, 46440831, 1, 1, 0, 1
RCIN, 46440835, 0, 0, 0, 0, 0, 0, 0, 0, 0, 0, 0, 0, 0, 0
RCOU, 46440840, 1101, 1101, 1101, 1101, 0, 0, 0, 0, 0, 0, 0, 0, 0, 0
VIBE, 46440850, 0.02239052, 0.0174408, 0.0322625, 0, 0, 0
CTRL, 46440856, 0.004462975, 0.0001527298, 0.0002181777, 0.0002082529, 7.421126E-05
PRX, 46440887, 2, 0.59, 0, 0.57, 0, 2.56, 0, 2.26, 0, 0, 90, 0.57
IMU, 46440894, 0.0005688386, -0.001203664, 0.0003220264, 0.1013348, -0.1361411, -9.76806, 0, 0, 41.11823, 1, 1, 998, 998
IMU, 46480268, -0.0008705186, 0.000378049, -0.001004386, 0.1009361, -0.1434459, -9.768952, 0, 0, 41.11794, 1, 1, 998, 998
RFND, 46490081, 0.2, 25, 0, 0
IMU, 46520519, -0.0003563745, -0.000429795, -0.000485003, 0.1002673, -0.1425279, -9.784065, 0, 0, 41.11803, 1, 1, 998, 998
MAG, 46540107, 295, 517, 490, 0, 0, 0, 0, 0, 0, 1, 46540098
RFND, 46540140, 0.2, 25, 0, 0
BARO, 46540275, 0.09607446, 1001.352, 39.73, 0.4468169, 46540, 0, 35
CTUN, 46540289, 0, 0, 0, 0.322178, 0.05871567, 0.05871567, 0.09, 0, 0.19, 0, 0, -1
ATT, 46540368, 0, 0.41, 0, 0.01, 359.01, 359.02, 0, 1
RATE, 46540374, -1.878696, -0.07408639, -0.004066673, -0.08429982, -0.06161781, 0.0001805474, -0.001913297, -0.04100546, 9.66583E-05, 504.947, 0.0995636, 0
NKF1, 46540382, 0.41, 0.01, 359.01, 0.004773241, -0.02941955, 0.01246783, 0, 0, 0, -0.05871567, -0.01, -0.02, 0
NKF2, 46540382, 2, 0, 0, 0, 0, 0, 0, 0, 0, 0, 0, 0, 0
NKF3, 46540382, 0, 0, 0, 0, -0.04, 0, 0, 0, 0, 0, 0
NKF4, 46540382, 0, 0, 0, 0, 0, 1.152239E-06, 0, 0, 0, 19, 229, 0, 0
NKF5, 46540382, 0, 0, 0, 0, 0.19, 0.13, 0, 0.19, 0.5, 3.261361E-05, 0.001120165, 0.002514938
NKQ1, 46540382, 0.9999284, 0.006694961, 0.00494699, -0.008605936
AHR2, 46540426, 0.4, -0.03, 358.99, 0.09, 0, 0, 0.9999557, 0.003489743, -0.0003542955, -0.00873556
MOTB, 46540433, 1, 1, 0, 1
RCIN, 46540438, 0, 0, 0, 0, 0, 0, 0, 0, 0, 0, 0, 0, 0, 0
RCOU, 46540443, 1101, 1101, 1101, 1101, 0, 0, 0, 0, 0, 0, 0, 0, 0, 0
VIBE, 46540453, 0.0201097, 0.01866738, 0.03087048, 0, 0, 0
CTRL, 46540460, 0.004448717, 0.00016122, 0.0002319882, 0.0001956529, 7.257839E-05
PRX, 46540491, 2, 0.59, 0, 0.57, 0, 2.56, 0, 2.27, 0, 0, 90, 0.57
IMU, 46560271, 0.0001677979, -0.001062664, -0.0001725082, 0.09936189, -0.1336146, -9.786882, 0, 0, 41.11805, 1, 1, 998, 998
RFND, 46590078, 0.2, 25, 0, 0
IMU, 46600369, -0.0007041669, -0.0005613156, -0.001563066, 0.1010845, -0.1381366, -9.776021, 0, 0, 41.11809, 1, 1, 998, 998
MAG, 46639976, 294, 519, 493, 0, 0, 0, 0, 0, 0, 1, 46639914
RFND, 46640009, 0.2, 25, 0, 0
BARO, 46640821, -0.03956007, 1001.367, 39.74, 1.173557, 46640, 0, 35
CTUN, 46640840, 0, 0, 0, 0.322178, 0.05797096, 0.05797096, -0.03, 0, 0.19, 0, 0, -1
ATT, 46640994, 0, 0.41, 0, 0.02, 359, 359.02, 0, 1
RATE, 46641001, -1.869926, -0.002417915, -0.004498033, -0.09078432, 0.08430174, -0.0007821902, 0.0003132123, -0.007844645, 0.0001884683, 462.153, 2.272797, 0
NKF1, 46641010, 0.41, 0.02, 359.01, 0.005064213, -0.03029749, 0.01141118, 0, 0, 0, -0.05797096, -0.01, -0.02, 0
NKF2, 46641010, 2, 0, 0, 0, 0, 0, 0, 0, 0, 0, 0, 0, 0
NKF3, 46641010, 0, 0, 0, 0, -0.04, 0, 0, 0, 0, 0, 0
NKF4, 46641010, 0, 0, 0, 0, 0, 1.259836E-06, 0, 0, 0, 19, 229, 0, 0
NKF5, 46641010, 0, 0, 0, 0, 0.19, 0.13, 0, 0.19, 0.5, 3.314463E-05, 0.00104181, 0.002270156
NKQ1, 46641010, 0.9999279, 0.006680828, 0.004959934, -0.008657511
AHR2, 46641061, 0.39, -0.03, 358.99, -0.03, 0, 0, 0.9999552, 0.003486725, -0.0003382885, -0.008787409
MOTB, 46641068, 1, 1, 0, 1
RCIN, 46641073, 0, 0, 0, 0, 0, 0, 0, 0, 0, 0, 0, 0, 0, 0
RCOU, 46641078, 1101, 1101, 1101, 1101, 0, 0, 0, 0, 0, 0, 0, 0, 0, 0
VIBE, 46641088, 0.02069465, 0.01800563, 0.03114173, 0, 0, 0
CTRL, 46641095, 0.004422404, 0.0001580362, 0.0002296731, 0.0002104773, 0.0001022145
PRX, 46641126, 2, 0.59, 0, 0.57, 0, 1.94, 0, 2.27, 0, 0, 90, 0.57
IMU, 46641133, -0.0003812428, 0.001080831, -0.0001420312, 0.09028944, -0.1342769, -9.800126, 0, 0, 41.11816, 1, 1, 998, 998
IMU, 46680061, -0.0003763029, 0.001175517, 0.000196478, 0.1007493, -0.1355789, -9.774796, 0, 0, 41.11714, 1, 1, 998, 998
RFND, 46689857, 0.2, 25, 0, 0
IMU, 46719978, -0.001706584, 8.077605E-06, -0.001189346, 0.1076209, -0.1316886, -9.762334, 0, 0, 41.11565, 1, 1, 998, 998
MAG, 46739899, 295, 520, 489, 0, 0, 0, 0, 0, 0, 1, 46739891
RFND, 46739981, 0.2, 25, 0, 0
BARO, 46740018, -0.1017259, 1001.374, 39.74, 0.9201249, 46740, 0, 35
CTUN, 46740029, 0, 0, 0, 0.322178, 0.05746347, 0.05746347, -0.1, 0, 0.19, 0, 0, -1
ATT, 46740098, 0, 0.41, 0, 0.02, 359, 359.01, 0, 1
RATE, 46740103, -1.860518, 0.01050711, -0.004574837, -0.1077071, 0.02995685, -0.0003051367, 0.0003527797, -0.04950054, 0.000115772, 465.7111, 1.896095, 0
NKF1, 46740111, 0.41, 0.02, 359, 0.005455692, -0.0309729, 0.01149904, 0, 0, 0, -0.05746347, -0.01, -0.02, 0
NKF2, 46740111, 2, 0, 0, 0, 0, 0, 0, 0, 0, 0, 0, 0, 0
NKF3, 46740111, 0, 0, 0, 0, -0.05, 0, 0, 0, 0, 0, 0
NKF4, 46740111, 0, 0, 0, 0, 0, 1.427106E-06, 0, 0, 0, 19, 229, 0, 0
NKF5, 46740111, 0, 0, 0, 0, 0.19, 0.13, 0, 0.19, 0.5, 3.182982E-05, 0.001027005, 0.002330372
NKQ1, 46740111, 0.9999277, 0.006661881, 0.004992098, -0.008686001
AHR2, 46740155, 0.39, -0.03, 358.98, -0.09999999, 0, 0, 0.9999551, 0.003477177, -0.0003018361, -0.008816096
MOTB, 46740239, 1, 1, 0, 1
RCIN, 46740243, 0, 0, 0, 0, 0, 0, 0, 0, 0, 0, 0, 0, 0, 0
RCOU, 46740249, 1101, 1101, 1101, 1101, 0, 0, 0, 0, 0, 0, 0, 0, 0, 0
VIBE, 46740258, 0.02355683, 0.02207683, 0.03663319, 0, 0, 0
CTRL, 46740264, 0.004393362, 0.0001748505, 0.0002857934, 0.0002012604, 0.0001102645
PRX, 46740295, 2, 0.59, 0, 0.57, 0, 1.55, 0, 2.28, 0, 0, 90, 0.57
IMU, 46760736, -0.001721893, -0.0008122802, 0.0001234825, 0.09836452, -0.1321505, -9.755552, 0, 0, 41.11613, 1, 1, 998, 998
RFND, 46790393, 0.2, 25, 0, 0
IMU, 46800250, -0.0005225813, -0.001309245, -0.001342175, 0.09974781, -0.1341383, -9.783339, 0, 0, 41.1173, 1, 1, 998, 998
EV, 46812209, 57
MAG, 46840683, 294, 520, 493, 0, 0, 0, 0, 0, 0, 1, 46840674
RFND, 46840715, 0.2, 25, 0, 0
BARO, 46840753, -0.06216583, 1001.37, 39.74, -0.002649096, 46840, 0, 35
CTUN, 46840766, 0, 0, 0, 0.322178, 0.05685504, 0.05685504, -0.06, 0, 0.19, 0, 0, -1
DU32, 46840806, 7, 33580536
ATT, 46840907, 0, 0.41, 0, 0.02, 359, 359.01, 0, 1
RATE, 46840914, -1.852227, 0.0002789739, -0.00427045, -0.1031301, 0.001442344, -0.0003834747, 0.0003676352, -0.006704158, 0.0001107474, 487.5017, -1.64547, 0
NKF1, 46841008, 0.41, 0.02, 359, 0.005802763, -0.03197668, 0.01203708, 0, 0, 0, -0.05685504, -0.01, -0.02, 0
NKF2, 46841008, 2, 0, 0, 0, 0, 0, 0, 0, 0, 0, 0, 0, 0
NKF3, 46841008, 0, 0, 0, 0, -0.05, 0, 0, 0, 0, 0, 0
NKF4, 46841008, 0, 0, 0, 0, 0, 1.559401E-06, 0, 0, 0, 19, 229, 0, 0
NKF5, 46841008, 0, 0, 0, 0, 0.19, 0.13, 0, 0.19, 0.5, 3.043154E-05, 0.001089542, 0.002627156
NKQ1, 46841008, 0.9999276, 0.00664645, 0.004983834, -0.00870944
AHR2, 46841055, 0.39, -0.03, 358.98, -0.06, 0, 0, 0.9999548, 0.003469703, -0.0003045814, -0.008839863
MOTB, 46841063, 1, 1, 0, 1
RCIN, 46841067, 0, 0, 0, 0, 0, 0, 0, 0, 0, 0, 0, 0, 0, 0
RCOU, 46841072, 1107, 1107, 1107, 1107, 0, 0, 0, 0, 0, 0, 0, 0, 0, 0
VIBE, 46841081, 0.02104924, 0.01924398, 0.03816669, 0, 0, 0
CTRL, 46841087, 0.00438411, 0.0001672316, 0.0002617076, 0.0001940501, 0.0001098498
PRX, 46841119, 2, 0.59, 0, 0.57, 0, 1.27, 0, 2.27, 0, 0, 90, 0.57
IMU, 46841127, -0.0003348576, -0.0003660017, -0.0001221366, 0.1022353, -0.1429327, -9.760635, 0, 0, 41.11835, 1, 1, 998, 998
IMU, 46880130, -0.0006874022, -0.001271078, -0.0005767706, 0.08358812, -0.1472491, -9.776781, 0, 0, 41.1198, 1, 1, 998, 998
RFND, 46890895, 0.2, 25, 0, 0
IMU, 46920310, -0.0006289082, -0.0004982435, -0.001854354, 0.09375292, -0.139889, -9.757144, 0, 0, 41.1207, 1, 1, 998, 998
MAG, 46940037, 298, 519, 498, 0, 0, 0, 0, 0, 0, 1, 46940029
RFND, 46940072, 0.2, 25, 0, 0
BARO, 46940109, -0.1243317, 1001.377, 39.75, -0.5033313, 46940, 0, 35
CTUN, 46940121, 0, 0, 0, 0.322178, 0.05637896, 0.05637896, -0.12, 0, 0.19, 0, 0, -1
ATT, 46940433, 0, 0.4, 0, 0.02, 358.99, 359.01, 0, 1
RATE, 46940441, -1.839607, -0.06486517, -0.004059271, -0.09801746, -0.05405066, 0.0001685858, 0.0003464644, -0.07502369, 0.0001540827, 506.4693, 0.4422188, 0
NKF1, 46940450, 0.4, 0.02, 359, 0.005210441, -0.03339585, 0.01250541, 0, 0, 0, -0.05637896, -0.01, -0.02, 0
NKF2, 46940450, 2, 0, 0, 0, 0, 0, 0, 0, 0, 0, 0, 0, 0
NKF3, 46940450, 0, 0, 0, 0, -0.05, 0, 0, 0, 0, 0, 0
NKF4, 46940450, 0, 0, 0, 0, 0, 1.77452E-06, 0, 0, 0, 19, 229, 0, 0
NKF5, 46940450, 0, 0, 0, 0, 0.19, 0.13, 0, 0.19, 0.5, 3.119243E-05, 0.0009411819, 0.002152866
NKQ1, 46940450, 0.9999275, 0.006622938, 0.004972963, -0.00874859
AHR2, 46940498, 0.39, -0.03, 358.98, -0.12, 0, 0, 0.9999546, 0.00345518, -0.0003112507, -0.00887931
MOTB, 46940505, 1, 1, 0, 1
RCIN, 46940510, 0, 0, 0, 0, 0, 0, 0, 0, 0, 0, 0, 0, 0, 0
RCOU, 46940516, 1131, 1131, 1131, 1131, 0, 0, 0, 0, 0, 0, 0, 0, 0, 0
VIBE, 46940525, 0.02181257, 0.01852451, 0.03502562, 0, 0, 0
CTRL, 46940532, 0.004357504, 0.0001602152, 0.000263094, 0.000208864, 0.0001066088
PRX, 46940563, 2, 0.59, 0, 0.57, 0, 1.27, 0, 2.27, 0, 0, 90, 0.57
IMU, 46960792, -0.001465572, -0.001544996, -0.0009729363, 0.1034354, -0.1395504, -9.77738, 0, 0, 41.1223, 1, 1, 998, 998
RFND, 46989897, 0.2, 25, 0, 0
IMU, 47000324, -0.0009700253, -0.0006907571, -0.001863776, 0.1020736, -0.1386457, -9.777208, 0, 0, 41.12347, 1, 1, 998, 998
MAG, 47040058, 296, 520, 487, 0, 0, 0, 0, 0, 0, 1, 47040049
RFND, 47040089, 0.2, 25, 0, 0
BARO, 47040126, 0.1073773, 1001.351, 39.73, -0.3152443, 47040, 0, 35
CTUN, 47040138, 0, 0, 0, 0.322178, 0.05584662, 0.05584662, 0.1, 0, 0.19, 0, 0, -1
ATT, 47040574, 0, 0.4, 0, 0.02, 358.99, 359, 0, 1
RATE, 47040585, -1.830873, 0.04958863, -0.004788166, -0.09958843, 0.02746729, 0.0001778559, 0.0003508226, 0.01095108, 0.0001469203, 509.0141, -0.7311821, 0
NKF1, 47040594, 0.4, 0.02, 358.99, 0.005781048, -0.03442165, 0.01256825, 0, 0, 0, -0.05584662, -0.01, -0.02, 0
NKF2, 47040594, 2, 0, 0, 0, 0, 0, 0, 0, 0, 0, 0, 0, 0
NKF3, 47040594, 0, 0, 0, 0, -0.06, 0, 0, 0, 0, 0, 0
NKF4, 47040594, 0, 0, 0, 0, 0, 1.957699E-06, 0, 0, 0, 19, 229, 0, 0
NKF5, 47040594, 0, 0, 0, 0, 0.19, 0.13, 0, 0.19, 0.5, 2.944324E-05, 0.001011366, 0.002473297
NKQ1, 47040594, 0.9999272, 0.006605358, 0.004977004, -0.008794867
AHR2, 47040641, 0.39, -0.03, 358.97, 0.09999999, 0, 0, 0.9999542, 0.003448219, -0.0003038954, -0.008925864
MOTB, 47040649, 1, 1, 0, 1
RCIN, 47040653, 0, 0, 0, 0, 0, 0, 0, 0, 0, 0, 0, 0, 0, 0
RCOU, 47040658, 1155, 1155, 1155, 1155, 0, 0, 0, 0, 0, 0, 0, 0, 0, 0
VIBE, 47040668, 0.01997848, 0.01836509, 0.03444654, 0, 0, 0
CTRL, 47040674, 0.004322312, 0.0001683288, 0.000281244, 0.0002181374, 0.0001356422
PRX, 47040706, 2, 0.59, 0, 0.57, 0, 1.1, 0, 2.26, 0, 0, 90, 0.57
IMU, 47040713, 0.0005259021, 8.84654E-05, 0.0001860071, 0.09833095, -0.1344127, -9.769936, 0, 0, 41.1236, 1, 1, 998, 998
IMU, 47080093, -0.0004447417, -0.001527777, -0.001633257, 0.09178492, -0.1381399, -9.75478, 0, 0, 41.12357, 1, 1, 998, 998
RFND, 47089880, 0.2, 25, 0, 0
IMU, 47120041, -0.0001866364, 0.0005120587, -0.0002587864, 0.1016808, -0.1382788, -9.779492, 0, 0, 41.12374, 1, 1, 998, 998
MAG, 47140118, 294, 523, 494, 0, 0, 0, 0, 0, 0, 1, 47140109
RFND, 47140152, 0.2, 25, 0, 0
BARO, 47140291, -0.01695432, 1001.365, 39.75, 0.1130288, 47140, 0, 35
CTUN, 47140304, 0, 0, 0, 0.322178, 0.05535429, 0.05535429, -0.01, 0, 0.19, 0, 0, -1
ATT, 47140382, 0, 0.4, 0, 0.02, 358.98, 358.99, 0, 1
RATE, 47140388, -1.829011, 0.01891975, -0.004202574, -0.09379391, 0.04645564, -0.0003182964, 0.0003281905, -0.04035161, 0.000133414, 523.267, 0.6211281, 0
NKF1, 47140396, 0.4, 0.02, 358.98, 0.005612923, -0.03532661, 0.01292017, 0, 0, 0, -0.05535429, -0.01, -0.02, 0
NKF2, 47140396, 2, 0, 0, 0, 0, 0, 0, 0, 0, 0, 0, 0, 0
NKF3, 47140396, 0, 0, 0, 0, -0.06, 0, 0, 0, 0, 0, 0
NKF4, 47140396, 0, 0, 0, 0, 0, 2.190962E-06, 0, 0, 0, 19, 229, 0, 0
NKF5, 47140396, 0, 0, 0, 0, 0.19, 0.13, 0, 0.19, 0.5, 3.035683E-05, 0.0008535254, 0.001959923
NKQ1, 47140396, 0.9999267, 0.006600625, 0.004964651, -0.008852754
AHR2, 47140441, 0.39, -0.03, 358.97, -0.01, 0, 0, 0.9999536, 0.003453314, -0.0003127328, -0.008984135
MOTB, 47140448, 1, 1, 0, 1
RCIN, 47140452, 0, 0, 0, 0, 0, 0, 0, 0, 0, 0, 0, 0, 0, 0
RCOU, 47140458, 1179, 1179, 1179, 1179, 0, 0, 0, 0, 0, 0, 0, 0, 0, 0
VIBE, 47140466, 0.02994191, 0.03043423, 0.03673002, 0, 0, 0
CTRL, 47140472, 0.00432926, 0.0001620731, 0.0002620469, 0.0002448296, 0.0001590268
PRX, 47140504, 2, 0.59, 0, 0.57, 0, 1.1, 0, 2.26, 0, 0, 90, 0.57
IMU, 47160147, -0.0006143363, -5.193672E-05, -0.0005192808, 0.09461445, -0.1344886, -9.785639, 0, 0, 41.12508, 1, 1, 998, 998
RFND, 47190076, 0.2, 25, 0, 0
IMU, 47200149, 8.374051E-05, 0.001783204, -0.002497002, 0.1624765, -0.1210207, -9.853607, 0, 0, 41.12671, 1, 1, 998, 998
MAG, 47240085, 294, 525, 497, 0, 0, 0, 0, 0, 0, 1, 47240077
RFND, 47240119, 0.2, 25, 0, 0
BARO, 47240349, -0.02260576, 1001.365, 39.75, 0.3761739, 47240, 0, 35
CTUN, 47240365, 0, 0, 0, 0.322178, 0.05489843, 0.05489843, -0.02, 0, 0.19, 0, 0, -1
ATT, 47240495, 0, 0.41, 0, 0.03, 358.97, 358.99, 0, 1
RATE, 47240502, -1.849534, -0.05597327, -0.004042251, -0.1436139, 0.1261274, -0.001629066, 0.0005073168, -0.2021782, 0.0001553413, 485.0625, 0.7458687, 0
NKF1, 47240510, 0.41, 0.03, 358.98, 0.004533149, -0.03696991, 0.01197685, 0, 0, 0, -0.05489843, -0.01, -0.02, 0
NKF2, 47240510, 2, 0, 0, 0, 0, 0, 0, 0, 0, 0, 0, 0, 0
NKF3, 47240510, 0, 0, 0, 0, -0.07, 0.01, 0, 0, 0, 0, 0
NKF4, 47240510, 0, 0, 0, 0, 0, 2.428647E-06, 0, 0, 0, 19, 229, 0, 0
NKF5, 47240510, 0, 0, 0, 0, 0.19, 0.13, 0, 0.19, 0.5, 2.825779E-05, 0.0009234789, 0.002294805
NKQ1, 47240510, 0.9999255, 0.006643095, 0.005058345, -0.008912586
AHR2, 47240557, 0.4, -0.02, 358.96, -0.02, 0, 0, 0.9999529, 0.003504678, -0.000215684, -0.009044248
MOTB, 47240564, 1, 1, 0, 1
RCIN, 47240567, 0, 0, 0, 0, 0, 0, 0, 0, 0, 0, 0, 0, 0, 0
RCOU, 47240573, 1202, 1202, 1202, 1202, 0, 0, 0, 0, 0, 0, 0, 0, 0, 0
VIBE, 47240582, 0.2695889, 0.2988738, 0.2484239, 0, 0, 0
CTRL, 47240588, 0.00433895, 0.0002561518, 0.0003768393, 0.0004300118, 0.0002563231
PRX, 47240620, 2, 0.59, 0, 0.57, 0, 0.97, 0, 2.26, 0, 0, 90, 0.57
IMU, 47240627, -0.001316397, 0.001810624, -0.003533801, 0.1101017, -0.1717214, -9.784098, 0, 0, 41.12801, 1, 1, 998, 998
IMU, 47280261, 0.0002204609, 0.00158145, -0.00700714, 0.1851302, -0.1696323, -9.749075, 0, 0, 41.1293, 1, 1, 998, 998
RFND, 47290053, 0.2, 25, 0, 0
IMU, 47320086, -0.003872896, -0.001436503, 0.006904675, 0.09700911, -0.1415295, -9.786591, 0, 0, 41.1298, 1, 1, 998, 998
MAG, 47339979, 288, 521, 491, 0, 0, 0, 0, 0, 0, 1, 47339909
RFND, 47340015, 0.2, 25, 0, 0
BARO, 47340050, -0.01695432, 1001.365, 39.75, 0.2437183, 47340, 0, 35
CTUN, 47340062, 0, 0, 0, 0.322178, 0.05442737, 0.05442737, -0.01, 0, 0.19, 0, 0, -1
ATT, 47340469, 0, 0.41, 0, 0.04, 358.97, 358.99, 0, 1
RATE, 47340477, -1.844369, 0.1691599, -0.005508261, -0.1993219, 0.2746304, -0.002695155, 0.0006994975, -0.5225468, -4.094945E-05, 499.3169, -0.9126663, 0
NKF1, 47340487, 0.41, 0.04, 358.98, 0.007856361, -0.03792145, 0.01232881, 0, 0, 0, -0.05442738, -0.01, -0.02, 0
NKF2, 47340487, 2, 0, 0, 0, 0, 0, 0, 0, 0, 0, 0, 0, 0
NKF3, 47340487, 0, 0, 0, 0, -0.07, 0.01, 0, 0, 0, 0, 0
NKF4, 47340487, 0, 0, 0, 0, 0, 2.679528E-06, 0, 0, 0, 19, 229, 0, 0
NKF5, 47340487, 0, 0, 0, 0, 0.18, 0.13, 0, 0.19, 0.5, 2.951724E-05, 0.0007644346, 0.001757797
NKQ1, 47340487, 0.9999248, 0.006635981, 0.005162131, -0.008923085
AHR2, 47340534, 0.4, 0, 358.96, -0.01, 0, 0, 0.9999529, 0.003512311, -0.000104619, -0.0090548
MOTB, 47340542, 1, 1, 0, 1
RCIN, 47340546, 0, 0, 0, 0, 0, 0, 0, 0, 0, 0, 0, 0, 0, 0
RCOU, 47340551, 1230, 1225, 1221, 1235, 0, 0, 0, 0, 0, 0, 0, 0, 0, 0
VIBE, 47340560, 0.449587, 0.4537655, 0.3920735, 0, 0, 0
CTRL, 47340567, 0.004343786, 0.0004713416, 0.0004930162, 0.0005081404, 0.0002342518
PRX, 47340599, 2, 0.59, 0, 0.57, 0, 0.97, 0, 2.26, 0, 0, 90, 0.57
IMU, 47360036, 0.001714166, 0.002582744, 0.009137402, 0.1209673, -0.1534435, -9.793417, 0, 0, 41.12985, 1, 1, 998, 998
RFND, 47389893, 0.2, 25, 0, 0
IMU, 47400010, 0.007183636, 0.008463565, -0.009934634, 0.1402857, -0.1360078, -9.797596, 0, 0, 41.12967, 1, 1, 998, 998
MAG, 47440114, 288, 517, 495, 0, 0, 0, 0, 0, 0, 1, 47440106
RFND, 47440148, 0.2, 25, 0, 0
BARO, 47440670, -0.01130288, 1001.364, 39.75, -0.05298222, 47440, 0, 35
CTUN, 47440689, 0, 0, 0, 0.322178, 0.05412873, 0.05412873, -0.01, 0, 0.19, 0, 0, -1
ATT, 47440822, 0, 0.41, 0, 0.05, 358.97, 358.99, 0, 1
RATE, 47440828, -1.871331, 0.1002904, -0.007393898, -0.2728817, 0.3985557, -0.003797399, 0.0009782879, -0.4803424, 0.0001346922, 516.2596, -2.56443, 0
NKF1, 47440836, 0.41, 0.05, 358.98, 0.007151092, -0.03851993, 0.01274715, 0, 0, 0, -0.05412873, -0.01, -0.02, 0
NKF2, 47440836, 2, 0, 0, 0, 0, 0, 0, 0, 0, 0, 0, 0, 0
NKF3, 47440836, 0, 0, 0, 0, -0.07, 0.01, 0, 0, 0, 0, 0
NKF4, 47440836, 0, 0, 0, 0, 0, 2.979654E-06, 0, 0, 0, 19, 229, 0, 0
NKF5, 47440836, 0, 0, 0, 0, 0.18, 0.13, 0, 0.19, 0.5, 2.696507E-05, 0.0008340612, 0.002108403
NKQ1, 47440836, 0.9999236, 0.006686393, 0.005304349, -0.008935998
AHR2, 47440884, 0.41, 0, 358.96, -0.01, 0, 0, 0.9999524, 0.003583631, 4.954802E-05, -0.009067913
MOTB, 47440891, 1, 1, 0, 1
RCIN, 47440895, 0, 0, 0, 0, 0, 0, 0, 0, 0, 0, 0, 0, 0, 0
RCOU, 47440901, 1234, 1228, 1221, 1240, 0, 0, 0, 0, 0, 0, 0, 0, 0, 0
VIBE, 47440910, 0.3877078, 0.3601884, 0.4033873, 0, 0, 0
CTRL, 47440917, 0.004375465, 0.001024931, 0.0007384318, 0.0009668635, 0.0002564724
PRX, 47441020, 2, 0.59, 0, 0.57, 0, 2.43, 0, 2.27, 0, 0, 90, 0.57
IMU, 47441027, 0.001410323, 0.00656482, -0.008388692, 0.2192652, -0.07434303, -9.75105, 0, 0, 41.12959, 1, 1, 998, 998
IMU, 47480540, -0.01097264, -0.0009634358, -0.0018685, 0.1066159, -0.1092045, -9.796716, 0, 0, 41.13057, 1, 1, 998, 998
RFND, 47490044, 0.2, 25, 0, 0
IMU, 47520260, -0.004613723, -0.00705875, 0.004985765, 0.04352634, -0.1356659, -9.794296, 0, 0, 41.13279, 1, 1, 998, 998
MAG, 47540060, 289, 523, 493, 0, 0, 0, 0, 0, 0, 1, 47540052
RFND, 47540095, 0.2, 25, 0, 0
BARO, 47540133, -0.1864975, 1001.384, 39.76, -0.1677771, 47540, 0, 35
CTUN, 47540145, 0, 0, 0, 0.322178, 0.05370866, 0.05370866, -0.18, 0, 0.19, 0, 0, -1
ATT, 47540332, 0, 0.41, 0, 0.05, 358.97, 358.98, 0, 1
RATE, 47540338, -1.846828, -0.1770881, -0.0039857, -0.2333712, 0.06470554, -0.003123527, 0.0008237615, -0.3951918, 3.029202E-05, 514.841, -0.7723808, 0
NKF1, 47540346, 0.41, 0.05, 358.97, 0.007785696, -0.03932247, 0.01271212, 0, 0, 0, -0.05370867, -0.01, -0.02, 0
NKF2, 47540346, 2, 0, 0, 0, 0, 0, 0, 0, 0, 0, 0, 0, 0
NKF3, 47540346, 0, 0, 0, 0, -0.07, 0.01, 0, 0, 0, 0, 0
NKF4, 47540346, 0, 0, 0, 0, 0, 3.245153E-06, 0, 0, 0, 19, 229, 0, 0
NKF5, 47540346, 0, 0, 0, 0, 0.18, 0.13, 0, 0.19, 0.5, 2.85356E-05, 0.0006784347, 0.001553649
NKQ1, 47540346, 0.9999242, 0.00663799, 0.005229356, -0.008949328
AHR2, 47540391, 0.4, 0, 358.95, -0.18, 0, 0, 0.9999524, 0.003555177, -1.65944E-05, -0.009081644
MOTB, 47540399, 1, 1, 0, 1
RCIN, 47540403, 0, 0, 0, 0, 0, 0, 0, 0, 0, 0, 0, 0, 0, 0
RCOU, 47540409, 1228, 1226, 1221, 1233, 0, 0, 0, 0, 0, 0, 0, 0, 0, 0
VIBE, 47540418, 0.3563446, 0.3257125, 0.3760425, 0, 0, 0
CTRL, 47540424, 0.004452373, 0.001743215, 0.0007366638, 0.001055423, 0.0002177166
PRX, 47540455, 2, 0.59, 0, 0.57, 0, 2.82, 0, 2.27, 0, 0, 90, 0.57
IMU, 47560729, 0.00909427, -0.001026859, 0.005479866, 0.0831468, -0.1714964, -9.781034, 0, 0, 41.13483, 1, 1, 998, 998
RFND, 47590061, 0.2, 25, 0, 0
IMU, 47600132, 0.007617855, 0.0009159976, 0.001176076, 0.171039, -0.1085507, -9.798943, 0, 0, 41.13799, 1, 1, 998, 998
MAG, 47640261, 286, 522, 492, 0, 0, 0, 0, 0, 0, 1, 47640252
RFND, 47640296, 0.2, 25, 0, 0
BARO, 47640333, -0.1017259, 1001.374, 39.75, -0.259613, 47640, 0, 35
CTUN, 47640345, 0, 0, 0, 0.322178, 0.05361365, 0.05361365, -0.1, 0, 0.19, 0, 0, -1
ATT, 47640424, 0, 0.4, 0, 0.04, 358.97, 358.98, 0, 1
RATE, 47640430, -1.839417, -0.1786082, -0.00409515, -0.1848005, -0.3141411, -0.00033173, 0.000649907, -0.2911844, 0.0001858551, 491.2241, -0.1583099, 0
NKF1, 47640437, 0.4, 0.04, 358.97, 0.009244763, -0.04049666, 0.01212899, 0, 0, 0, -0.05361366, -0.01, -0.02, 0
NKF2, 47640437, 2, 0, 0, 0, 0, 0, 0, 0, 0, 0, 0, 0, 0
NKF3, 47640437, 0, 0, 0, 0, -0.08, 0.01, 0, 0, 0, 0, 0
NKF4, 47640437, 0, 0, 0, 0, 0, 3.612906E-06, 0, 0, 0, 19, 229, 0, 0
NKF5, 47640437, 0, 0, 0, 0, 0.18, 0.13, 0, 0.19, 0.5, 2.558456E-05, 0.0007400535, 0.001921457
NKQ1, 47640437, 0.9999249, 0.006622123, 0.005136783, -0.008943478
AHR2, 47640483, 0.4, 0, 358.95, -0.09999999, 0, 0, 0.9999525, 0.003558589, -0.0001033247, -0.009076369
MOTB, 47640490, 1, 1, 0, 1
RCIN, 47640494, 0, 0, 0, 0, 0, 0, 0, 0, 0, 0, 0, 0, 0, 0
RCOU, 47640500, 1228, 1221, 1221, 1228, 0, 0, 0, 0, 0, 0, 0, 0, 0, 0
VIBE, 47640509, 0.3298812, 0.3457259, 0.4052253, 0, 0, 0
CTRL, 47640516, 0.004448128, 0.00189544, 0.0007709666, 0.001297483, 0.0001908499
PRX, 47640548, 2, 0.59, 0, 0.57, 0, 3.25, 0, 2.26, 0, 0, 90, 0.57
IMU, 47640555, -0.003457295, -0.005873863, -0.005087262, 0.2039779, -0.1040488, -9.774916, 0, 0, 41.14124, 1, 1, 998, 998
IMU, 47680150, -0.009305378, -0.002986448, -0.002609454, 0.1740215, -0.1368006, -9.780246, 0, 0, 41.14304, 1, 1, 998, 998
RFND, 47690069, 0.2, 25, 0, 0
IMU, 47720124, -0.0005557613, 0.005264527, -0.005330746, 0.07911514, -0.168388, -9.720007, 0, 0, 41.14177, 1, 1, 998, 998
MAG, 47740084, 290, 522, 496, 0, 0, 0, 0, 0, 0, 1, 47740076
RFND, 47740119, 0.2, 25, 0, 0
BARO, 47740156, -0.1864975, 1001.384, 39.75, -0.4167936, 47740, 0, 35
CTUN, 47740552, 0, 0, 0, 0.322178, 0.0532305, 0.0532305, -0.18, 0, 0.19, 0, 0, -1
ATT, 47740638, 0, 0.4, 0, 0.03, 358.96, 358.98, 0, 1
RATE, 47740644, -1.816929, -0.4245581, -0.001960247, -0.1453376, -0.5883662, 0.003105092, 0.0005102823, 0.02436296, 0.0001195536, 519.3552, 0.6731033, 0
NKF1, 47740651, 0.4, 0.03, 358.97, 0.008869743, -0.04200537, 0.01282359, 0, 0, 0, -0.0532305, -0.01, -0.02, 0
NKF2, 47740651, 2, 0, 0, 0, 0, 0, 0, 0, 0, 0, 0, 0, 0
NKF3, 47740651, 0, 0, 0, 0, -0.08, 0.01, 0, 0, 0, 0, 0
NKF4, 47740651, 0, 0, 0, 0, 0, 3.896906E-06, 0, 0, 0, 19, 229, 0, 0
NKF5, 47740651, 0, 0, 0, 0, 0.18, 0.13, 0, 0.19, 0.5, 2.23012E-05, 0.0009578743, 0.002636734
NKQ1, 47740651, 0.999925, 0.006577987, 0.005064622, -0.009007711
AHR2, 47740699, 0.4, -0.01, 358.95, -0.18, 0, 0, 0.999952, 0.003530062, -0.0001769842, -0.009140981
MOTB, 47740706, 1, 1, 0, 1
RCIN, 47740710, 0, 0, 0, 0, 0, 0, 0, 0, 0, 0, 0, 0, 0, 0
RCOU, 47740716, 1230, 1221, 1226, 1224, 0, 0, 0, 0, 0, 0, 0, 0, 0, 0
VIBE, 47740725, 0.3371288, 0.4089735, 0.3749426, 0, 0, 0
CTRL, 47740732, 0.004424033, 0.001853113, 0.0007929343, 0.001471454, 0.000173872
PRX, 47740764, 2, 0.59, 0, 0.57, 0, 3.36, 0, 2.26, 0, 0, 90, 0.57
IMU, 47760846, 0.005713554, 0.003176123, 0.001053254, 0.03839649, -0.142, -9.76235, 0, 0, 41.13807, 1, 1, 998, 998
RFND, 47790131, 0.2, 25, 0, 0
IMU, 47800308, 0.0007944101, -0.005442121, 0.008346399, 0.1698993, -0.1271617, -9.711039, 0, 0, 41.13249, 1, 1, 998, 998
MAG, 47840087, 291, 518, 493, 0, 0, 0, 0, 0, 0, 1, 47840078
RFND, 47840122, 0.2, 25, 0, 0
BARO, 47840421, -0.2825719, 1001.394, 39.75, -0.4344544, 47840, 0, 35
CTUN, 47840437, 0, 0, 0, 0.322178, 0.05290622, 0.05290622, -0.28, 0, 0.19, 0, 0, -1
DU32, 47840481, 7, 33580536
ATT, 47840635, 0, 0.4, 0, 0.02, 358.96, 358.97, 0, 1
RATE, 47840640, -1.825057, -0.2580434, -0.003241895, -0.1237844, 0.008392612, 0.0002388588, 0.0004365663, -0.000271513, -2.133594E-05, 651.1656, 2.903843, 0
NKF1, 47840648, 0.4, 0.02, 358.96, 0.006505454, -0.04314042, 0.01607816, 0, 0, 0, -0.05290622, -0.01, -0.02, 0
NKF2, 47840648, 2, 0, 0, 0, 0, 0, 0, 0, 0, 0, 0, 0, 0
NKF3, 47840648, 0, 0, 0, 0, -0.08, 0.01, 0, 0, 0, 0, 0
NKF4, 47840648, 0, 0, 0, 0, 0, 4.331796E-06, 0, 0, 0, 19, 229, 0, 0
NKF5, 47840648, 0, 0, 0, 0, 0.18, 0.13, 0, 0.19, 0.5, 2.412877E-05, 0.0006406331, 0.001671717
NKQ1, 47840648, 0.9999248, 0.006594846, 0.005022195, -0.009043511
AHR2, 47840695, 0.4, -0.02, 358.94, -0.28, 0, 0, 0.9999515, 0.003559245, -0.0002286578, -0.009177303
MOTB, 47840703, 1, 1, 0, 1
RCIN, 47840707, 0, 0, 0, 0, 0, 0, 0, 0, 0, 0, 0, 0, 0, 0
RCOU, 47840713, 1227, 1221, 1221, 1226, 0, 0, 0, 0, 0, 0, 0, 0, 0, 0
VIBE, 47840722, 0.3424228, 0.3932391, 0.3516105, 0, 0, 0
CTRL, 47840728, 0.004383984, 0.001737222, 0.0007210947, 0.001339618, 0.0001717887
PRX, 47840760, 2, 0.59, 0, 0.57, 0, 3.49, 0, 2.26, 0, 0, 90, 0.57
IMU, 47840767, -0.004843642, -0.0002443703, -9.876647E-06, 0.02741916, -0.1535648, -9.806709, 0, 0, 41.12468, 1, 1, 998, 998
IMU, 47880563, 0.001523989, -0.00179355, -0.001723589, -0.04881077, -0.1817705, -9.708517, 0, 0, 41.11351, 1, 1, 998, 998
RFND, 47890049, 0.2, 25, 0, 0
IMU, 47920132, 0.002578374, 0.002152666, 0.004743058, 0.1720066, -0.1254722, -9.773203, 0, 0, 41.09859, 1, 1, 998, 998
MAG, 47940842, 294, 524, 498, 0, 0, 0, 0, 0, 0, 1, 47940833
RFND, 47940875, 0.2, 25, 0, 0
BARO, 47940912, -0.2712691, 1001.393, 39.73, -0.4185597, 47940, 0, 35
CTUN, 47941008, 0, 0, 0, 0.322178, 0.05217399, 0.05217399, -0.27, 0, 0.19, 0, 0, -1
ATT, 47941186, 0, 0.41, 0, 0.02, 358.97, 358.98, 0, 1
RATE, 47941192, -1.848844, -0.01044986, -0.005171241, -0.1234017, -0.09806973, 0.002543809, 0.0004408515, 0.02704534, -4.764365E-05, 779.2001, -4.031086, 0
NKF1, 47941200, 0.41, 0.02, 358.97, 0.006423329, -0.0450173, 0.01923951, 0, 0, 0, -0.05217399, -0.01, -0.02, 0
NKF2, 47941200, 2, 0, 0, 0, 0, 0, 0, 0, 0, 0, 0, 0, 0
NKF3, 47941200, 0, 0, 0, 0, -0.09, 0.01, 0, 0, 0, 0, 0
NKF4, 47941200, 0, 0, 0, 0, 0, 4.697347E-06, 0, 0, 0, 19, 229, 0, 0
NKF5, 47941200, 0, 0, 0, 0, 0.18, 0.13, 0, 0.19, 0.5, 2.02895E-05, 0.0008572188, 0.002412423
NKQ1, 47941200, 0.9999253, 0.006639934, 0.00502197, -0.008954736
AHR2, 47941244, 0.41, -0.02, 358.95, -0.27, 0, 0, 0.9999521, 0.00361801, -0.0002315446, -0.009089084
MOTB, 47941251, 1, 1, 0, 1
RCIN, 47941255, 0, 0, 0, 0, 0, 0, 0, 0, 0, 0, 0, 0, 0, 0
