FMT, 128, 89, FMT, BBnNZ, Type,Length,Name,Format,Columns
FMT, 129, 31, PARM, QNf, TimeUS,Name,Value
FMT, 130, 46, GPS, QBIHBcLLefffB, TimeUS,Status,GMS,GWk,NSats,HDop,Lat,Lng,Alt,Spd,GCrs,VZ,U
FMT, 131, 46, GPS2, QBIHBcLLefffB, TimeUS,Status,GMS,GWk,NSats,HDop,Lat,Lng,Alt,Spd,GCrs,VZ,U
FMT, 132, 46, GPSB, QBIHBcLLefffB, TimeUS,Status,GMS,GWk,NSats,HDop,Lat,Lng,Alt,Spd,GCrs,VZ,U
FMT, 193, 24, GPA, QCCCCBI, TimeUS,VDop,HAcc,VAcc,SAcc,VV,SMS
FMT, 194, 24, GPA2, QCCCCBI, TimeUS,VDop,HAcc,VAcc,SAcc,VV,SMS
FMT, 195, 24, GPAB, QCCCCBI, TimeUS,VDop,HAcc,VAcc,SAcc,VV,SMS
FMT, 133, 53, IMU, QffffffIIfBBHH, TimeUS,GyrX,GyrY,GyrZ,AccX,AccY,AccZ,EG,EA,T,GH,AH,GHz,AHz
FMT, 134, 75, MSG, QZ, TimeUS,Message
FMT, 135, 39, RCIN, QHHHHHHHHHHHHHH, TimeUS,C1,C2,C3,C4,C5,C6,C7,C8,C9,C10,C11,C12,C13,C14
FMT, 136, 39, RCOU, QHHHHHHHHHHHHHH, TimeUS,C1,C2,C3,C4,C5,C6,C7,C8,C9,C10,C11,C12,C13,C14
FMT, 137, 15, RSSI, Qf, TimeUS,RXRSSI
FMT, 139, 37, BARO, QffcfIff, TimeUS,Alt,Press,Temp,CRt,SMS,Offset,GndTemp
FMT, 140, 22, POWR, QffHB, TimeUS,Vcc,VServo,Flags,Safety
FMT, 143, 45, CMD, QHHHfffffff, TimeUS,CTot,CNum,CId,Prm1,Prm2,Prm3,Prm4,Lat,Lng,Alt
FMT, 144, 20, RAD, QBBBBBHH, TimeUS,RSSI,RemRSSI,TxBuf,Noise,RemNoise,RxErrors,Fixed
FMT, 146, 43, CAM, QIHLLeeeccC, TimeUS,GPSTime,GPSWeek,Lat,Lng,Alt,RelAlt,GPSAlt,Roll,Pitch,Yaw
FMT, 232, 43, TRIG, QIHLLeeeccC, TimeUS,GPSTime,GPSWeek,Lat,Lng,Alt,RelAlt,GPSAlt,Roll,Pitch,Yaw
FMT, 162, 30, ARSP, QffcffB, TimeUS,Airspeed,DiffPress,Temp,RawPress,Offset,U
FMT, 164, 45, CURR, QfffcHHHHHHHHHH, TimeUS,Volt,Curr,CurrTot,Temp,V1,V2,V3,V4,V5,V6,V7,V8,V9,V10
FMT, 165, 45, CUR2, QfffcHHHHHHHHHH, TimeUS,Volt,Curr,CurrTot,Temp,V1,V2,V3,V4,V5,V6,V7,V8,V9,V10
FMT, 163, 27, ATT, QccccCCCC, TimeUS,DesRoll,Roll,DesPitch,Pitch,DesYaw,Yaw,ErrRP,ErrYaw
FMT, 166, 34, MAG, QhhhhhhhhhBI, TimeUS,MagX,MagY,MagZ,OfsX,OfsY,OfsZ,MOfsX,MOfsY,MOfsZ,Health,S
FMT, 169, 14, MODE, QMBB, TimeUS,Mode,ModeNum,Rsn
FMT, 196, 17, RFND, QCBCB, TimeUS,Dist1,Orient1,Dist2,Orient2
FMT, 223, 33, DMS, IIIIIBBBBBBBBBB, TimeMS,N,Dp,RT,RS,Er,Fa,Fmn,Fmx,Pa,Pmn,Pmx,Sa,Smn,Smx
FMT, 240, 41, BCN, QBBfffffff, TimeUS,Health,Cnt,D0,D1,D2,D3,PosX,PosY,PosZ
FMT, 138, 53, IMU2, QffffffIIfBBHH, TimeUS,GyrX,GyrY,GyrZ,AccX,AccY,AccZ,EG,EA,T,GH,AH,GHz,AHz
FMT, 147, 53, IMU3, QffffffIIfBBHH, TimeUS,GyrX,GyrY,GyrZ,AccX,AccY,AccZ,EG,EA,T,GH,AH,GHz,AHz
FMT, 141, 45, AHR2, QccCfLLffff, TimeUS,Roll,Pitch,Yaw,Alt,Lat,Lng,Q1,Q2,Q3,Q4
FMT, 180, 31, POS, QLLfff, TimeUS,Lat,Lng,Alt,RelHomeAlt,RelOriginAlt
FMT, 142, 45, SIM, QccCfLLffff, TimeUS,Roll,Pitch,Yaw,Alt,Lat,Lng,Q1,Q2,Q3,Q4
FMT, 198, 51, NKF1, QccCfffffffccc, TimeUS,Roll,Pitch,Yaw,VN,VE,VD,dPD,PN,PE,PD,GX,GY,GZ
FMT, 199, 35, NKF2, QbccccchhhhhhB, TimeUS,AZbias,GSX,GSY,GSZ,VWN,VWE,MN,ME,MD,MX,MY,MZ,MI
FMT, 200, 33, NKF3, Qcccccchhhcc, TimeUS,IVN,IVE,IVD,IPN,IPE,IPD,IMX,IMY,IMZ,IYAW,IVT
FMT, 201, 35, NKF4, QcccccfbbHBHHb, TimeUS,SV,SP,SH,SM,SVT,errRP,OFN,OFE,FS,TS,SS,GPS,PI
FMT, 202, 40, NKF5, QBhhhcccCCfff, TimeUS,NI,FIX,FIY,AFI,HAGL,offset,RI,rng,Herr,eAng,eVel,ePos
FMT, 203, 51, NKF6, QccCfffffffccc, TimeUS,Roll,Pitch,Yaw,VN,VE,VD,dPD,PN,PE,PD,GX,GY,GZ
FMT, 204, 35, NKF7, QbccccchhhhhhB, TimeUS,AZbias,GSX,GSY,GSZ,VWN,VWE,MN,ME,MD,MX,MY,MZ,MI
FMT, 205, 33, NKF8, Qcccccchhhcc, TimeUS,IVN,IVE,IVD,IPN,IPE,IPD,IMX,IMY,IMZ,IYAW,IVT
FMT, 206, 35, NKF9, QcccccfbbHBHHb, TimeUS,SV,SP,SH,SM,SVT,errRP,OFN,OFE,FS,TS,SS,GPS,PI
FMT, 207, 36, NKF0, QBccCCcccccccc, TimeUS,ID,rng,innov,SIV,TR,BPN,BPE,BPD,OFH,OFL,OFN,OFE,OFD
FMT, 208, 27, NKQ1, Qffff, TimeUS,Q1,Q2,Q3,Q4
FMT, 209, 27, NKQ2, Qffff, TimeUS,Q1,Q2,Q3,Q4
FMT, 210, 51, XKF1, QccCfffffffccc, TimeUS,Roll,Pitch,Yaw,VN,VE,VD,dPD,PN,PE,PD,GX,GY,GZ
FMT, 211, 34, XKF2, QccccchhhhhhB, TimeUS,AX,AY,AZ,VWN,VWE,MN,ME,MD,MX,MY,MZ,MI
FMT, 212, 33, XKF3, Qcccccchhhcc, TimeUS,IVN,IVE,IVD,IPN,IPE,IPD,IMX,IMY,IMZ,IYAW,IVT
FMT, 213, 35, XKF4, QcccccfbbHBHHb, TimeUS,SV,SP,SH,SM,SVT,errRP,OFN,OFE,FS,TS,SS,GPS,PI
FMT, 214, 40, XKF5, QBhhhcccCCfff, TimeUS,NI,FIX,FIY,AFI,HAGL,offset,RI,rng,Herr,eAng,eVel,ePos
FMT, 215, 51, XKF6, QccCfffffffccc, TimeUS,Roll,Pitch,Yaw,VN,VE,VD,dPD,PN,PE,PD,GX,GY,GZ
FMT, 216, 34, XKF7, QccccchhhhhhB, TimeUS,AX,AY,AZ,VWN,VWE,MN,ME,MD,MX,MY,MZ,MI
FMT, 217, 33, XKF8, Qcccccchhhcc, TimeUS,IVN,IVE,IVD,IPN,IPE,IPD,IMX,IMY,IMZ,IYAW,IVT
FMT, 218, 35, XKF9, QcccccfbbHBHHb, TimeUS,SV,SP,SH,SM,SVT,errRP,OFN,OFE,FS,TS,SS,GPS,PI
FMT, 219, 36, XKF0, QBccCCcccccccc, TimeUS,ID,rng,innov,SIV,TR,BPN,BPE,BPD,OFH,OFL,OFN,OFE,OFD
FMT, 220, 27, XKQ1, Qffff, TimeUS,Q1,Q2,Q3,Q4
FMT, 221, 27, XKQ2, Qffff, TimeUS,Q1,Q2,Q3,Q4
FMT, 222, 35, XKFD, Qffffff, TimeUS,IX,IY,IZ,IVX,IVY,IVZ
FMT, 148, 34, TERR, QBLLHffHH, TimeUS,Status,Lat,Lng,Spacing,TerrH,CHeight,Pending,Loaded
FMT, 149, 18, UBX1, QBHBBH, TimeUS,Instance,noisePerMS,jamInd,aPower,agcCnt
FMT, 150, 16, UBX2, QBbBbB, TimeUS,Instance,ofsI,magI,ofsQ,magQ
FMT, 151, 18, UBY1, QBHBBH, TimeUS,Instance,noisePerMS,jamInd,aPower,agcCnt
FMT, 152, 16, UBY2, QBbBbB, TimeUS,Instance,ofsI,magI,ofsQ,magQ
FMT, 170, 42, GRAW, QIHBBddfBbB, TimeUS,WkMS,Week,numSV,sv,cpMes,prMes,doMes,mesQI,cno,lli
FMT, 171, 24, GRXH, QdHbBB, TimeUS,rcvTime,week,leapS,numMeas,recStat
FMT, 172, 41, GRXS, QddfBBBHBBBBB, TimeUS,prMes,cpMes,doMes,gnss,sv,freq,lock,cno,prD,cpD,doD,trk
FMT, 173, 63, SBFE, QIHBBdddfffff, TimeUS,TOW,WN,Mode,Err,Lat,Lng,Height,Undul,Vn,Ve,Vu,COG
FMT, 153, 19, ESC1, Qcccc, TimeUS,RPM,Volt,Curr,Temp
FMT, 154, 19, ESC2, Qcccc, TimeUS,RPM,Volt,Curr,Temp
FMT, 155, 19, ESC3, Qcccc, TimeUS,RPM,Volt,Curr,Temp
FMT, 156, 19, ESC4, Qcccc, TimeUS,RPM,Volt,Curr,Temp
FMT, 157, 19, ESC5, Qcccc, TimeUS,RPM,Volt,Curr,Temp
FMT, 158, 19, ESC6, Qcccc, TimeUS,RPM,Volt,Curr,Temp
FMT, 159, 19, ESC7, Qcccc, TimeUS,RPM,Volt,Curr,Temp
FMT, 160, 19, ESC8, Qcccc, TimeUS,RPM,Volt,Curr,Temp
FMT, 167, 34, MAG2, QhhhhhhhhhBI, TimeUS,MagX,MagY,MagZ,OfsX,OfsY,OfsZ,MOfsX,MOfsY,MOfsZ,Health,S
FMT, 168, 34, MAG3, QhhhhhhhhhBI, TimeUS,MagX,MagY,MagZ,OfsX,OfsY,OfsZ,MOfsX,MOfsY,MOfsZ,Health,S
FMT, 174, 31, ACC1, QQfff, TimeUS,SampleUS,AccX,AccY,AccZ
FMT, 175, 31, ACC2, QQfff, TimeUS,SampleUS,AccX,AccY,AccZ
FMT, 176, 31, ACC3, QQfff, TimeUS,SampleUS,AccX,AccY,AccZ
FMT, 177, 31, GYR1, QQfff, TimeUS,SampleUS,GyrX,GyrY,GyrZ
FMT, 178, 31, GYR2, QQfff, TimeUS,SampleUS,GyrX,GyrY,GyrZ
FMT, 179, 31, GYR3, QQfff, TimeUS,SampleUS,GyrX,GyrY,GyrZ
FMT, 181, 35, PIDR, Qffffff, TimeUS,Des,P,I,D,FF,AFF
FMT, 182, 35, PIDP, Qffffff, TimeUS,Des,P,I,D,FF,AFF
FMT, 183, 35, PIDY, Qffffff, TimeUS,Des,P,I,D,FF,AFF
FMT, 184, 35, PIDA, Qffffff, TimeUS,Des,P,I,D,FF,AFF
FMT, 185, 35, PIDS, Qffffff, TimeUS,Des,P,I,D,FF,AFF
FMT, 186, 35, PIDL, Qffffff, TimeUS,Des,P,I,D,FF,AFF
FMT, 161, 37, BAR2, QffcfIff, TimeUS,Alt,Press,Temp,CRt,SMS,Offset,GndTemp
FMT, 197, 37, BAR3, QffcfIff, TimeUS,Alt,Press,Temp,CRt,SMS,Offset,GndTemp
FMT, 187, 35, VIBE, QfffIII, TimeUS,VibeX,VibeY,VibeZ,Clip0,Clip1,Clip2
FMT, 188, 47, IMT, Qfffffffff, TimeUS,DelT,DelvT,DelaT,DelAX,DelAY,DelAZ,DelVX,DelVY,DelVZ
FMT, 189, 47, IMT2, Qfffffffff, TimeUS,DelT,DelvT,DelaT,DelAX,DelAY,DelAZ,DelVX,DelVY,DelVZ
FMT, 190, 47, IMT3, Qfffffffff, TimeUS,DelT,DelvT,DelaT,DelAX,DelAY,DelAZ,DelVX,DelVY,DelVZ
FMT, 191, 24, ORGN, QBLLe, TimeUS,Type,Lat,Lng,Alt
FMT, 192, 19, RPM, Qff, TimeUS,rpm1,rpm2
FMT, 233, 47, GMB1, Iffffffffff, TimeMS,dt,dax,day,daz,dvx,dvy,dvz,jx,jy,jz
FMT, 234, 44, GMB2, IBfffffffff, TimeMS,es,ex,ey,ez,rx,ry,rz,tx,ty,tz
FMT, 235, 13, GMB3, Ihhh, TimeMS,rl_torque_cmd,el_torque_cmd,az_torque_cmd
FMT, 236, 59, RATE, Qffffffffffff, TimeUS,RDes,R,ROut,PDes,P,POut,YDes,Y,YOut,ADes,A,AOut
FMT, 237, 23, RALY, QBBLLh, TimeUS,Tot,Seq,Lat,Lng,Alt
FMT, 238, 43, VISO, Qffffffff, TimeUS,dt,AngDX,AngDY,AngDZ,PosDX,PosDY,PosDZ,conf
FMT, 224, 23, SBPH, QIII, TimeUS,CrcError,LastInject,IARhyp
FMT, 229, 80, SBR1, QHHBZ, TimeUS,msg_type,sender_id,msg_len,d1
FMT, 230, 205, SBR2, QHZZZ, TimeUS,msg_type,d2,d3,d4
FMT, 25, 41, ATUN, QBBfffffff, TimeUS,Axis,TuneStep,Targ,Min,Max,RP,RD,SP,ddt
FMT, 26, 19, ATDE, Qff, TimeUS,Angle,Rate
FMT, 31, 22, PTUN, QBfHHH, TimeUS,Param,TunVal,CtrlIn,TunLo,TunHi
FMT, 12, 28, OF, QBffff, TimeUS,Qual,flowX,flowY,bodyX,bodyY
FMT, 5, 51, NTUN, Qffffffffff, TimeUS,DPosX,DPosY,PosX,PosY,DVelX,DVelY,VelX,VelY,DAccX,DAccY
FMT, 4, 51, CTUN, Qffffffeccfhh, TimeUS,ThI,ABst,ThO,ThH,DAlt,Alt,BAlt,DSAlt,SAlt,TAlt,DCRt,CRt
FMT, 6, 32, PM, QHHIhBHII, TimeUS,NLon,NLoop,MaxT,PMT,I2CErr,INSErr,LogDrop,Mem
FMT, 30, 27, MOTB, Qffff, TimeUS,LiftMax,BatVolt,BatRes,ThLimit
FMT, 13, 12, EV, QB, TimeUS,Id
FMT, 20, 14, D16, QBh, TimeUS,Id,Value
FMT, 21, 14, DU16, QBH, TimeUS,Id,Value
FMT, 22, 16, D32, QBi, TimeUS,Id,Value
FMT, 23, 16, DU32, QBI, TimeUS,Id,Value
FMT, 24, 16, DFLT, QBf, TimeUS,Id,Value
FMT, 19, 13, ERR, QBB, TimeUS,Subsys,ECode
FMT, 32, 19, HELI, Qff, TimeUS,DRRPM,ERRPM
FMT, 33, 29, PL, QBBffff, TimeUS,Heal,TAcq,pX,pY,vX,vY
FMT, 34, 36, GUID, QBffffff, TimeUS,Type,pX,pY,pZ,vX,vY,vZ
FMT, 35, 32, THRO, QBffffbbbb, TimeUS,Stage,Vel,VelZ,Acc,AccEfZ,Throw,AttOk,HgtOk,PosOk
FMT, 36, 56, PRX, QBfffffffffff, TimeUS,Health,D0,D45,D90,D135,D180,D225,D270,D315,DUp,CAn,CDis
MODE, 34390526, 100, 100, 2
EV, 34392461, 15
FMT, 254, 47, NKT1, QIffffffff, TimeUS,Cnt,IMUMin,IMUMax,EKFMin,EKFMax,AngMin,AngMax,VelMin,VelM
FMT, 253, 31, CTRL, Qfffff, TimeUS,RMSRollP,RMSRollD,RMSPitchP,RMSPitchD,RMSYaw
IMU, 34473302, 0.0008986955, 0.000342302, -0.0002665761, 0.1157224, -0.136911, -9.795461, 0, 0, 41.11159, 1, 1, 998, 998
RFND, 34496519, 0.2, 25, 0, 0
ATT, 34496664, 0, 0.59, 0, 0.08, 61.83, 61.84, 0, 1
RATE, 34496671, -2.668362, -0.01016522, -0.006129738, -0.3657336, -0.04894955, -0.0005405725, 0.001594306, -0.03897229, 0.0001726538, -454.4647, 1.01223, 0
NKF1, 34496679, 0.59, 0.08, 61.84, -0.04373248, 0.03129212, -0.01122135, 0, 0, 0, -0.07897792, 0, -0.01, 0.05
NKF2, 34496679, 2, 0, 0, 0, 0, 0, 0, 0, 0, 0, 0, 0, 0
NKF3, 34496679, 0, 0, 0, -0.02, 0.02, 0, 0, 0, 0, 0, 0
NKF4, 34496679, 0, 0, 0, 0, 0, 0.0001218659, 0, 0, 0, 19, 229, 0, 0
NKF5, 34496679, 0, 0, 0, 0, 0.2, 0.13, 0, 0.19, 0.5, 0.0003600677, 0.00781213, 0.01491724
NKQ1, 34496679, 0.8578498, 0.004171032, 0.008966192, 0.5138055
AHR2, 34496730, 0.64, -0.21, 62.73, 0.2, 0, 0, 0.8538404, 0.005820159, 0.001334805, 0.5205006
MOTB, 34496738, 1, 1, 0, 1
RCIN, 34496743, 0, 0, 0, 0, 0, 0, 0, 0, 0, 0, 0, 0, 0, 0
RCOU, 34496748, 1101, 1101, 1101, 1101, 0, 0, 0, 0, 0, 0, 0, 0, 0, 0
VIBE, 34496758, 0.02110282, 0.01967513, 0.03392455, 0, 0, 0
CTRL, 34496764, 0.006376242, 0.00018564, 0.0008365992, 0.0002098734, 0.0001568235
PRX, 34496797, 2, 0.6, 0, 0.55, 0, 0.88, 0, 2.24, 0, 0, 90, 0.55
MSG, 34523824, APM:Copter V3.5.7 (15576f2a)
MSG, 34523829, New mission
MSG, 34523841, Frame: QUAD
MODE, 34523846, Autonomous, 100, 2
RFND, 34547448, 0.2, 25, 0, 0
IMU, 34554781, -0.0004637506, 0.001837818, -0.000448658, 0.1030041, -0.1393975, -9.792548, 0, 0, 41.11386, 1, 1, 998, 998
MAG, 34594721, 282, 517, 485, 0, 0, 0, 0, 0, 0, 1, 34594713
BARO, 34594768, 0.1695432, 1001.284, 39.71, 0.9549279, 34594, 0, 35
CTUN, 34594781, 0, 0, 0, 0.3215985, 0.07932071, 0.07932071, 0.16, 0, 0.19, 0, 0, 1
IMU, 34594876, -0.0001434401, -0.002333982, -0.0001775525, 0.1041484, -0.1408039, -9.793425, 0, 0, 41.11502, 1, 1, 998, 998
RFND, 34597241, 0.2, 25, 0, 0
ATT, 34597336, 0, 0.58, 0, 0.08, 61.83, 61.83, 0, 1
RATE, 34597342, -2.651442, -0.02666512, -0.005971123, -0.3695376, -0.1083953, -0.0005125962, 0.003100531, -0.05601406, 0.0002410517, -452.4703, 1.087093, 0
NKF1, 34597350, 0.58, 0.08, 61.83, -0.04410185, 0.03041316, -0.01117211, 0, 0, 0, -0.07934307, 0, -0.01, 0.05
NKF2, 34597350, 2, 0, 0, 0, 0, 0, 0, 0, 0, 0, 0, 0, 0
NKF3, 34597350, 0, 0, 0, -0.02, 0.02, 0, 0, 0, 0, 0, 0
NKF4, 34597350, 0, 0, 0, 0, 0, 0.0001046488, 0, 0, 0, 19, 229, 0, 0
NKF5, 34597350, 0, 0, 0, 0, 0.2, 0.13, 0, 0.19, 0.5, 0.000291427, 0.00586011, 0.01145675
NKQ1, 34597350, 0.8578782, 0.004138622, 0.008954226, 0.5137583
AHR2, 34597397, 0.64, -0.2, 62.72, 0.16, 0, 0, 0.853854, 0.005732182, 0.001379692, 0.5204792
MOTB, 34597405, 1, 1, 0, 1
RCIN, 34597410, 0, 0, 0, 0, 0, 0, 0, 0, 0, 0, 0, 0, 0, 0
RCOU, 34597415, 1101, 1101, 1101, 1101, 0, 0, 0, 0, 0, 0, 0, 0, 0, 0
VIBE, 34597424, 0.01898362, 0.01980889, 0.03315431, 0, 0, 0
CTRL, 34597430, 0.006335898, 0.0001776749, 0.0008558947, 0.0002481144, 0.0001820046
PRX, 34597461, 2, 0.6, 0, 0.55, 0, 2.39, 0, 2.25, 0, 0, 90, 0.55
IMU, 34634779, -0.0003998562, -0.001000687, -0.0005716108, 0.1044765, -0.1358044, -9.777665, 0, 0, 41.11601, 1, 1, 998, 998
RFND, 34647394, 0.2, 25, 0, 0
IMU, 34674764, 0.001472154, 0.0001666649, -4.941975E-05, 0.1054827, -0.1304899, -9.780417, 0, 0, 41.11742, 1, 1, 998, 998
MAG, 34694710, 279, 522, 489, 0, 0, 0, 0, 0, 0, 1, 34694702
BARO, 34694755, 0.2769205, 1001.272, 39.69, 0.6337205, 34694, 0, 35
CTUN, 34694768, 0, 0, 0, 0.3215985, 0.07956778, 0.07956778, 0.27, 0, 0.19, 0, 0, 1
RFND, 34697273, 0.2, 25, 0, 0
ATT, 34697442, 0, 0.58, 0, 0.08, 61.82, 61.83, 0, 1
RATE, 34697448, -2.647351, 0.05264272, -0.006299621, -0.3773721, -0.03382515, -0.0004326301, 0.003423332, -0.1045664, 0.0002289762, -437.4472, 1.053524, 0
NKF1, 34697456, 0.58, 0.08, 61.83, -0.04471967, 0.030492, -0.01080117, 0, 0, 0, -0.07960017, 0, -0.01, 0.05
NKF2, 34697456, 2, 0, 0, 0, 0, 0, 0, 0, 0, 0, 0, 0, 0
NKF3, 34697456, 0, 0, 0, -0.02, 0.02, 0, 0, 0, 0, 0, 0
NKF4, 34697456, 0, 0, 0, 0, 0, 6.966475E-05, 0, 0, 0, 19, 229, 0, 0
NKF5, 34697456, 0, 0, 0, 0, 0.2, 0.13, 0, 0.19, 0.5, 0.0002246127, 0.004397041, 0.008632852
NKQ1, 34697456, 0.857908, 0.004126481, 0.00896327, 0.5137087
AHR2, 34697501, 0.63, -0.19, 62.72, 0.27, 0, 0, 0.8538677, 0.005661599, 0.001442027, 0.5204573
MOTB, 34697508, 1, 1, 0, 1
RCIN, 34697512, 0, 0, 0, 0, 0, 0, 0, 0, 0, 0, 0, 0, 0, 0
RCOU, 34697518, 1101, 1101, 1101, 1101, 0, 0, 0, 0, 0, 0, 0, 0, 0, 0
VIBE, 34697528, 0.01713192, 0.02136756, 0.03116948, 0, 0, 0
CTRL, 34697534, 0.006309206, 0.0001687983, 0.0008709602, 0.0002351198, 0.0002054807
PRX, 34697624, 2, 0.6, 0, 0.55, 0, 2.14, 0, 2.23, 0, 0, 90, 0.55
IMU, 34714870, 0.0009183287, -0.001637687, -0.0005500199, 0.1129538, -0.1476647, -9.809591, 0, 0, 41.11942, 1, 1, 998, 998
RFND, 34747005, 0.2, 25, 0, 0
IMU, 34754685, 0.0003888053, 0.0006052774, -0.0007998988, 0.110272, -0.1472061, -9.7899, 0, 0, 41.12135, 1, 1, 998, 998
MAG, 34794508, 277, 530, 480, 0, 0, 0, 0, 0, 0, 1, 34794500
BARO, 34794652, 0.1582403, 1001.285, 39.7, 0.149668, 34794, 0, 35
CTUN, 34794666, 0, 0, 0, 0.3215985, 0.07973791, 0.07973791, 0.15, 0, 0.19, 0, 0, 1
DU32, 34794701, 7, 50357752
IMU, 34794837, 0.0007204054, 0.00135967, 0.001666166, 0.1067427, -0.1339052, -9.785026, 0, 0, 41.12294, 1, 1, 998, 998
RFND, 34797087, 0.2, 25, 0, 0
ATT, 34797151, 0, 0.58, 0, 0.08, 61.82, 61.82, 0, 1
RATE, 34797157, -2.65034, 0.02237386, -0.006200942, -0.3878156, 0.1172687, -0.001746176, 0.002301531, 0.056752, 0.0001909335, -433.577, -0.8803368, 0
NKF1, 34797164, 0.58, 0.08, 61.82, -0.04529217, 0.03045338, -0.01070561, 0, 0, 0, -0.07977008, 0, -0.01, 0.05
NKF2, 34797164, 2, 0, 0, 0, 0, 0, 0, 0, 0, 0, 0, 0, 0
NKF3, 34797164, 0, 0, 0, -0.03, 0.02, 0, 0, 0, 0, 0, 0
NKF4, 34797164, 0, 0, 0, 0, 0, 4.645892E-05, 0, 0, 0, 19, 229, 0, 0
NKF5, 34797164, 0, 0, 0, 0, 0.2, 0.13, 0, 0.19, 0.5, 0.0001590117, 0.00342395, 0.006732886
NKQ1, 34797164, 0.8579276, 0.004119547, 0.008986145, 0.5136755
AHR2, 34797208, 0.63, -0.18, 62.72, 0.15, 0, 0, 0.8538695, 0.005593064, 0.001516462, 0.5204549
MOTB, 34797215, 1, 1, 0, 1
RCIN, 34797219, 0, 0, 0, 0, 0, 0, 0, 0, 0, 0, 0, 0, 0, 0
RCOU, 34797224, 1101, 1101, 1101, 1101, 0, 0, 0, 0, 0, 0, 0, 0, 0, 0
VIBE, 34797233, 0.0193818, 0.02037049, 0.03524967, 0, 0, 0
CTRL, 34797239, 0.006310202, 0.000148698, 0.000881998, 0.0002544542, 0.0002264221
PRX, 34797301, 2, 0.6, 0, 0.55, 0, 1.72, 0, 2.21, 0, 0, 90, 0.55
IMU, 34834790, -0.0009756539, 0.0004325985, 0.001428491, 0.1219957, -0.1503313, -9.801986, 0, 0, 41.12448, 1, 1, 998, 998
RFND, 34847142, 0.2, 25, 0, 0
IMU, 34874711, 0.0002329804, 0.0005678782, -0.0007582751, 0.1100234, -0.1349823, -9.784077, 0, 0, 41.1265, 1, 1, 998, 998
MAG, 34894711, 274, 532, 487, 0, 0, 0, 0, 0, 0, 1, 34894703
BARO, 34894755, 0.2684433, 1001.273, 39.7, -0.005658971, 34894, 0, 35
CTUN, 34894769, 0, 0, 0, 0.3215985, 0.08004665, 0.08004665, 0.26, 0, 0.19, 0, 0, 1
RFND, 34897161, 0.2, 25, 0, 0
ATT, 34897232, 0, 0.58, 0, 0.09, 61.81, 61.82, 0, 1
RATE, 34897238, -2.644202, -0.006244869, -0.006234298, -0.4087984, 0.1068768, -0.001264921, 0.00170237, -0.05789312, 0.0001601329, -446.5612, 0.1286507, 0
NKF1, 34897246, 0.58, 0.09, 61.82, -0.04613255, 0.03117045, -0.0110262, 0, 0, 0, -0.08006881, 0, -0.01, 0.05
NKF2, 34897246, 2, 0, 0, 0, 0, 0, 0, 0, 0, 0, 0, 0, 0
NKF3, 34897246, 0, 0, 0, -0.03, 0.02, 0, 0, 0, 0, 0, 0
NKF4, 34897246, 0, 0, 0, 0, 0, 3.124066E-05, 0, 0, 0, 19, 229, 0, 0
NKF5, 34897246, 0, 0, 0, 0, 0.2, 0.13, 0, 0.19, 0.5, 0.0001068565, 0.002623989, 0.004953764
NKQ1, 34897246, 0.8579384, 0.004088523, 0.009011791, 0.5136573
AHR2, 34897322, 0.63, -0.17, 62.72, 0.26, 0, 0, 0.8538606, 0.005499474, 0.001591841, 0.5204704
MOTB, 34897329, 1, 1, 0, 1
RCIN, 34897334, 0, 0, 0, 0, 0, 0, 0, 0, 0, 0, 0, 0, 0, 0
RCOU, 34897340, 1101, 1101, 1101, 1101, 0, 0, 0, 0, 0, 0, 0, 0, 0, 0
VIBE, 34897349, 0.02054098, 0.02087174, 0.0325363, 0, 0, 0
CTRL, 34897355, 0.00628208, 0.0001580711, 0.0009435656, 0.0002389268, 0.0001951135
PRX, 34897386, 2, 0.6, 0, 0.55, 0, 1.42, 0, 2.21, 0, 0, 90, 0.55
IMU, 34914824, 0.001117402, -0.0006222039, -0.0002247475, 0.1142887, -0.1383336, -9.779439, 0, 0, 41.12796, 1, 1, 998, 998
RFND, 34947318, 0.2, 25, 0, 0
IMU, 34954778, 0.0003149503, -0.00232177, -0.001691871, 0.1138898, -0.1320525, -9.793764, 0, 0, 41.12959, 1, 1, 998, 998
MAG, 34994737, 277, 523, 489, 0, 0, 0, 0, 0, 0, 1, 34994729
BARO, 34994785, 0.231709, 1001.277, 39.71, 0.03432973, 34994, 0, 35
CTUN, 34994798, 0, 0, 0, 0.3215985, 0.0801001, 0.0801001, 0.23, 0, 0.19, 0, 0, 1
IMU, 34994947, 0.0003476843, 0.001435389, 0.0007098881, 0.1164504, -0.1420783, -9.792356, 0, 0, 41.13124, 1, 1, 998, 998
RFND, 34997171, 0.2, 25, 0, 0
ATT, 34997243, 0, 0.58, 0, 0.09, 61.81, 61.81, 0, 1
RATE, 34997248, -2.649777, 0.01691601, -0.006322111, -0.4114956, 0.1019168, -0.001517029, 0.0001655521, -0.01000392, 0.0001649325, -445.7769, 1.282883, 0
NKF1, 34997277, 0.58, 0.09, 61.81, -0.04739597, 0.03205153, -0.01100684, 0, 0, 0, -0.08012213, 0, -0.01, 0.05
NKF2, 34997277, 2, 0, 0, 0, 0, 0, 0, 0, 0, 0, 0, 0, 0
NKF3, 34997277, 0, 0, 0, -0.03, 0.03, 0, 0, 0, 0, 0, 0
NKF4, 34997277, 0, 0, 0, 0, 0, 2.113589E-05, 0, 0, 0, 19, 229, 0, 0
NKF5, 34997277, 0, 0, 0, 0, 0.2, 0.13, 0, 0.19, 0.5, 6.907723E-05, 0.002159803, 0.004050315
NKQ1, 34997277, 0.8579615, 0.004095405, 0.0090228, 0.5136185
AHR2, 34997321, 0.63, -0.16, 62.72, 0.23, 0, 0, 0.8538623, 0.005439811, 0.001650935, 0.5204679
MOTB, 34997328, 1, 1, 0, 1
RCIN, 34997332, 0, 0, 0, 0, 0, 0, 0, 0, 0, 0, 0, 0, 0, 0
RCOU, 34997338, 1101, 1101, 1101, 1101, 0, 0, 0, 0, 0, 0, 0, 0, 0, 0
VIBE, 34997347, 0.0202248, 0.01990627, 0.03082252, 0, 0, 0
CTRL, 34997353, 0.006283319, 0.0001474923, 0.0009478982, 0.0002754011, 0.000195189
PRX, 34997384, 2, 0.6, 0, 0.55, 0, 1.42, 0, 2.17, 0, 0, 90, 0.55
IMU, 35034837, 0.001511332, 0.0001726367, -0.0008962297, 0.09024735, -0.1328025, -9.793511, 0, 0, 41.13287, 1, 1, 998, 998
RFND, 35047235, 0.2, 25, 0, 0
IMU, 35074776, 0.0007102493, 0.0001269715, -0.0006160809, 0.1135497, -0.1433187, -9.768682, 0, 0, 41.13592, 1, 1, 998, 998
MAG, 35094699, 284, 522, 492, 0, 0, 0, 0, 0, 0, 1, 35094691
BARO, 35094745, 0.2458376, 1001.276, 39.71, 0.07680364, 35094, 0, 35
CTUN, 35094759, 0, 0, 0, 0.3215985, 0.0803127, 0.0803127, 0.24, 0, 0.19, 0, 0, 1
RFND, 35097350, 0.2, 25, 0, 0
ATT, 35097702, 0, 0.59, 0, 0.09, 61.8, 61.81, 0, 1
RATE, 35097710, -2.661792, 0.03352213, -0.006411294, -0.4206158, 0.02708811, -0.00101965, 0.002117235, -0.06176592, 0.0002434201, -419.5382, -0.2731323, 0
NKF1, 35097719, 0.59, 0.09, 61.81, -0.04894016, 0.03236587, -0.01035897, 0, 0, 0, -0.08034395, 0, -0.01, 0.05
NKF2, 35097719, 2, 0, 0, 0, 0, 0, 0, 0, 0, 0, 0, 0, 0
NKF3, 35097719, 0, 0, 0, -0.04, 0.03, 0, 0, 0, 0, 0, 0
NKF4, 35097719, 0, 0, 0, 0, 0, 1.44003E-05, 0, 0, 0, 19, 229, 0, 0
NKF5, 35097719, 0, 0, 0, 0, 0.2, 0.13, 0, 0.19, 0.5, 4.652172E-05, 0.001937166, 0.003788943
NKQ1, 35097719, 0.8579937, 0.004107958, 0.009049209, 0.513564
AHR2, 35097766, 0.62, -0.15, 62.72, 0.24, 0, 0, 0.8538726, 0.005382128, 0.001723108, 0.5204514
MOTB, 35097774, 1, 1, 0, 1
RCIN, 35097778, 0, 0, 0, 0, 0, 0, 0, 0, 0, 0, 0, 0, 0, 0
RCOU, 35097784, 1101, 1101, 1101, 1101, 0, 0, 0, 0, 0, 0, 0, 0, 0, 0
VIBE, 35097793, 0.02202165, 0.01983309, 0.03421088, 0, 0, 0
CTRL, 35097799, 0.006296511, 0.0001450811, 0.0009799507, 0.0002421842, 0.0001939248
PRX, 35097830, 2, 0.6, 0, 0.55, 0, 2.63, 0, 2.21, 0, 0, 90, 0.55
IMU, 35114892, 0.001645378, 2.888146E-05, -0.0003699023, 0.1054015, -0.146394, -9.782276, 0, 0, 41.13867, 1, 1, 998, 998
RFND, 35147321, 0.2, 25, 0, 0
IMU, 35154802, 0.0008058283, 0.0007190623, 0.0007126551, 0.09817815, -0.1455932, -9.790209, 0, 0, 41.14241, 1, 1, 998, 998
MAG, 35194690, 275, 520, 485, 0, 0, 0, 0, 0, 0, 1, 35194682
BARO, 35194736, 0.1469374, 1001.287, 39.71, 0.06887691, 35194, 0, 35
CTUN, 35194749, 0, 0, 0, 0.3215985, 0.0803401, 0.0803401, 0.14, 0, 0.19, 0, 0, 1
IMU, 35194845, -4.514618E-05, -0.0007475036, 0.0002594918, 0.1105894, -0.1563011, -9.778575, 0, 0, 41.14474, 1, 1, 998, 998
RFND, 35197152, 0.2, 25, 0, 0
ATT, 35197711, 0, 0.59, 0, 0.09, 61.8, 61.8, 0, 1
RATE, 35197722, -2.677712, -0.01365721, -0.00614583, -0.4232519, -0.05008565, -0.0004431147, 0.001871241, -0.01664765, 0.0001700508, -409.4849, 0.0705719, 0
NKF1, 35197732, 0.59, 0.09, 61.8, -0.05027761, 0.0321648, -0.01011074, 0, 0, 0, -0.08036029, 0, -0.01, 0.05
NKF2, 35197732, 2, 0, 0, 0, 0, 0, 0, 0, 0, 0, 0, 0, 0
NKF3, 35197732, 0, 0, 0, -0.04, 0.03, 0, 0, 0, 0, 0, 0
NKF4, 35197732, 0, 0, 0, 0, 0, 1.001226E-05, 0, 0, 0, 19, 229, 0, 0
NKF5, 35197732, 0, 0, 0, 0, 0.2, 0.13, 0, 0.19, 0.5, 3.562081E-05, 0.001523302, 0.002731641
NKQ1, 35197732, 0.8580113, 0.004131207, 0.009069717, 0.5135341
AHR2, 35197783, 0.62, -0.14, 62.72, 0.14, 0, 0, 0.8538673, 0.005336249, 0.001786695, 0.5204604
MOTB, 35197790, 1, 1, 0, 1
RCIN, 35197795, 0, 0, 0, 0, 0, 0, 0, 0, 0, 0, 0, 0, 0, 0
RCOU, 35197800, 1101, 1101, 1101, 1101, 0, 0, 0, 0, 0, 0, 0, 0, 0, 0
VIBE, 35197809, 0.021018, 0.02052872, 0.03616373, 0, 0, 0
CTRL, 35197816, 0.006331521, 0.000134092, 0.001000379, 0.0002316639, 0.0001942557
PRX, 35197848, 2, 0.6, 0, 0.55, 0, 2.95, 0, 2.21, 0, 0, 90, 0.55
IMU, 35234841, -0.0003890994, 0.0002594841, -0.0002487331, 0.1185318, -0.1489691, -9.781654, 0, 0, 41.146, 1, 1, 998, 998
RFND, 35247910, 0.2, 25, 0, 0
IMU, 35274792, 0.0001775372, -0.0006290288, -0.0001046062, 0.1122793, -0.1458059, -9.765131, 0, 0, 41.14709, 1, 1, 998, 998
MAG, 35294690, 278, 533, 486, 0, 0, 0, 0, 0, 0, 1, 35294681
BARO, 35294737, 0.07912014, 1001.294, 39.72, -0.1112627, 35294, 0, 35
CTUN, 35294749, 0, 0, 0, 0.3215985, 0.08028391, 0.08028391, 0.07, 0, 0.19, 0, 0, 0
RFND, 35297110, 0.2, 25, 0, 0
ATT, 35297181, 0, 0.59, 0, 0.09, 61.79, 61.8, 0, 1
RATE, 35297186, -2.668733, -0.004630107, -0.006290593, -0.4237628, -0.02660431, -0.0009915512, 0.003039269, -0.09812318, 0.0001817267, -339.2701, -1.940727, 0
NKF1, 35297194, 0.59, 0.09, 61.8, -0.05138944, 0.03276465, -0.00837704, 0, 0, 0, -0.08030078, 0, -0.01, 0.05
NKF2, 35297194, 2, 0, 0, 0, 0, 0, 0, 0, 0, 0, 0, 0, 0
NKF3, 35297194, 0, 0, 0, -0.05, 0.04, -0.01, 0, 0, 0, 0, 0
NKF4, 35297194, 0, 0, 0, 0, 0, 7.11222E-06, 0, 0, 0, 19, 229, 0, 0
NKF5, 35297194, 0, 0, 0, 0, 0.2, 0.13, 0, 0.19, 0.5, 3.253234E-05, 0.00148844, 0.002922302
NKQ1, 35297194, 0.858037, 0.004118253, 0.009060974, 0.5134914
AHR2, 35297238, 0.62, -0.13, 62.72, 0.07, 0, 0, 0.8538699, 0.005258691, 0.001815933, 0.5204569
MOTB, 35297245, 1, 1, 0, 1
RCIN, 35297249, 0, 0, 0, 0, 0, 0, 0, 0, 0, 0, 0, 0, 0, 0
RCOU, 35297255, 1101, 1101, 1101, 1101, 0, 0, 0, 0, 0, 0, 0, 0, 0, 0
VIBE, 35297263, 0.02104143, 0.01944637, 0.03503459, 0, 0, 0
CTRL, 35297269, 0.006306796, 0.0001181554, 0.0009909583, 0.000226155, 0.000180541
PRX, 35297302, 2, 0.6, 0, 0.55, 0, 3.3, 0, 2.22, 0, 0, 90, 0.55
IMU, 35314809, 0.001176098, -0.0003485428, 0.001189105, 0.1075928, -0.1485713, -9.780843, 0, 0, 41.14807, 1, 1, 998, 998
RFND, 35347400, 0.2, 25, 0, 0
IMU, 35354786, 0.0002458244, 0.0005197516, -0.0001440803, 0.09810406, -0.1363421, -9.78704, 0, 0, 41.14964, 1, 1, 998, 998
MAG, 35394683, 279, 521, 487, 0, 0, 0, 0, 0, 0, 1, 35394675
BARO, 35394728, 0.0875973, 1001.293, 39.72, -0.3911856, 35394, 0, 35
CTUN, 35394741, 0, 0, 0, 0.3215985, 0.08017296, 0.08017296, 0.08, 0, 0.19, 0, 0, 0
IMU, 35394840, 0.0004051491, -0.0009053515, 0.001295379, 0.1043285, -0.1471605, -9.784615, 0, 0, 41.15116, 1, 1, 998, 998
RFND, 35397122, 0.2, 25, 0, 0
ATT, 35397333, 0, 0.59, 0, 0.09, 61.79, 61.8, 0, 1
RATE, 35397340, -2.680696, 0.02212602, -0.006375191, -0.4231093, -0.03683007, -0.0008594143, 0.0004112685, 0.02447255, 9.45294E-05, -335.782, 0.2693176, 0
NKF1, 35397349, 0.59, 0.09, 61.8, -0.05337246, 0.03323733, -0.008290915, 0, 0, 0, -0.08018956, 0, -0.01, 0.05
NKF2, 35397349, 2, 0, 0, 0, 0, 0, 0, 0, 0, 0, 0, 0, 0
NKF3, 35397349, 0, 0, 0, -0.05, 0.04, -0.01, 0, 0, 0, 0, 0
NKF4, 35397349, 0, 0, 0, 0, 0, 5.209968E-06, 0, 0, 0, 19, 229, 0, 0
NKF5, 35397349, 0, 0, 0, 0, 0.21, 0.13, 0, 0.19, 0.5, 3.170821E-05, 0.001195379, 0.002143846
NKQ1, 35397349, 0.8580425, 0.004135941, 0.009072524, 0.5134821
AHR2, 35397396, 0.62, -0.12, 62.73, 0.08, 0, 0, 0.8538516, 0.005212301, 0.00186618, 0.5204871
MOTB, 35397404, 1, 1, 0, 1
RCIN, 35397408, 0, 0, 0, 0, 0, 0, 0, 0, 0, 0, 0, 0, 0, 0
RCOU, 35397414, 1101, 1101, 1101, 1101, 0, 0, 0, 0, 0, 0, 0, 0, 0, 0
VIBE, 35397423, 0.02189084, 0.01939447, 0.02990775, 0, 0, 0
CTRL, 35397429, 0.006321204, 0.0001180449, 0.0009933003, 0.0002058169, 0.0001659191
PRX, 35397461, 2, 0.6, 0, 0.55, 0, 3.4, 0, 2.22, 0, 0, 90, 0.55
IMU, 35434800, 0.001197655, 0.0007474831, 0.0004639032, 0.1147791, -0.1448928, -9.76948, 0, 0, 41.15385, 1, 1, 998, 998
RFND, 35447352, 0.2, 25, 0, 0
IMU, 35474836, -0.0001909125, -0.00166995, -0.0009773219, 0.106428, -0.1478108, -9.763043, 0, 0, 41.15653, 1, 1, 998, 998
MAG, 35495346, 278, 527, 483, 0, 0, 0, 0, 0, 0, 1, 35495338
BARO, 35495393, 0.3673435, 1001.262, 39.71, -0.4097807, 35495, 0, 35
CTUN, 35495407, 0, 0, 0, 0.3215985, 0.07988983, 0.07988983, 0.36, 0, 0.19, 0, 0, 0
RFND, 35497343, 0.2, 25, 0, 0
ATT, 35497509, 0, 0.59, 0, 0.09, 61.78, 61.79, 0, 1
RATE, 35497515, -2.685658, 0.025972, -0.006571624, -0.4197176, -0.005941093, -0.001059624, 0.0001499462, -0.001786288, 0.0001483306, -271.4861, -1.533222, 0
NKF1, 35497522, 0.59, 0.09, 61.79, -0.05491093, 0.03390003, -0.00670336, 0, 0, 0, -0.07990979, 0, -0.01, 0.05
NKF2, 35497522, 2, 0, 0, 0, 0, 0, 0, 0, 0, 0, 0, 0, 0
NKF3, 35497522, 0, 0, 0, -0.06, 0.04, -0.01, 0, 0, 0, 0, 0
NKF4, 35497522, 0, 0, 0, 0, 0, 4.048612E-06, 0, 0, 0, 19, 229, 0, 0
NKF5, 35497522, 0, 0, 0, 0, 0.2, 0.13, 0, 0.19, 0.5, 3.219464E-05, 0.001243864, 0.002511428
NKQ1, 35497522, 0.8580666, 0.004148848, 0.009071629, 0.5134415
AHR2, 35497645, 0.61, -0.12, 62.73, 0.36, 0, 0, 0.8538522, 0.005162787, 0.001905471, 0.5204865
MOTB, 35497652, 1, 1, 0, 1
RCIN, 35497657, 0, 0, 0, 0, 0, 0, 0, 0, 0, 0, 0, 0, 0, 0
RCOU, 35497662, 1101, 1101, 1101, 1101, 0, 0, 0, 0, 0, 0, 0, 0, 0, 0
VIBE, 35497672, 0.02003405, 0.02107468, 0.03395968, 0, 0, 0
CTRL, 35497678, 0.006330449, 0.0001236506, 0.0009846226, 0.0002065208, 0.0001579904
PRX, 35497710, 2, 0.6, 0, 0.55, 0, 2.55, 0, 2.22, 0, 0, 90, 0.55
IMU, 35515177, 0.002461794, 0.0004558967, 0.0005075589, 0.1124243, -0.1258078, -9.778646, 0, 0, 41.15728, 1, 1, 998, 998
RFND, 35547333, 0.2, 25, 0, 0
IMU, 35554789, 0.0009480742, -0.001068569, -0.0007609089, 0.109109, -0.1412442, -9.783913, 0, 0, 41.15804, 1, 1, 998, 998
MAG, 35594705, 280, 525, 487, 0, 0, 0, 0, 0, 0, 1, 35594697
BARO, 35594750, 0.2430119, 1001.276, 39.72, 0.06231689, 35594, 0, 35
CTUN, 35594764, 0, 0, 0, 0.3215985, 0.07965681, 0.07965681, 0.24, 0, 0.19, 0, 0, 0
IMU, 35594859, 0.0009003473, -0.001341254, -7.768316E-05, 0.111669, -0.1600401, -9.772663, 0, 0, 41.15953, 1, 1, 998, 998
RFND, 35597289, 0.2, 25, 0, 0
ATT, 35597362, 0, 0.6, 0, 0.09, 61.78, 61.79, 0, 1
RATE, 35597368, -2.712264, 0.04363275, -0.006581493, -0.4090459, -0.0758838, -0.0005316493, 0.004790761, -0.07108779, 0.0001206811, -255.9087, -1.151466, 0
NKF1, 35597377, 0.6, 0.09, 61.79, -0.05648382, 0.03451801, -0.006318733, 0, 0, 0, -0.07966951, 0, -0.01, 0.05
NKF2, 35597377, 2, 0, 0, 0, 0, 0, 0, 0, 0, 0, 0, 0, 0
NKF3, 35597377, 0, 0, 0, -0.06, 0.04, -0.01, 0, 0, 0, 0, 0
NKF4, 35597377, 0, 0, 0, 0, 0, 3.317291E-06, 0, 0, 0, 19, 229, 0, 0
NKF5, 35597377, 0, 0, 0, 0, 0.21, 0.13, 0, 0.19, 0.5, 3.254392E-05, 0.001008282, 0.001870118
NKQ1, 35597377, 0.8580884, 0.004205962, 0.009079828, 0.5134044
AHR2, 35597423, 0.62, -0.11, 62.73, 0.24, 0, 0, 0.8538509, 0.005158038, 0.001952799, 0.5204885
MOTB, 35597431, 1, 1, 0, 1
RCIN, 35597435, 0, 0, 0, 0, 0, 0, 0, 0, 0, 0, 0, 0, 0, 0
RCOU, 35597441, 1101, 1101, 1101, 1101, 0, 0, 0, 0, 0, 0, 0, 0, 0, 0
VIBE, 35597450, 0.01953601, 0.0202782, 0.03035711, 0, 0, 0
CTRL, 35597457, 0.006391522, 0.0001535724, 0.0009699436, 0.0002011921, 0.0001495261
PRX, 35597488, 2, 0.6, 0, 0.55, 0, 2.55, 0, 2.22, 0, 0, 90, 0.55
IMU, 35634880, 0.0008017352, -0.0004851384, -0.002110474, 0.1010998, -0.1510721, -9.790253, 0, 0, 41.16062, 1, 1, 998, 998
RFND, 35647212, 0.2, 25, 0, 0
IMU, 35674790, 0.001975202, 0.000345645, 0.0009009758, 0.09773536, -0.1449936, -9.759468, 0, 0, 41.16164, 1, 1, 998, 998
MAG, 35694724, 278, 525, 490, 0, 0, 0, 0, 0, 0, 1, 35694716
BARO, 35694769, 0.1949746, 1001.281, 39.72, 0.552307, 35694, 0, 35
CTUN, 35694781, 0, 0, 0, 0.3215985, 0.07913267, 0.07913267, 0.19, 0, 0.19, 0, 0, 0
RFND, 35697135, 0.2, 25, 0, 0
ATT, 35697204, 0, 0.6, 0, 0.09, 61.77, 61.78, 0, 1
RATE, 35697209, -2.730401, 0.03005799, -0.006312092, -0.4143797, 0.02731918, -0.001098524, 0.001578751, -0.07688482, 0.0001996908, -235.068, 1.186943, 0
NKF1, 35697217, 0.6, 0.09, 61.78, -0.05819192, 0.03474072, -0.005804149, 0, 0, 0, -0.07914429, 0, -0.01, 0.05
NKF2, 35697217, 2, 0, 0, 0, 0, 0, 0, 0, 0, 0, 0, 0, 0
NKF3, 35697217, 0, 0, 0, -0.07, 0.05, -0.01, 0, 0, 0, 0, 0
NKF4, 35697217, 0, 0, 0, 0, 0, 2.997554E-06, 0, 0, 0, 19, 229, 0, 0
NKF5, 35697217, 0, 0, 0, 0, 0.2, 0.13, 0, 0.19, 0.5, 3.419763E-05, 0.001064978, 0.002165403
NKQ1, 35697217, 0.8581226, 0.004231685, 0.009106508, 0.5133467
AHR2, 35697291, 0.62, -0.1, 62.72, 0.19, 0, 0, 0.853862, 0.005122904, 0.002015282, 0.5204704
MOTB, 35697299, 1, 1, 0, 1
RCIN, 35697303, 0, 0, 0, 0, 0, 0, 0, 0, 0, 0, 0, 0, 0, 0
RCOU, 35697309, 1101, 1101, 1101, 1101, 0, 0, 0, 0, 0, 0, 0, 0, 0, 0
VIBE, 35697318, 0.02010975, 0.02036229, 0.03371339, 0, 0, 0
CTRL, 35697324, 0.006436204, 0.0001586491, 0.0009682765, 0.0001835181, 0.0001775918
PRX, 35697355, 2, 0.6, 0, 0.55, 0, 2.21, 0, 2.22, 0, 0, 90, 0.55
IMU, 35714834, 0.0005954009, 0.0003796513, 0.001457617, 0.1088353, -0.1429985, -9.779039, 0, 0, 41.1627, 1, 1, 998, 998
RFND, 35747418, 0.2, 25, 0, 0
IMU, 35754893, 0.001256152, -0.001310321, 0.001376772, 0.09792966, -0.1363211, -9.794977, 0, 0, 41.16489, 1, 1, 998, 998
MAG, 35794745, 279, 522, 489, 0, 0, 0, 0, 0, 0, 1, 35794737
BARO, 35794791, 0.3956007, 1001.259, 39.71, 0.4653607, 35794, 0, 35
CTUN, 35794803, 0, 0, 0, 0.3215985, 0.07877378, 0.07877378, 0.39, 0, 0.19, 0, 0, 0
DU32, 35794837, 7, 50357752
IMU, 35794977, 0.0001064051, -0.001270347, 0.001645804, 0.1184368, -0.147141, -9.766308, 0, 0, 41.16643, 1, 1, 998, 998
PM, 35794991, 79, 4000, 5437, 10, 0, 0, 26, 262144
RFND, 35797206, 0.2, 25, 0, 0
ATT, 35797277, 0, 0.6, 0, 0.09, 61.77, 61.78, 0, 1
RATE, 35797282, -2.736501, -0.005094992, -0.006340201, -0.4123994, -0.07058839, -0.0002314351, 0.002562244, 0.04119973, 2.44475E-05, -221.3617, -1.799583, 0
NKF1, 35797290, 0.6, 0.09, 61.78, -0.06008206, 0.03548503, -0.005465721, 0, 0, 0, -0.07877926, 0, -0.01, 0.05
NKF2, 35797290, 2, 0, 0, 0, 0, 0, 0, 0, 0, 0, 0, 0, 0
NKF3, 35797290, 0, 0, 0, -0.08, 0.06, -0.01, 0, 0, 0, 0, 0
NKF4, 35797290, 0, 0, 0, 0, 0, 2.820328E-06, 0, 0, 0, 19, 229, 0, 0
NKF5, 35797290, 0, 0, 0, 0, 0.2, 0.13, 0, 0.19, 0.5, 3.670478E-05, 0.001212499, 0.002624763
NKQ1, 35797290, 0.8581157, 0.004242333, 0.0091114, 0.5133579
AHR2, 35797335, 0.61, -0.1, 62.73, 0.39, 0, 0, 0.8538318, 0.005074458, 0.002055574, 0.5205203
MOTB, 35797341, 1, 1, 0, 1
RCIN, 35797346, 0, 0, 0, 0, 0, 0, 0, 0, 0, 0, 0, 0, 0, 0
RCOU, 35797351, 1101, 1101, 1101, 1101, 0, 0, 0, 0, 0, 0, 0, 0, 0, 0
VIBE, 35797360, 0.02012697, 0.01944454, 0.03415128, 0, 0, 0
CTRL, 35797366, 0.006452836, 0.0001502863, 0.0009843019, 0.0002480109, 0.0001569521
PRX, 35797397, 2, 0.6, 0, 0.55, 0, 1.77, 0, 2.22, 0, 0, 90, 0.55
IMU, 35834779, 0.0003489548, 0.0009827343, 0.0008745559, 0.112305, -0.1445382, -9.769918, 0, 0, 41.16838, 1, 1, 998, 998
RFND, 35847299, 0.2, 25, 0, 0
IMU, 35874759, -0.0003138272, 0.001816774, 0.0009124656, 0.1034116, -0.1389249, -9.769559, 0, 0, 41.16958, 1, 1, 998, 998
MAG, 35894601, 274, 527, 485, 0, 0, 0, 0, 0, 0, 1, 35894536
BARO, 35894645, 0.4351608, 1001.255, 39.72, 0.2255872, 35894, 0, 35
CTUN, 35894656, 0, 0, 0, 0.3215985, 0.07822871, 0.07822871, 0.43, 0, 0.19, 0, 0, 0
RFND, 35897076, 0.2, 25, 0, 0
ATT, 35897143, 0, 0.6, 0, 0.09, 61.77, 61.78, 0, 1
RATE, 35897148, -2.741613, 0.03799359, -0.006471019, -0.444633, 0.1594883, -0.001709664, 0.001901607, 0.04474403, 4.622562E-05, -160.9389, -1.934338, 0
NKF1, 35897155, 0.6, 0.09, 61.78, -0.06179564, 0.03609747, -0.003973801, 0, 0, 0, -0.07823668, 0, -0.01, 0.05
NKF2, 35897155, 2, 0, 0, 0, 0, 0, 0, 0, 0, 0, 0, 0, 0
NKF3, 35897155, 0, 0, 0, -0.08, 0.06, -0.01, 0, 0, 0, 0, 0
NKF4, 35897155, 0, 0, 0, 0, 0, 2.887612E-06, 0, 0, 0, 19, 229, 0, 0
NKF5, 35897155, 0, 0, 0, 0, 0.2, 0.13, 0, 0.19, 0.5, 3.776989E-05, 0.0009286639, 0.001862327
NKQ1, 35897155, 0.8581199, 0.004216753, 0.009168468, 0.5133501
AHR2, 35897200, 0.61, -0.08, 62.73, 0.43, 0, 0, 0.8538125, 0.004993287, 0.00214668, 0.5205522
MOTB, 35897207, 1, 1, 0, 1
RCIN, 35897211, 0, 0, 0, 0, 0, 0, 0, 0, 0, 0, 0, 0, 0, 0
RCOU, 35897217, 1101, 1101, 1101, 1101, 0, 0, 0, 0, 0, 0, 0, 0, 0, 0
VIBE, 35897225, 0.01865287, 0.02180276, 0.03616523, 0, 0, 0
CTRL, 35897231, 0.006461095, 0.0001600377, 0.001031763, 0.0002505163, 0.0001316959
PRX, 35897283, 2, 0.6, 0, 0.55, 0, 1.77, 0, 2.22, 0, 0, 90, 0.55
IMU, 35914758, 0.001390541, 0.001715274, 0.0004824655, 0.1132531, -0.1523553, -9.781705, 0, 0, 41.17106, 1, 1, 998, 998
RFND, 35947292, 0.2, 25, 0, 0
IMU, 35954878, 0.0001585762, 0.0003056414, 0.0008255382, 0.1125521, -0.1449126, -9.776885, 0, 0, 41.173, 1, 1, 998, 998
MAG, 35994669, 280, 523, 489, 0, 0, 0, 0, 0, 0, 1, 35994661
BARO, 35994713, 0.3673435, 1001.262, 39.72, 0.4108248, 35994, 0, 35
CTUN, 35994726, 0, 0, 0, 0.3215985, 0.07768929, 0.07768929, 0.36, 0, 0.19, 0, 0, 0
IMU, 35994820, 0.001188274, 0.0003298589, 0.0005996844, 0.1130566, -0.1483269, -9.792006, 0, 0, 41.17477, 1, 1, 998, 998
RFND, 35997147, 0.2, 25, 0, 0
ATT, 35997356, 0, 0.61, 0, 0.1, 61.77, 61.77, 0, 1
RATE, 35997364, -2.759366, 0.09258687, -0.007009506, -0.4680486, 0.01458833, -0.00109748, 0.001624987, -0.01402904, 0.000125317, -172.4689, 0.1152992, 0
NKF1, 35997371, 0.61, 0.1, 61.77, -0.06323841, 0.03651684, -0.00425849, 0, 0, 0, -0.07770656, 0, -0.01, 0.05
NKF2, 35997371, 2, 0, 0, 0, 0, 0, 0, 0, 0, 0, 0, 0, 0
NKF3, 35997371, 0, 0, 0, -0.09, 0.06, 0, 0, 0, 0, 0, 0
NKF4, 35997371, 0, 0, 0, 0, 0, 3.042661E-06, 0, 0, 0, 19, 229, 0, 0
NKF5, 35997371, 0, 0, 0, 0, 0.2, 0.13, 0, 0.19, 0.5, 4.050613E-05, 0.001058833, 0.002212147
NKQ1, 35997371, 0.8581393, 0.004224962, 0.009224704, 0.5133167
AHR2, 35997416, 0.61, -0.07, 62.73, 0.36, 0, 0, 0.8538091, 0.004946398, 0.002237681, 0.520558
MOTB, 35997424, 1, 1, 0, 1
RCIN, 35997428, 0, 0, 0, 0, 0, 0, 0, 0, 0, 0, 0, 0, 0, 0
RCOU, 35997433, 1101, 1101, 1101, 1101, 0, 0, 0, 0, 0, 0, 0, 0, 0, 0
VIBE, 35997443, 0.01971611, 0.02189235, 0.0367467, 0, 0, 0
CTRL, 35997449, 0.00649253, 0.0001586987, 0.00110437, 0.0002371502, 0.0001190203
PRX, 35997480, 2, 0.6, 0, 0.55, 0, 2.38, 0, 2.22, 0, 0, 90, 0.55
IMU, 36034742, -0.0002921238, 0.0005684822, 0.0004902607, 0.117017, -0.1365896, -9.782415, 0, 0, 41.17665, 1, 1, 998, 998
RFND, 36047359, 0.2, 25, 0, 0
IMU, 36074841, 5.219807E-06, 0.0005634905, 0.0007433564, 0.103039, -0.1547244, -9.785446, 0, 0, 41.17789, 1, 1, 998, 998
MAG, 36094525, 276, 525, 489, 0, 0, 0, 0, 0, 0, 1, 36094517
BARO, 36094663, 0.2062775, 1001.28, 39.73, 0.4802884, 36094, 0, 35
CTUN, 36094677, 0, 0, 0, 0.3215985, 0.07713455, 0.07713455, 0.2, 0, 0.19, 0, 0, 0
RFND, 36097030, 0.2, 25, 0, 0
ATT, 36097151, 0, 0.61, 0, 0.1, 61.77, 61.77, 0, 1
RATE, 36097157, -2.750122, -0.08010257, -0.006128097, -0.4882151, 0.03535604, -0.001393346, 0.004406789, -0.04587498, 0.0001155756, -152.8233, 1.079655, 0
NKF1, 36097279, 0.61, 0.1, 61.77, -0.06512433, 0.03693578, -0.003773414, 0, 0, 0, -0.0771459, 0, -0.01, 0.05
NKF2, 36097279, 2, 0, 0, 0, 0, 0, 0, 0, 0, 0, 0, 0, 0
NKF3, 36097279, 0, 0, 0, -0.09, 0.06, 0, 0, 0, 0, 0, 0
NKF4, 36097279, 0, 0, 0, 0, 0, 3.295801E-06, 0, 0, 0, 19, 229, 0, 0
NKF5, 36097279, 0, 0, 0, 0, 0.2, 0.13, 0, 0.19, 0.5, 4.059228E-05, 0.0008154506, 0.001553828
NKQ1, 36097279, 0.8581547, 0.004190058, 0.009248295, 0.5132908
AHR2, 36097326, 0.61, -0.06, 62.74, 0.2, 0, 0, 0.8538015, 0.004859034, 0.002296313, 0.5205709
MOTB, 36097333, 1, 1, 0, 1
RCIN, 36097338, 0, 0, 0, 0, 0, 0, 0, 0, 0, 0, 0, 0, 0, 0
RCOU, 36097345, 1101, 1101, 1101, 1101, 0, 0, 0, 0, 0, 0, 0, 0, 0, 0
VIBE, 36097355, 0.01760047, 0.0223432, 0.03513841, 0, 0, 0
CTRL, 36097361, 0.006493425, 0.000163805, 0.001138697, 0.0002094614, 0.0001156211
PRX, 36097392, 2, 0.6, 0, 0.55, 0, 3.05, 0, 2.68, 0, 0, 90, 0.55
IMU, 36114701, 0.0003070714, -0.0001725445, 0.001478779, 0.1084723, -0.1542384, -9.772591, 0, 0, 41.17932, 1, 1, 998, 998
RFND, 36147141, 0.2, 25, 0, 0
IMU, 36154687, -0.0004888405, -0.001086308, 0.000545811, 0.1138961, -0.1449876, -9.792648, 0, 0, 41.18106, 1, 1, 998, 998
MAG, 36194598, 279, 524, 491, 0, 0, 0, 0, 0, 0, 1, 36194590
BARO, 36194642, 0.1525889, 1001.286, 39.73, -0.05828046, 36194, 0, 35
CTUN, 36194655, 0, 0, 0, 0.3215985, 0.07651039, 0.07651039, 0.15, 0, 0.19, 0, 0, 0
IMU, 36194790, 0.0005512415, -0.0001994083, -0.0004284602, 0.1150956, -0.1517326, -9.777133, 0, 0, 41.1835, 1, 1, 998, 998
RFND, 36197111, 0.2, 25, 0, 0
ATT, 36197178, 0, 0.61, 0, 0.1, 61.76, 61.77, 0, 1
RATE, 36197184, -2.753326, 0.02143995, -0.006590013, -0.4781396, 0.0001976369, -0.001124717, 0.004591104, -0.07657927, 0.0001648109, -125.8464, -0.4662514, 0
NKF1, 36197191, 0.61, 0.1, 61.77, -0.0663962, 0.03764077, -0.003107319, 0, 0, 0, -0.07651985, 0, -0.01, 0.05
NKF2, 36197191, 2, 0, 0, 0, 0, 0, 0, 0, 0, 0, 0, 0, 0
NKF3, 36197191, 0, 0, 0, -0.1, 0.07, 0, 0, 0, 0, 0, 0
NKF4, 36197191, 0, 0, 0, 0, 0, 3.66832E-06, 0, 0, 0, 19, 229, 0, 0
NKF5, 36197191, 0, 0, 0, 0, 0.2, 0.13, 0, 0.19, 0.5, 4.314532E-05, 0.0009129778, 0.001764915
NKQ1, 36197191, 0.8581762, 0.004207107, 0.009234807, 0.5132549
AHR2, 36197233, 0.61, -0.06, 62.74, 0.15, 0, 0, 0.8537999, 0.0048241, 0.002317945, 0.5205737
MOTB, 36197239, 1, 1, 0, 1
RCIN, 36197244, 0, 0, 0, 0, 0, 0, 0, 0, 0, 0, 0, 0, 0, 0
RCOU, 36197249, 1101, 1101, 1101, 1101, 0, 0, 0, 0, 0, 0, 0, 0, 0, 0
VIBE, 36197279, 0.01742181, 0.02124964, 0.02999126, 0, 0, 0
CTRL, 36197285, 0.00649255, 0.0001762022, 0.001121593, 0.0002166577, 0.0001161431
PRX, 36197317, 2, 0.6, 0, 0.55, 0, 3.23, 0, 2.52, 0, 0, 90, 0.55
IMU, 36234675, 0.002046294, 4.334924E-05, -0.0001969462, 0.1126161, -0.1453362, -9.781587, 0, 0, 41.18619, 1, 1, 998, 998
RFND, 36246990, 0.2, 25, 0, 0
IMU, 36274653, 0.001243582, -0.001272366, -0.0003817585, 0.1071443, -0.1459213, -9.789202, 0, 0, 41.18825, 1, 1, 998, 998
MAG, 36294739, 275, 523, 492, 0, 0, 0, 0, 0, 0, 1, 36294731
BARO, 36294785, 0.2373604, 1001.277, 39.73, -0.6481495, 36294, 0, 35
CTUN, 36294798, 0, 0, 0, 0.3215985, 0.07598294, 0.07598294, 0.23, 0, 0.19, 0, 0, 0
RFND, 36297117, 0.2, 25, 0, 0
ATT, 36297239, 0, 0.61, 0, 0.1, 61.75, 61.76, 0, 1
RATE, 36297245, -2.775545, 0.04431842, -0.006416837, -0.482351, 0.01109623, -0.001692215, 0.002085987, -0.01832191, 0.0001886278, -122.012, 1.251698, 0
NKF1, 36297282, 0.61, 0.1, 61.76, -0.06793351, 0.03831078, -0.003012641, 0, 0, 0, -0.07599481, 0, -0.01, 0.05
NKF2, 36297282, 2, 0, 0, 0, 0, 0, 0, 0, 0, 0, 0, 0, 0
NKF3, 36297282, 0, 0, 0, -0.1, 0.07, 0, 0, 0, 0, 0, 0
NKF4, 36297282, 0, 0, 0, 0, 0, 4.010616E-06, 0, 0, 0, 19, 229, 0, 0
NKF5, 36297282, 0, 0, 0, 0, 0.2, 0.13, 0, 0.19, 0.5, 4.242403E-05, 0.0007156706, 0.001248434
NKQ1, 36297282, 0.8582014, 0.004238975, 0.009264139, 0.5132119
AHR2, 36297329, 0.61, -0.05, 62.74, 0.23, 0, 0, 0.8538028, 0.004803953, 0.002380749, 0.520569
MOTB, 36297336, 1, 1, 0, 1
RCIN, 36297342, 0, 0, 0, 0, 0, 0, 0, 0, 0, 0, 0, 0, 0, 0
RCOU, 36297348, 1101, 1101, 1101, 1101, 0, 0, 0, 0, 0, 0, 0, 0, 0, 0
VIBE, 36297356, 0.01955706, 0.0198161, 0.03016371, 0, 0, 0
CTRL, 36297362, 0.006543463, 0.0001765625, 0.00112212, 0.0002270219, 0.0001523219
PRX, 36297394, 2, 0.6, 0, 0.55, 0, 2.5, 0, 2.41, 0, 0, 90, 0.55
IMU, 36316823, 0.0008841702, -0.001137867, 0.0005865171, 0.09687051, -0.1401296, -9.790276, 0, 0, 41.18947, 1, 1, 998, 998
RFND, 36347950, 0.2, 25, 0, 0
IMU, 36357043, 0.0006208719, 0.0008036029, 0.0007716642, 0.09694779, -0.1344002, -9.774029, 0, 0, 41.19063, 1, 1, 998, 998
EV, 36392894, 57
MAG, 36395523, 280, 528, 484, 0, 0, 0, 0, 0, 0, 1, 36395515
BARO, 36395637, 0.1497631, 1001.286, 39.73, -0.6595011, 36395, 0, 35
CTUN, 36395652, 0, 0, 0, 0.3215985, 0.07531672, 0.07531672, 0.14, 0, 0.19, 0, 0, 0
IMU, 36395750, 0.000309399, -0.001137295, -0.001726768, 0.1145022, -0.1444186, -9.782427, 0, 0, 41.19112, 1, 1, 998, 998
RFND, 36397962, 0.2, 25, 0, 0
ATT, 36398151, 0, 0.61, 0, 0.1, 61.75, 61.75, 0, 1
RATE, 36398157, -2.780095, 0.004719049, -0.006442569, -0.4724473, -0.04650564, -0.001136451, 0.002470068, -0.1546552, 0.0002238759, -93.14813, -0.04587173, 0
NKF1, 36398166, 0.61, 0.1, 61.75, -0.07031548, 0.03841559, -0.002299954, 0, 0, 0, -0.07531901, 0, -0.01, 0.05
NKF2, 36398166, 2, 0, 0, 0, 0, 0, 0, 0, 0, 0, 0, 0, 0
NKF3, 36398166, 0, 0, 0, -0.11, 0.07, 0, 0, 0, 0, 0, 0
NKF4, 36398166, 0, 0, 0, 0, 0, 4.551294E-06, 0, 0, 0, 19, 229, 0, 0
NKF5, 36398166, 0, 0, 0, 0, 0.2, 0.13, 0, 0.19, 0.5, 4.526706E-05, 0.0008029639, 0.001374713
NKQ1, 36398166, 0.8582343, 0.004259381, 0.009250146, 0.513157
AHR2, 36398211, 0.61, -0.04, 62.73, 0.14, 0, 0, 0.8538133, 0.004772848, 0.002399738, 0.520552
MOTB, 36398218, 1, 1, 0, 1
RCIN, 36398222, 0, 0, 0, 0, 0, 0, 0, 0, 0, 0, 0, 0, 0, 0
RCOU, 36398228, 1101, 1101, 1101, 1101, 0, 0, 0, 0, 0, 0, 0, 0, 0, 0
VIBE, 36398237, 0.01996549, 0.01990126, 0.03070724, 0, 0, 0
CTRL, 36398244, 0.006560327, 0.0001654959, 0.001109633, 0.0002386103, 0.0001612744
PRX, 36398275, 2, 0.6, 0, 0.55, 0, 2.49, 0, 2.34, 0, 0, 90, 0.55
IMU, 36435749, 8.396234E-05, -9.568574E-05, -0.001954199, 0.120741, -0.1386662, -9.769886, 0, 0, 41.19099, 1, 1, 998, 998
RFND, 36447931, 0.2, 25, 0, 0
IMU, 36475459, -6.414592E-06, 0.0003757887, 0.000167477, 0.1126147, -0.1474067, -9.801695, 0, 0, 41.19093, 1, 1, 998, 998
MAG, 36495484, 281, 520, 492, 0, 0, 0, 0, 0, 0, 1, 36495476
BARO, 36495530, 0.06499155, 1001.296, 39.74, -0.3382156, 36495, 0, 35
CTUN, 36495542, 0, 0, 0, 0.3215985, 0.07472406, 0.07472406, 0.06, 0, 0.19, 0, 0, 0
RFND, 36497857, 0.2, 25, 0, 0
ATT, 36497974, 0, 0.61, 0, 0.1, 61.74, 61.74, 0, 1
RATE, 36497981, -2.773945, 0.002385852, -0.006489269, -0.4914976, 0.04562575, -0.001144998, 0.002531729, -0.0735333, 0.0002615812, -98.01691, 0.709343, 0
NKF1, 36497988, 0.61, 0.1, 61.74, -0.07199323, 0.03923466, -0.00242017, 0, 0, 0, -0.07472894, 0, -0.01, 0.05
NKF2, 36497988, 2, 0, 0, 0, 0, 0, 0, 0, 0, 0, 0, 0, 0
NKF3, 36497988, 0, 0, 0, -0.12, 0.08, 0, 0, 0, 0, 0, 0
NKF4, 36497988, 0, 0, 0, 0, 0, 5.069111E-06, 0, 0, 0, 19, 229, 0, 0
NKF5, 36497988, 0, 0, 0, 0, 0.2, 0.13, 0, 0.19, 0.5, 4.850678E-05, 0.0009438487, 0.001610428
NKQ1, 36497988, 0.8582792, 0.004228653, 0.009275621, 0.5130819
AHR2, 36498033, 0.6, -0.03, 62.73, 0.06, 0, 0, 0.8538352, 0.004693059, 0.002454134, 0.5205165
MOTB, 36498039, 1, 1, 0, 1
RCIN, 36498043, 0, 0, 0, 0, 0, 0, 0, 0, 0, 0, 0, 0, 0, 0
RCOU, 36498048, 1125, 1125, 1125, 1125, 0, 0, 0, 0, 0, 0, 0, 0, 0, 0
VIBE, 36498057, 0.02227184, 0.0204338, 0.03082887, 0, 0, 0
CTRL, 36498064, 0.006545104, 0.0001475794, 0.001149774, 0.0002128684, 0.0002253228
PRX, 36498095, 2, 0.6, 0, 0.55, 0, 1.59, 0, 2.33, 0, 0, 90, 0.55
IMU, 36515722, 0.0006076968, 0.0004657743, -0.002640531, 0.111323, -0.1515745, -9.779791, 0, 0, 41.19099, 1, 1, 998, 998
RFND, 36547928, 0.2, 25, 0, 0
IMU, 36555461, 0.001288587, 0.0007139773, 0.001358758, 0.1131154, -0.1482029, -9.785036, 0, 0, 41.19104, 1, 1, 998, 998
MAG, 36595381, 277, 525, 484, 0, 0, 0, 0, 0, 0, 1, 36595373
BARO, 36595426, 0.322132, 1001.267, 39.73, -0.1946654, 36595, 0, 35
CTUN, 36595439, 0, 0, 0, 0.3215985, 0.07415424, 0.07415424, 0.32, 0, 0.19, 0, 0, 0
IMU, 36595530, 0.001299056, -0.0008012538, 0.0001426634, 0.1118761, -0.146091, -9.793964, 0, 0, 41.19102, 1, 1, 998, 998
RFND, 36597941, 0.2, 25, 0, 0
ATT, 36598098, 0, 0.61, 0, 0.11, 61.73, 61.73, 0, 1
RATE, 36598104, -2.787389, 0.05637157, -0.006842676, -0.504063, -0.01323885, -0.00111652, 0.002654646, -0.05463125, 0.0002535488, -109.1057, 0.9691238, 0
NKF1, 36598111, 0.61, 0.11, 61.73, -0.07353501, 0.03968491, -0.002693968, 0, 0, 0, -0.07416233, 0, -0.01, 0.05
NKF2, 36598111, 2, 0, 0, 0, 0, 0, 0, 0, 0, 0, 0, 0, 0
NKF3, 36598111, 0, 0, 0, -0.12, 0.08, 0, 0, 0, 0, 0, 0
NKF4, 36598111, 0, 0, 0, 0, 0, 5.672765E-06, 0, 0, 0, 19, 229, 0, 0
NKF5, 36598111, 0, 0, 0, 0, 0.2, 0.13, 0, 0.19, 0.5, 4.67248E-05, 0.0007042165, 0.001019618
NKQ1, 36598111, 0.8583167, 0.004239468, 0.009310338, 0.5130184
AHR2, 36598156, 0.6, -0.03, 62.73, 0.32, 0, 0, 0.8538505, 0.004655097, 0.002518861, 0.5204913
MOTB, 36598162, 1, 1, 0, 1
RCIN, 36598166, 0, 0, 0, 0, 0, 0, 0, 0, 0, 0, 0, 0, 0, 0
RCOU, 36598172, 1149, 1149, 1149, 1149, 0, 0, 0, 0, 0, 0, 0, 0, 0, 0
VIBE, 36598181, 0.01994093, 0.01991589, 0.03512683, 0, 0, 0
CTRL, 36598188, 0.006572196, 0.0001542783, 0.001175573, 0.0001896896, 0.0002491439
PRX, 36598218, 2, 0.6, 0, 0.55, 0, 1.59, 0, 2.75, 0, 0, 90, 0.55
IMU, 36635546, 0.001390355, -0.002171658, 0.0002523255, 0.1220158, -0.1399999, -9.779675, 0, 0, 41.19109, 1, 1, 998, 998
RFND, 36648009, 0.2, 25, 0, 0
IMU, 36675690, -8.994505E-05, -0.0004941121, 0.0004411914, 0.1056324, -0.1503961, -9.780063, 0, 0, 41.19105, 1, 1, 998, 998
MAG, 36695517, 276, 525, 485, 0, 0, 0, 0, 0, 0, 1, 36695509
BARO, 36695634, 0.1695432, 1001.284, 39.74, -0.06804641, 36695, 0, 35
CTUN, 36695647, 0, 0, 0, 0.3215985, 0.07363151, 0.07363151, 0.16, 0, 0.19, 0, 0, 0
RFND, 36697969, 0.2, 25, 0, 0
ATT, 36698037, 0, 0.61, 0, 0.1, 61.72, 61.73, 0, 1
RATE, 36698043, -2.786119, -0.0382873, -0.006497214, -0.4952448, 0.07433615, -0.001794428, 0.002731422, -0.1749942, 0.0002083888, -102.3232, 0.6674767, 0
NKF1, 36698050, 0.61, 0.1, 61.73, -0.07506196, 0.0404212, -0.0025265, 0, 0, 0, -0.07363892, 0, -0.01, 0.05
NKF2, 36698050, 2, 0, 0, 0, 0, 0, 0, 0, 0, 0, 0, 0, 0
NKF3, 36698050, 0, 0, 0, -0.13, 0.09, 0, 0, 0, 0, 0, 0
NKF4, 36698050, 0, 0, 0, 0, 0, 6.350395E-06, 0, 0, 0, 19, 229, 0, 0
NKF5, 36698050, 0, 0, 0, 0, 0.2, 0.13, 0, 0.19, 0.5, 5.070707E-05, 0.0008364814, 0.001218742
NKQ1, 36698050, 0.8583449, 0.004249303, 0.009293088, 0.5129715
AHR2, 36698095, 0.6, -0.02, 62.73, 0.16, 0, 0, 0.853856, 0.00461822, 0.002533542, 0.5204825
MOTB, 36698102, 1, 1, 0, 1
RCIN, 36698107, 0, 0, 0, 0, 0, 0, 0, 0, 0, 0, 0, 0, 0, 0
RCOU, 36698112, 1173, 1173, 1173, 1173, 0, 0, 0, 0, 0, 0, 0, 0, 0, 0
VIBE, 36698121, 0.02874156, 0.03943901, 0.03856897, 0, 0, 0
CTRL, 36698128, 0.006574996, 0.0001498229, 0.001143994, 0.0001907871, 0.000233968
PRX, 36698159, 2, 0.6, 0, 0.55, 0, 2.26, 0, 2.56, 0, 0, 90, 0.55
IMU, 36715707, -0.0003253871, -0.0004091077, 0.001156619, 0.1021883, -0.141599, -9.791363, 0, 0, 41.19141, 1, 1, 998, 998
RFND, 36748068, 0.2, 25, 0, 0
IMU, 36756225, 0.0002676398, -0.0007098351, -0.005102416, 0.1228979, -0.1792226, -9.796367, 0, 0, 41.19234, 1, 1, 998, 998
MAG, 36795376, 282, 525, 484, 0, 0, 0, 0, 0, 0, 1, 36795369
BARO, 36795420, 0.2204061, 1001.278, 39.74, 0.2059238, 36795, 0, 35
CTUN, 36795432, 0, 0, 0, 0.3215985, 0.07324929, 0.07324929, 0.22, 0, 0.19, 0, 0, 0
DU32, 36795463, 7, 33580536
IMU, 36795665, -0.0001399108, 0.004656024, 0.03822541, 0.0762492, -0.1525491, -9.778942, 0, 0, 41.1935, 1, 1, 998, 998
RFND, 36797989, 0.2, 25, 0, 0
ATT, 36798153, 0, 0.62, 0, 0.11, 61.74, 61.75, 0, 1
RATE, 36798159, -2.800056, -0.0006237, -0.006925674, -0.4972123, 0.2542585, -0.001860378, 0.002762255, 2.043537, -0.0007395727, -134.8824, -0.7488251, 0
NKF1, 36798167, 0.62, 0.11, 61.75, -0.0779805, 0.04093764, -0.00333043, 0, 0, 0, -0.07325264, 0, -0.01, 0.05
NKF2, 36798167, 2, 0, 0, 0, 0, 0, 0, 0, 0, 0, 0, 0, 0
NKF3, 36798167, 0, 0, 0, -0.13, 0.09, 0, 0, 0, 0, 0, 0
NKF4, 36798167, 0, 0, 0, 0, 0, 6.982285E-06, 0, 0, 0, 19, 229, 0, 0
NKF5, 36798167, 0, 0, 0, 0, 0.2, 0.13, 0, 0.19, 0.5, 4.817701E-05, 0.0006389585, 0.0007927732
NKQ1, 36798167, 0.8582485, 0.004237241, 0.009346404, 0.513132
AHR2, 36798209, 0.6, -0.01, 62.75, 0.22, 0, 0, 0.853736, 0.00455803, 0.002617814, 0.5206795
MOTB, 36798217, 1, 1, 0, 1
RCIN, 36798221, 0, 0, 0, 0, 0, 0, 0, 0, 0, 0, 0, 0, 0, 0
RCOU, 36798303, 1197, 1197, 1197, 1197, 0, 0, 0, 0, 0, 0, 0, 0, 0, 0
VIBE, 36798313, 0.1673001, 0.2200784, 0.2444604, 0, 0, 0
CTRL, 36798319, 0.006589222, 0.0002372314, 0.001224931, 0.0003212256, 0.0003522013
PRX, 36798350, 2, 0.6, 0, 0.55, 0, 2.08, 0, 2.44, 0, 0, 90, 0.55
IMU, 36835701, -0.0004673926, 0.003259076, 0.003803081, 0.2014163, -0.1093411, -9.818665, 0, 0, 41.19511, 1, 1, 998, 998
RFND, 36847944, 0.2, 25, 0, 0
IMU, 36875536, 0.002628976, -0.001397901, -0.002730107, 0.1469159, -0.09010395, -9.786342, 0, 0, 41.19669, 1, 1, 998, 998
MAG, 36895507, 284, 529, 493, 0, 0, 0, 0, 0, 0, 1, 36895499
BARO, 36895553, 0.4718952, 1001.251, 39.72, 0.3248358, 36895, 0, 35
CTUN, 36895645, 0, 0, 0, 0.3215985, 0.07284746, 0.07284746, 0.47, 0, 0.19, 0, 0, 0
RFND, 36897878, 0.2, 25, 0, 0
ATT, 36897946, 0, 0.62, 0, 0.12, 61.71, 61.72, 0, 1
RATE, 36897952, -2.79767, -0.1281588, -0.004870658, -0.5759619, 0.06185699, -0.001071402, 0.003069947, -0.3671634, 0.0002721225, -176.2896, 0.05750656, 0
NKF1, 36897959, 0.62, 0.12, 61.72, -0.07854334, 0.04221658, -0.00435283, 0, 0, 0, -0.07285733, 0, -0.01, 0.05
NKF2, 36897959, 2, 0, 0, 0, 0, 0, 0, 0, 0, 0, 0, 0, 0
NKF3, 36897959, 0, 0, 0, -0.14, 0.09, 0, 0, 0, 0, 0, 0
NKF4, 36897959, 0, 0, 0, 0, 0, 7.82973E-06, 0, 0, 0, 19, 229, 0, 0
NKF5, 36897959, 0, 0, 0, 0, 0.2, 0.13, 0, 0.19, 0.5, 5.307923E-05, 0.0007849205, 0.001028552
NKQ1, 36897959, 0.8583827, 0.004191027, 0.009434935, 0.512906
AHR2, 36898003, 0.59, 0, 62.73, 0.47, 0, 0, 0.8538496, 0.004455239, 0.002733729, 0.5204935
MOTB, 36898010, 1, 1, 0, 1
RCIN, 36898014, 0, 0, 0, 0, 0, 0, 0, 0, 0, 0, 0, 0, 0, 0
RCOU, 36898020, 1221, 1221, 1221, 1221, 0, 0, 0, 0, 0, 0, 0, 0, 0, 0
VIBE, 36898029, 0.4510331, 0.6931195, 0.4050464, 0, 0, 0
CTRL, 36898034, 0.006644859, 0.0004932304, 0.001351833, 0.0005037058, 0.0003591857
PRX, 36898066, 2, 0.6, 0, 0.55, 0, 1.68, 0, 2.44, 0, 0, 90, 0.55
IMU, 36915881, -0.0005262886, 0.001646807, -8.133388E-05, 0.09705275, -0.1903228, -9.784579, 0, 0, 41.19785, 1, 1, 998, 998
RFND, 36947997, 0.2, 25, 0, 0
IMU, 36955695, 0.003128684, -0.003168699, 0.002390277, 0.1619722, -0.1303418, -9.790915, 0, 0, 41.19877, 1, 1, 998, 998
MAG, 36995660, 284, 532, 490, 0, 0, 0, 0, 0, 0, 1, 36995652
BARO, 36995707, 0.5058038, 1001.247, 39.73, 0.4609456, 36995, 0, 35
CTUN, 36995719, 0, 0, 0, 0.3215985, 0.0726938, 0.0726938, 0.5, 0, 0.19, 0, 0, 0
IMU, 36995818, 0.00388513, -9.944319E-05, 0.02619631, 0.01113235, -0.09807418, -9.828344, 0, 0, 41.19989, 1, 1, 998, 998
RFND, 36997881, 0.2, 25, 0, 0
ATT, 36998416, 0, 0.62, 0, 0.13, 61.74, 61.74, 0, 1
RATE, 36998425, -2.826352, 0.2921624, -0.009662302, -0.5942392, 0.0146128, -0.0008484768, 0.00326979, 1.451345, -0.000504355, -171.3265, 3.420448, 0
NKF1, 36998433, 0.62, 0.13, 61.74, -0.0815881, 0.04086538, -0.004230284, 0, 0, 0, -0.072698, 0, -0.01, 0.05
NKF2, 36998433, 2, 0, 0, 0, 0, 0, 0, 0, 0, 0, 0, 0, 0
NKF3, 36998433, 0, 0, 0, -0.14, 0.09, 0, 0, 0, 0, 0, 0
NKF4, 36998433, 0, 0, 0, 0, 0, 8.506138E-06, 0, 0, 0, 19, 229, 0, 0
NKF5, 36998433, 0, 0, 0, 0, 0.2, 0.13, 0, 0.19, 0.5, 4.968623E-05, 0.0006059811, 0.0007196103
NKQ1, 36998433, 0.858273, 0.004190856, 0.00952279, 0.5130879
AHR2, 36998479, 0.6, 0.01, 62.76, 0.5, 0, 0, 0.8537164, 0.004394417, 0.002851345, 0.5207118
MOTB, 36998532, 1, 1, 0, 1
RCIN, 36998539, 0, 0, 0, 0, 0, 0, 0, 0, 0, 0, 0, 0, 0, 0
RCOU, 36998545, 1237, 1221, 1221, 1239, 0, 0, 0, 0, 0, 0, 0, 0, 0, 0
VIBE, 36998612, 0.4463119, 0.5510097, 0.4774064, 0, 0, 0
CTRL, 36998621, 0.00658977, 0.000756208, 0.001447598, 0.0005591132, 0.0003440697
PRX, 36998651, 2, 0.6, 0, 0.55, 0, 1.68, 0, 2.37, 0, 0, 90, 0.55
IMU, 37035717, -0.004235409, -0.0005230156, 0.007823881, 0.08780269, -0.06804682, -9.817631, 0, 0, 41.20108, 1, 1, 998, 998
RFND, 37047892, 0.2, 25, 0, 0
IMU, 37075650, -0.004343034, 0.0009498399, -0.001217247, 0.07799935, -0.1276484, -9.771739, 0, 0, 41.20226, 1, 1, 998, 998
MAG, 37095480, 282, 535, 489, 0, 0, 0, 0, 0, 0, 1, 37095472
BARO, 37095528, 0.3899493, 1001.26, 39.74, 0.803564, 37095, 0, 35
CTUN, 37095541, 0, 0, 0, 0.3215985, 0.07248697, 0.07248697, 0.38, 0, 0.19, 0, 0, 0
RFND, 37097925, 0.2, 25, 0, 0
ATT, 37097992, 0, 0.62, 0, 0.14, 61.71, 61.72, 0, 1
RATE, 37097998, -2.829794, 0.2047132, -0.008127613, -0.6425361, -0.1210499, -0.0008922548, 0.003408245, -0.1170315, 0.0001146242, -170.3593, -2.013302, 0
NKF1, 37098005, 0.62, 0.14, 61.72, -0.08237147, 0.04225336, -0.004206401, 0, 0, 0, -0.07249827, 0, -0.01, 0.05
NKF2, 37098005, 2, 0, 0, 0, 0, 0, 0, 0, 0, 0, 0, 0, 0
NKF3, 37098005, 0, 0, 0, -0.15, 0.1, 0, 0, 0, 0, 0, 0
NKF4, 37098005, 0, 0, 0, 0, 0, 9.551735E-06, 0, 0, 0, 19, 229, 0, 0
NKF5, 37098005, 0, 0, 0, 0, 0.2, 0.13, 0, 0.19, 0.5, 5.542713E-05, 0.0007672487, 0.001024198
NKQ1, 37098005, 0.8583907, 0.004175053, 0.009581766, 0.5128902
AHR2, 37098050, 0.59, 0.03, 62.73, 0.38, 0, 0, 0.8538131, 0.004289919, 0.002949482, 0.5205536
MOTB, 37098057, 1, 1, 0, 1
RCIN, 37098061, 0, 0, 0, 0, 0, 0, 0, 0, 0, 0, 0, 0, 0, 0
RCOU, 37098067, 1235, 1222, 1221, 1236, 0, 0, 0, 0, 0, 0, 0, 0, 0, 0
VIBE, 37098076, 0.377428, 0.4090514, 0.4282422, 0, 0, 0
CTRL, 37098082, 0.006655939, 0.001082252, 0.001597457, 0.001039275, 0.0003263421
PRX, 37098114, 2, 0.6, 0, 0.55, 0, 2.32, 0, 2.32, 0, 0, 90, 0.55
IMU, 37115663, -0.003014782, -1.926514E-06, -0.006701509, 0.1078737, -0.1648689, -9.779442, 0, 0, 41.20333, 1, 1, 998, 998
RFND, 37147904, 0.2, 25, 0, 0
IMU, 37155687, 0.0004936081, -0.006161231, -0.003042107, 0.1489906, -0.1617883, -9.775276, 0, 0, 41.20439, 1, 1, 998, 998
MAG, 37195496, 282, 541, 491, 0, 0, 0, 0, 0, 0, 1, 37195488
BARO, 37195542, 0.5029781, 1001.247, 39.73, 0.777956, 37195, 0, 35
CTUN, 37195554, 0, 0, 0, 0.3215985, 0.07234532, 0.07234532, 0.5, 0, 0.19, 0, 0, 0
IMU, 37195728, 0.002758495, -0.003808104, -0.003990632, 0.1237007, -0.1296089, -9.793488, 0, 0, 41.2041, 1, 1, 998, 998
RFND, 37197979, 0.2, 25, 0, 0
ATT, 37198110, 0, 0.62, 0, 0.14, 61.7, 61.71, 0, 1
RATE, 37198116, -2.796595, 0.1524349, -0.007582931, -0.6581632, -0.2249275, 0.0002451846, 0.003577657, -0.2209082, 0.0003910213, -140.6468, 0.8291245, 0
NKF1, 37198123, 0.62, 0.14, 61.71, -0.08512934, 0.0426307, -0.003472761, 0, 0, 0, -0.07234861, 0, -0.01, 0.05
NKF2, 37198123, 2, 0, 0, 0, 0, 0, 0, 0, 0, 0, 0, 0, 0
NKF3, 37198123, 0, 0, 0, -0.16, 0.11, 0, 0, 0, 0, 0, 0
NKF4, 37198123, 0, 0, 0, 0, 0, 1.039934E-05, 0, 0, 0, 19, 229, 0, 0
NKF5, 37198123, 0, 0, 0, 0, 0.2, 0.13, 0, 0.19, 0.5, 6.268222E-05, 0.00109588, 0.001841387
NKQ1, 37198123, 0.8584216, 0.004106558, 0.009573121, 0.5128389
AHR2, 37198166, 0.58, 0.04, 62.73, 0.5, 0, 0, 0.8538222, 0.004139555, 0.002979252, 0.5205398
MOTB, 37198173, 1, 1, 0, 1
RCIN, 37198178, 0, 0, 0, 0, 0, 0, 0, 0, 0, 0, 0, 0, 0, 0
RCOU, 37198183, 1235, 1221, 1221, 1233, 0, 0, 0, 0, 0, 0, 0, 0, 0, 0
VIBE, 37198192, 0.3273014, 0.3584568, 0.413796, 0, 0, 0
CTRL, 37198198, 0.006609163, 0.001058657, 0.001649873, 0.001123407, 0.0003225493
PRX, 37198228, 2, 0.6, 0, 0.55, 0, 2.11, 0, 2.28, 0, 0, 90, 0.55
IMU, 37235536, -0.004375788, 0.005338553, 0.0008507461, 0.153113, -0.08595737, -9.764376, 0, 0, 41.20324, 1, 1, 998, 998
RFND, 37248453, 0.2, 25, 0, 0
IMU, 37275666, -0.005999832, 0.002183702, 0.01146364, 0.1660288, -0.1128473, -9.776583, 0, 0, 41.19964, 1, 1, 998, 998
MAG, 37295515, 282, 537, 490, 0, 0, 0, 0, 0, 0, 1, 37295506
BARO, 37295632, 0.3306092, 1001.266, 39.74, 0.2755077, 37295, 0, 35
CTUN, 37295646, 0, 0, 0, 0.3215985, 0.07208633, 0.07208633, 0.33, 0, 0.19, 0, 0, 0
RFND, 37298536, 0.2, 25, 0, 0
ATT, 37298677, 0, 0.62, 0, 0.14, 61.7, 61.71, 0, 1
RATE, 37298684, -2.800206, 0.2928303, -0.008531219, -0.6548393, -0.05339698, -0.0008428757, 0.003454663, -0.2662154, 6.417283E-05, -88.24891, 0.6034851, 0
NKF1, 37298692, 0.62, 0.14, 61.71, -0.08828344, 0.04302457, -0.002178985, 0, 0, 0, -0.07209367, 0, -0.01, 0.05
NKF2, 37298692, 2, 0, 0, 0, 0, 0, 0, 0, 0, 0, 0, 0, 0
NKF3, 37298692, 0, 0, 0, -0.16, 0.11, 0, 0, 0, 0, 0, 0
NKF4, 37298692, 0, 0, 0, 0, 0, 1.153129E-05, 0, 0, 0, 19, 229, 0, 0
NKF5, 37298692, 0, 0, 0, 0, 0.2, 0.13, 0, 0.19, 0.5, 5.844202E-05, 0.0007674206, 0.001100673
NKQ1, 37298692, 0.8584269, 0.004115402, 0.009569218, 0.5128301
AHR2, 37298741, 0.58, 0.05, 62.74, 0.33, 0, 0, 0.8538045, 0.004096864, 0.003012167, 0.520569
MOTB, 37298748, 1, 1, 0, 1
RCIN, 37298752, 0, 0, 0, 0, 0, 0, 0, 0, 0, 0, 0, 0, 0, 0
RCOU, 37298757, 1236, 1222, 1221, 1237, 0, 0, 0, 0, 0, 0, 0, 0, 0, 0
VIBE, 37298767, 0.3083584, 0.3550222, 0.3890458, 0, 0, 0
CTRL, 37298773, 0.006593639, 0.001165247, 0.001641481, 0.001143203, 0.0002932329
PRX, 37298820, 2, 0.6, 0, 0.55, 0, 2.11, 0, 2.25, 0, 0, 90, 0.55
IMU, 37315554, 0.0001392523, -0.005542848, 0.0008781316, 0.06044042, -0.1583818, -9.761645, 0, 0, 41.1929, 1, 1, 998, 998
RFND, 37347984, 0.2, 25, 0, 0
IMU, 37355660, 0.005477554, -0.005780548, -0.004041457, 0.06085674, -0.1458519, -9.779113, 0, 0, 41.18321, 1, 1, 998, 998
MAG, 37395670, 283, 533, 490, 0, 0, 0, 0, 0, 0, 1, 37395662
BARO, 37395717, 0.2430119, 1001.276, 39.73, -0.1739584, 37395, 0, 35
CTUN, 37395730, 0, 0, 0, 0.3215985, 0.07171072, 0.07171072, 0.24, 0, 0.19, 0, 0, 0
IMU, 37395880, 0.002570787, -0.0008086031, -0.000998488, 0.2142497, -0.1110021, -9.775683, 0, 0, 41.17183, 1, 1, 998, 998
RFND, 37397919, 0.2, 25, 0, 0
ATT, 37398051, 0, 0.61, 0, 0.15, 61.7, 61.71, 0, 1
RATE, 37398058, -2.780524, 0.1595749, -0.008107983, -0.6778107, 0.03454661, -0.001905969, 0.00360868, -0.01364348, 0.000197352, 39.97445, -3.086472, 0
NKF1, 37398066, 0.61, 0.15, 61.71, -0.08906, 0.04473792, 0.0009870233, 0, 0, 0, -0.07170875, 0, -0.01, 0.05
NKF2, 37398066, 2, 0, 0, 0, 0, 0, 0, 0, 0, 0, 0, 0, 0
NKF3, 37398066, 0, 0, 0, -0.18, 0.11, 0, 0, 0, 0, 0, 0
NKF4, 37398066, 0, 0, 0, 0, 0, 1.26289E-05, 0, 0, 0, 19, 229, 0, 0
NKF5, 37398066, 0, 0, 0, 0, 0.2, 0.13, 0, 0.19, 0.5, 6.723671E-05, 0.001128426, 0.002098458
NKQ1, 37398066, 0.8584344, 0.004056141, 0.009591745, 0.5128175
AHR2, 37398109, 0.57, 0.06, 62.74, 0.24, 0, 0, 0.8537899, 0.003985976, 0.003070208, 0.5205935
MOTB, 37398116, 1, 1, 0, 1
RCIN, 37398120, 0, 0, 0, 0, 0, 0, 0, 0, 0, 0, 0, 0, 0, 0
RCOU, 37398126, 1235, 1224, 1221, 1238, 0, 0, 0, 0, 0, 0, 0, 0, 0, 0
VIBE, 37398135, 0.3312962, 0.3696842, 0.3895506, 0, 0, 0
CTRL, 37398141, 0.006569224, 0.001151963, 0.001655038, 0.001192561, 0.0002516821
PRX, 37398172, 2, 0.6, 0, 0.55, 0, 1.69, 0, 2.22, 0, 0, 90, 0.55
IMU, 37435691, -0.002114609, 0.003965725, -0.000480324, 0.1307498, -0.1217483, -9.762278, 0, 0, 41.15895, 1, 1, 998, 998
RFND, 37448248, 0.2, 25, 0, 0
IMU, 37475645, -0.001820272, -0.002246056, -0.002154317, 0.141431, -0.1597752, -9.742476, 0, 0, 41.14497, 1, 1, 998, 998
MAG, 37495501, 280, 536, 490, 0, 0, 0, 0, 0, 0, 1, 37495493
BARO, 37495654, 0.1299831, 1001.288, 39.71, -0.5280564, 37495, 0, 35
CTUN, 37495667, 0, 0, 0, 0.3215985, 0.07103395, 0.07103395, 0.12, 0, 0.19, 0, 0, 0
RFND, 37497938, 0.2, 25, 0, 0
ATT, 37498007, 0, 0.61, 0, 0.13, 61.69, 61.69, 0, 1
