FMT, 128, 89, FMT, BBnNZ, Type,Length,Name,Format,Columns
FMT, 129, 31, PARM, QNf, TimeUS,Name,Value
FMT, 130, 46, GPS, QBIHBcLLefffB, TimeUS,Status,GMS,GWk,NSats,HDop,Lat,Lng,Alt,Spd,GCrs,VZ,U
FMT, 131, 46, GPS2, QBIHBcLLefffB, TimeUS,Status,GMS,GWk,NSats,HDop,Lat,Lng,Alt,Spd,GCrs,VZ,U
FMT, 132, 46, GPSB, QBIHBcLLefffB, TimeUS,Status,GMS,GWk,NSats,HDop,Lat,Lng,Alt,Spd,GCrs,VZ,U
FMT, 193, 24, GPA, QCCCCBI, TimeUS,VDop,HAcc,VAcc,SAcc,VV,SMS
FMT, 194, 24, GPA2, QCCCCBI, TimeUS,VDop,HAcc,VAcc,SAcc,VV,SMS
FMT, 195, 24, GPAB, QCCCCBI, TimeUS,VDop,HAcc,VAcc,SAcc,VV,SMS
FMT, 133, 53, IMU, QffffffIIfBBHH, TimeUS,GyrX,GyrY,GyrZ,AccX,AccY,AccZ,EG,EA,T,GH,AH,GHz,AHz
FMT, 134, 75, MSG, QZ, TimeUS,Message
FMT, 135, 39, RCIN, QHHHHHHHHHHHHHH, TimeUS,C1,C2,C3,C4,C5,C6,C7,C8,C9,C10,C11,C12,C13,C14
FMT, 136, 39, RCOU, QHHHHHHHHHHHHHH, TimeUS,C1,C2,C3,C4,C5,C6,C7,C8,C9,C10,C11,C12,C13,C14
FMT, 137, 15, RSSI, Qf, TimeUS,RXRSSI
FMT, 139, 37, BARO, QffcfIff, TimeUS,Alt,Press,Temp,CRt,SMS,Offset,GndTemp
FMT, 140, 22, POWR, QffHB, TimeUS,Vcc,VServo,Flags,Safety
FMT, 143, 45, CMD, QHHHfffffff, TimeUS,CTot,CNum,CId,Prm1,Prm2,Prm3,Prm4,Lat,Lng,Alt
FMT, 144, 20, RAD, QBBBBBHH, TimeUS,RSSI,RemRSSI,TxBuf,Noise,RemNoise,RxErrors,Fixed
FMT, 146, 43, CAM, QIHLLeeeccC, TimeUS,GPSTime,GPSWeek,Lat,Lng,Alt,RelAlt,GPSAlt,Roll,Pitch,Yaw
FMT, 232, 43, TRIG, QIHLLeeeccC, TimeUS,GPSTime,GPSWeek,Lat,Lng,Alt,RelAlt,GPSAlt,Roll,Pitch,Yaw
FMT, 162, 30, ARSP, QffcffB, TimeUS,Airspeed,DiffPress,Temp,RawPress,Offset,U
FMT, 164, 45, CURR, QfffcHHHHHHHHHH, TimeUS,Volt,Curr,CurrTot,Temp,V1,V2,V3,V4,V5,V6,V7,V8,V9,V10
FMT, 165, 45, CUR2, QfffcHHHHHHHHHH, TimeUS,Volt,Curr,CurrTot,Temp,V1,V2,V3,V4,V5,V6,V7,V8,V9,V10
FMT, 163, 27, ATT, QccccCCCC, TimeUS,DesRoll,Roll,DesPitch,Pitch,DesYaw,Yaw,ErrRP,ErrYaw
FMT, 166, 34, MAG, QhhhhhhhhhBI, TimeUS,MagX,MagY,MagZ,OfsX,OfsY,OfsZ,MOfsX,MOfsY,MOfsZ,Health,S
FMT, 169, 14, MODE, QMBB, TimeUS,Mode,ModeNum,Rsn
FMT, 196, 17, RFND, QCBCB, TimeUS,Dist1,Orient1,Dist2,Orient2
FMT, 223, 33, DMS, IIIIIBBBBBBBBBB, TimeMS,N,Dp,RT,RS,Er,Fa,Fmn,Fmx,Pa,Pmn,Pmx,Sa,Smn,Smx
FMT, 240, 41, BCN, QBBfffffff, TimeUS,Health,Cnt,D0,D1,D2,D3,PosX,PosY,PosZ
FMT, 138, 53, IMU2, QffffffIIfBBHH, TimeUS,GyrX,GyrY,GyrZ,AccX,AccY,AccZ,EG,EA,T,GH,AH,GHz,AHz
FMT, 147, 53, IMU3, QffffffIIfBBHH, TimeUS,GyrX,GyrY,GyrZ,AccX,AccY,AccZ,EG,EA,T,GH,AH,GHz,AHz
FMT, 141, 45, AHR2, QccCfLLffff, TimeUS,Roll,Pitch,Yaw,Alt,Lat,Lng,Q1,Q2,Q3,Q4
FMT, 180, 31, POS, QLLfff, TimeUS,Lat,Lng,Alt,RelHomeAlt,RelOriginAlt
FMT, 142, 45, SIM, QccCfLLffff, TimeUS,Roll,Pitch,Yaw,Alt,Lat,Lng,Q1,Q2,Q3,Q4
FMT, 198, 51, NKF1, QccCfffffffccc, TimeUS,Roll,Pitch,Yaw,VN,VE,VD,dPD,PN,PE,PD,GX,GY,GZ
FMT, 199, 35, NKF2, QbccccchhhhhhB, TimeUS,AZbias,GSX,GSY,GSZ,VWN,VWE,MN,ME,MD,MX,MY,MZ,MI
FMT, 200, 33, NKF3, Qcccccchhhcc, TimeUS,IVN,IVE,IVD,IPN,IPE,IPD,IMX,IMY,IMZ,IYAW,IVT
FMT, 201, 35, NKF4, QcccccfbbHBHHb, TimeUS,SV,SP,SH,SM,SVT,errRP,OFN,OFE,FS,TS,SS,GPS,PI
FMT, 202, 40, NKF5, QBhhhcccCCfff, TimeUS,NI,FIX,FIY,AFI,HAGL,offset,RI,rng,Herr,eAng,eVel,ePos
FMT, 203, 51, NKF6, QccCfffffffccc, TimeUS,Roll,Pitch,Yaw,VN,VE,VD,dPD,PN,PE,PD,GX,GY,GZ
FMT, 204, 35, NKF7, QbccccchhhhhhB, TimeUS,AZbias,GSX,GSY,GSZ,VWN,VWE,MN,ME,MD,MX,MY,MZ,MI
FMT, 205, 33, NKF8, Qcccccchhhcc, TimeUS,IVN,IVE,IVD,IPN,IPE,IPD,IMX,IMY,IMZ,IYAW,IVT
FMT, 206, 35, NKF9, QcccccfbbHBHHb, TimeUS,SV,SP,SH,SM,SVT,errRP,OFN,OFE,FS,TS,SS,GPS,PI
FMT, 207, 36, NKF0, QBccCCcccccccc, TimeUS,ID,rng,innov,SIV,TR,BPN,BPE,BPD,OFH,OFL,OFN,OFE,OFD
FMT, 208, 27, NKQ1, Qffff, TimeUS,Q1,Q2,Q3,Q4
FMT, 209, 27, NKQ2, Qffff, TimeUS,Q1,Q2,Q3,Q4
FMT, 210, 51, XKF1, QccCfffffffccc, TimeUS,Roll,Pitch,Yaw,VN,VE,VD,dPD,PN,PE,PD,GX,GY,GZ
FMT, 211, 34, XKF2, QccccchhhhhhB, TimeUS,AX,AY,AZ,VWN,VWE,MN,ME,MD,MX,MY,MZ,MI
FMT, 212, 33, XKF3, Qcccccchhhcc, TimeUS,IVN,IVE,IVD,IPN,IPE,IPD,IMX,IMY,IMZ,IYAW,IVT
FMT, 213, 35, XKF4, QcccccfbbHBHHb, TimeUS,SV,SP,SH,SM,SVT,errRP,OFN,OFE,FS,TS,SS,GPS,PI
FMT, 214, 40, XKF5, QBhhhcccCCfff, TimeUS,NI,FIX,FIY,AFI,HAGL,offset,RI,rng,Herr,eAng,eVel,ePos
FMT, 215, 51, XKF6, QccCfffffffccc, TimeUS,Roll,Pitch,Yaw,VN,VE,VD,dPD,PN,PE,PD,GX,GY,GZ
FMT, 216, 34, XKF7, QccccchhhhhhB, TimeUS,AX,AY,AZ,VWN,VWE,MN,ME,MD,MX,MY,MZ,MI
FMT, 217, 33, XKF8, Qcccccchhhcc, TimeUS,IVN,IVE,IVD,IPN,IPE,IPD,IMX,IMY,IMZ,IYAW,IVT
FMT, 218, 35, XKF9, QcccccfbbHBHHb, TimeUS,SV,SP,SH,SM,SVT,errRP,OFN,OFE,FS,TS,SS,GPS,PI
FMT, 219, 36, XKF0, QBccCCcccccccc, TimeUS,ID,rng,innov,SIV,TR,BPN,BPE,BPD,OFH,OFL,OFN,OFE,OFD
FMT, 220, 27, XKQ1, Qffff, TimeUS,Q1,Q2,Q3,Q4
FMT, 221, 27, XKQ2, Qffff, TimeUS,Q1,Q2,Q3,Q4
FMT, 222, 35, XKFD, Qffffff, TimeUS,IX,IY,IZ,IVX,IVY,IVZ
FMT, 148, 34, TERR, QBLLHffHH, TimeUS,Status,Lat,Lng,Spacing,TerrH,CHeight,Pending,Loaded
FMT, 149, 18, UBX1, QBHBBH, TimeUS,Instance,noisePerMS,jamInd,aPower,agcCnt
FMT, 150, 16, UBX2, QBbBbB, TimeUS,Instance,ofsI,magI,ofsQ,magQ
FMT, 151, 18, UBY1, QBHBBH, TimeUS,Instance,noisePerMS,jamInd,aPower,agcCnt
FMT, 152, 16, UBY2, QBbBbB, TimeUS,Instance,ofsI,magI,ofsQ,magQ
FMT, 170, 42, GRAW, QIHBBddfBbB, TimeUS,WkMS,Week,numSV,sv,cpMes,prMes,doMes,mesQI,cno,lli
FMT, 171, 24, GRXH, QdHbBB, TimeUS,rcvTime,week,leapS,numMeas,recStat
FMT, 172, 41, GRXS, QddfBBBHBBBBB, TimeUS,prMes,cpMes,doMes,gnss,sv,freq,lock,cno,prD,cpD,doD,trk
FMT, 173, 63, SBFE, QIHBBdddfffff, TimeUS,TOW,WN,Mode,Err,Lat,Lng,Height,Undul,Vn,Ve,Vu,COG
FMT, 153, 19, ESC1, Qcccc, TimeUS,RPM,Volt,Curr,Temp
FMT, 154, 19, ESC2, Qcccc, TimeUS,RPM,Volt,Curr,Temp
FMT, 155, 19, ESC3, Qcccc, TimeUS,RPM,Volt,Curr,Temp
FMT, 156, 19, ESC4, Qcccc, TimeUS,RPM,Volt,Curr,Temp
FMT, 157, 19, ESC5, Qcccc, TimeUS,RPM,Volt,Curr,Temp
FMT, 158, 19, ESC6, Qcccc, TimeUS,RPM,Volt,Curr,Temp
FMT, 159, 19, ESC7, Qcccc, TimeUS,RPM,Volt,Curr,Temp
FMT, 160, 19, ESC8, Qcccc, TimeUS,RPM,Volt,Curr,Temp
FMT, 167, 34, MAG2, QhhhhhhhhhBI, TimeUS,MagX,MagY,MagZ,OfsX,OfsY,OfsZ,MOfsX,MOfsY,MOfsZ,Health,S
FMT, 168, 34, MAG3, QhhhhhhhhhBI, TimeUS,MagX,MagY,MagZ,OfsX,OfsY,OfsZ,MOfsX,MOfsY,MOfsZ,Health,S
FMT, 174, 31, ACC1, QQfff, TimeUS,SampleUS,AccX,AccY,AccZ
FMT, 175, 31, ACC2, QQfff, TimeUS,SampleUS,AccX,AccY,AccZ
FMT, 176, 31, ACC3, QQfff, TimeUS,SampleUS,AccX,AccY,AccZ
FMT, 177, 31, GYR1, QQfff, TimeUS,SampleUS,GyrX,GyrY,GyrZ
FMT, 178, 31, GYR2, QQfff, TimeUS,SampleUS,GyrX,GyrY,GyrZ
FMT, 179, 31, GYR3, QQfff, TimeUS,SampleUS,GyrX,GyrY,GyrZ
FMT, 181, 35, PIDR, Qffffff, TimeUS,Des,P,I,D,FF,AFF
FMT, 182, 35, PIDP, Qffffff, TimeUS,Des,P,I,D,FF,AFF
FMT, 183, 35, PIDY, Qffffff, TimeUS,Des,P,I,D,FF,AFF
FMT, 184, 35, PIDA, Qffffff, TimeUS,Des,P,I,D,FF,AFF
FMT, 185, 35, PIDS, Qffffff, TimeUS,Des,P,I,D,FF,AFF
FMT, 186, 35, PIDL, Qffffff, TimeUS,Des,P,I,D,FF,AFF
FMT, 161, 37, BAR2, QffcfIff, TimeUS,Alt,Press,Temp,CRt,SMS,Offset,GndTemp
FMT, 197, 37, BAR3, QffcfIff, TimeUS,Alt,Press,Temp,CRt,SMS,Offset,GndTemp
FMT, 187, 35, VIBE, QfffIII, TimeUS,VibeX,VibeY,VibeZ,Clip0,Clip1,Clip2
FMT, 188, 47, IMT, Qfffffffff, TimeUS,DelT,DelvT,DelaT,DelAX,DelAY,DelAZ,DelVX,DelVY,DelVZ
FMT, 189, 47, IMT2, Qfffffffff, TimeUS,DelT,DelvT,DelaT,DelAX,DelAY,DelAZ,DelVX,DelVY,DelVZ
FMT, 190, 47, IMT3, Qfffffffff, TimeUS,DelT,DelvT,DelaT,DelAX,DelAY,DelAZ,DelVX,DelVY,DelVZ
FMT, 191, 24, ORGN, QBLLe, TimeUS,Type,Lat,Lng,Alt
FMT, 192, 19, RPM, Qff, TimeUS,rpm1,rpm2
FMT, 233, 47, GMB1, Iffffffffff, TimeMS,dt,dax,day,daz,dvx,dvy,dvz,jx,jy,jz
FMT, 234, 44, GMB2, IBfffffffff, TimeMS,es,ex,ey,ez,rx,ry,rz,tx,ty,tz
FMT, 235, 13, GMB3, Ihhh, TimeMS,rl_torque_cmd,el_torque_cmd,az_torque_cmd
FMT, 236, 59, RATE, Qffffffffffff, TimeUS,RDes,R,ROut,PDes,P,POut,YDes,Y,YOut,ADes,A,AOut
FMT, 237, 23, RALY, QBBLLh, TimeUS,Tot,Seq,Lat,Lng,Alt
FMT, 238, 43, VISO, Qffffffff, TimeUS,dt,AngDX,AngDY,AngDZ,PosDX,PosDY,PosDZ,conf
FMT, 224, 23, SBPH, QIII, TimeUS,CrcError,LastInject,IARhyp
FMT, 229, 80, SBR1, QHHBZ, TimeUS,msg_type,sender_id,msg_len,d1
FMT, 230, 205, SBR2, QHZZZ, TimeUS,msg_type,d2,d3,d4
FMT, 25, 41, ATUN, QBBfffffff, TimeUS,Axis,TuneStep,Targ,Min,Max,RP,RD,SP,ddt
FMT, 26, 19, ATDE, Qff, TimeUS,Angle,Rate
FMT, 31, 22, PTUN, QBfHHH, TimeUS,Param,TunVal,CtrlIn,TunLo,TunHi
FMT, 12, 28, OF, QBffff, TimeUS,Qual,flowX,flowY,bodyX,bodyY
FMT, 5, 51, NTUN, Qffffffffff, TimeUS,DPosX,DPosY,PosX,PosY,DVelX,DVelY,VelX,VelY,DAccX,DAccY
FMT, 4, 51, CTUN, Qffffffeccfhh, TimeUS,ThI,ABst,ThO,ThH,DAlt,Alt,BAlt,DSAlt,SAlt,TAlt,DCRt,CRt
FMT, 6, 32, PM, QHHIhBHII, TimeUS,NLon,NLoop,MaxT,PMT,I2CErr,INSErr,LogDrop,Mem
FMT, 30, 27, MOTB, Qffff, TimeUS,LiftMax,BatVolt,BatRes,ThLimit
FMT, 13, 12, EV, QB, TimeUS,Id
FMT, 20, 14, D16, QBh, TimeUS,Id,Value
FMT, 21, 14, DU16, QBH, TimeUS,Id,Value
FMT, 22, 16, D32, QBi, TimeUS,Id,Value
FMT, 23, 16, DU32, QBI, TimeUS,Id,Value
FMT, 24, 16, DFLT, QBf, TimeUS,Id,Value
FMT, 19, 13, ERR, QBB, TimeUS,Subsys,ECode
FMT, 32, 19, HELI, Qff, TimeUS,DRRPM,ERRPM
FMT, 33, 29, PL, QBBffff, TimeUS,Heal,TAcq,pX,pY,vX,vY
FMT, 34, 36, GUID, QBffffff, TimeUS,Type,pX,pY,pZ,vX,vY,vZ
FMT, 35, 32, THRO, QBffffbbbb, TimeUS,Stage,Vel,VelZ,Acc,AccEfZ,Throw,AttOk,HgtOk,PosOk
FMT, 36, 56, PRX, QBfffffffffff, TimeUS,Health,D0,D45,D90,D135,D180,D225,D270,D315,DUp,CAn,CDis
MODE, 122858349, 2, 2, 2
FMT, 254, 47, NKT1, QIffffffff, TimeUS,Cnt,IMUMin,IMUMax,EKFMin,EKFMax,AngMin,AngMax,VelMin,VelM
FMT, 253, 31, CTRL, Qfffff, TimeUS,RMSRollP,RMSRollD,RMSPitchP,RMSPitchD,RMSYaw
MSG, 123042249, APM:Copter V3.5.7 (15576f2a)
MSG, 123042255, New mission
MSG, 123042266, Frame: QUAD
MODE, 123042270, AltHold, 2, 2
IMU, 123046856, 0.0001732465, 0.001046224, 0.001024907, 0.2301924, -0.1287737, -9.777149, 0, 0, 43.05046, 1, 1, 998, 998
RFND, 123076613, 0.2, 25, 0, 0
IMU, 123086717, -0.0001925776, -0.002791618, -9.636974E-06, 0.233634, -0.1239756, -9.775263, 0, 0, 43.04994, 1, 1, 998, 998
MAG, 123126713, 4, 371, 480, 0, 0, 0, 0, 0, 0, 1, 123126704
RFND, 123126743, 0.2, 25, 0, 0
BARO, 123126781, 0.9918275, 1001.064, 41.7, 0.06522999, 123126, 0, 35
CTUN, 123126793, 0, 0, 0, 0.3206044, 0.0333227, 0.0333227, 0.99, 0, 0.19, 0, 0, -2
ATT, 123126893, 0, 0.33, 0, 0.85, 271.51, 271.53, 0, 1
RATE, 123126899, -1.486529, -0.01155329, -0.003452294, -3.847173, -0.05047855, -0.009064455, 0.01216832, -0.007450724, 4.034151E-05, 862.8361, -1.632023, 0
NKF1, 123126906, 0.33, 0.85, 271.52, -0.04622186, 0.0467791, 0.0213046, 0, 0, 0, -0.0333227, -0.01, 0, 0
NKF2, 123126906, 3, 0, 0, 0, 0, 0, 0, 0, 0, 0, 0, 0, 0
NKF3, 123126906, 0, 0, 0, -0.05, 0.07, 0.02, 0, 0, 0, 0, 0
NKF4, 123126906, 0, 0, 0.01, 0, 0, 7.418354E-05, 0, 0, 0, 19, 229, 0, 0
NKF5, 123126906, 0, 0, 0, 0, 0.17, 0.13, 0, 0.19, 0.5, 0.0002154315, 0.006469471, 0.01334923
NKQ1, 123126906, 0.7163137, 0.01280394, 0.004702406, -0.6976451
AHR2, 123126984, 0.43, 0.88, 271.67, 0.9899999, 0, 0, 0.7173263, 0.008083095, 0.002867574, -0.6966847
MOTB, 123126993, 1, 1, 0, 1
RCIN, 123126998, 0, 0, 0, 0, 0, 0, 0, 0, 0, 0, 0, 0, 0, 0
RCOU, 123127003, 1101, 1101, 1101, 1101, 0, 0, 0, 0, 0, 0, 0, 0, 0, 0
VIBE, 123127012, 0.02388299, 0.01719348, 0.03422445, 0, 0, 0
CTRL, 123127018, 0.003444181, 0.0001558883, 0.009186228, 0.0002623299, 6.593305E-05
PRX, 123127050, 2, 3.58, 0, 0.57, 0, 3.58, 0, 3.58, 0, 0, 90, 0.57
IMU, 123127057, -0.0004111364, -0.001002338, -9.84896E-05, 0.2326947, -0.1355474, -9.753767, 0, 0, 43.05064, 1, 1, 998, 998
IMU, 123166751, 0.0008479934, -0.001551903, -0.0001230655, 0.2318053, -0.1351947, -9.761522, 0, 0, 43.05052, 1, 1, 998, 998
RFND, 123176689, 0.2, 25, 0, 0
IMU, 123206723, -0.0009826492, -0.0003280746, 0.001858303, 0.2191163, -0.1324324, -9.776135, 0, 0, 43.05029, 1, 1, 998, 998
MAG, 123226672, -4, 371, 480, 0, 0, 0, 0, 0, 0, 1, 123226663
RFND, 123226702, 0.2, 25, 0, 0
BARO, 123226740, 0.9890018, 1001.065, 41.7, -0.1741526, 123226, 0, 35
CTUN, 123226753, 0, 0, 0, 0.3206044, 0.03322148, 0.03322148, 0.98, 0, 0.19, 0, 0, -2
ATT, 123226855, 0, 0.33, 0, 0.85, 271.52, 271.53, 0, 1
RATE, 123226862, -1.495, -0.001317904, -0.003575775, -3.834609, -0.02618167, -0.008822566, 0.009939855, 0.08777303, -8.223891E-05, 836.0991, -1.763248, 0
NKF1, 123226871, 0.33, 0.85, 271.52, -0.04684388, 0.04688003, 0.02064442, 0, 0, 0, -0.03322148, -0.01, 0, 0
NKF2, 123226871, 3, 0, 0, 0, 0, 0, 0, 0, 0, 0, 0, 0, 0
NKF3, 123226871, 0, 0, 0, -0.05, 0.07, 0.02, 0, 0, 0, 0, 0
NKF4, 123226871, 0, 0, 0.01, 0, 0, 4.970852E-05, 0, 0, 0, 19, 229, 0, 0
NKF5, 123226871, 0, 0, 0, 0, 0.17, 0.13, 0, 0.19, 0.5, 0.0001317914, 0.00748963, 0.0156765
NKQ1, 123226871, 0.7163415, 0.01279685, 0.00467647, -0.6976169
AHR2, 123226917, 0.43, 0.87, 271.68, 0.98, 0, 0, 0.717356, 0.00807483, 0.002859997, -0.6966541
MOTB, 123226956, 1, 1, 0, 1
RCIN, 123226961, 0, 0, 0, 0, 0, 0, 0, 0, 0, 0, 0, 0, 0, 0
RCOU, 123226967, 1101, 1101, 1101, 1101, 0, 0, 0, 0, 0, 0, 0, 0, 0, 0
VIBE, 123226976, 0.02111446, 0.01866808, 0.03815103, 0, 0, 0
CTRL, 123226982, 0.003470329, 0.0001630007, 0.009137662, 0.0002409434, 5.697508E-05
PRX, 123227014, 2, 3.58, 0, 0.57, 0, 3.58, 0, 3.58, 0, 0, 90, 0.57
IMU, 123247049, 0.000697885, -0.001038845, 0.000860291, 0.2368488, -0.1325776, -9.786837, 0, 0, 43.05023, 1, 1, 998, 998
RFND, 123277316, 0.2, 25, 0, 0
IMU, 123286759, 2.371688E-05, -0.0004202599, -0.0004008274, 0.2298421, -0.1259767, -9.777958, 0, 0, 43.05051, 1, 1, 998, 998
MAG, 123326675, 0, 366, 483, 0, 0, 0, 0, 0, 0, 1, 123326667
RFND, 123326705, 0.2, 25, 0, 0
BARO, 123326744, 0.9890018, 1001.065, 41.7, -0.2063884, 123326, 0, 35
CTUN, 123326757, 0, 0, 0, 0.3206044, 0.0338673, 0.0338673, 0.98, 0, 0.19, 0, 0, -1
ATT, 123326910, 0, 0.33, 0, 0.84, 271.52, 271.53, 0, 1
RATE, 123326916, -1.496785, -0.01495345, -0.003512325, -3.819417, -0.02644539, -0.008984259, 0.01387389, -0.0001787671, 5.562134E-06, 809.656, -0.9471893, 0
NKF1, 123326959, 0.33, 0.84, 271.52, -0.04733765, 0.04706005, 0.01999151, 0, 0, 0, -0.0338673, -0.01, 0, 0
NKF2, 123326959, 3, 0, 0, 0, 0, 0, 0, 0, 0, 0, 0, 0, 0
NKF3, 123326959, 0, 0, 0, -0.06, 0.07, 0.02, 0, 0, 0, 0, 0
NKF4, 123326959, 0, 0, 0.01, 0, 0, 3.351831E-05, 0, 0, 0, 19, 229, 0, 0
NKF5, 123326959, 0, 0, 0, 0, 0.17, 0.13, 0, 0.19, 0.5, 7.472199E-05, 0.008081787, 0.01713405
NKQ1, 123326959, 0.7163304, 0.01278124, 0.004650836, -0.6976287
AHR2, 123327007, 0.43, 0.87, 271.67, 0.98, 0, 0, 0.7173465, 0.008057011, 0.002844749, -0.6966642
MOTB, 123327015, 1, 1, 0, 1
RCIN, 123327019, 0, 0, 0, 0, 0, 0, 0, 0, 0, 0, 0, 0, 0, 0
RCOU, 123327025, 1101, 1101, 1101, 1101, 0, 0, 0, 0, 0, 0, 0, 0, 0, 0
VIBE, 123327034, 0.02112525, 0.01996007, 0.03383724, 0, 0, 0
CTRL, 123327041, 0.003488737, 0.000155364, 0.009079721, 0.0002104781, 5.826517E-05
PRX, 123327072, 1, 3.58, 0, 0.57, 0, 3.58, 0, 3.58, 0, 0, 90, 0.57
IMU, 123327079, -0.0004699786, -0.0005825753, 2.835637E-05, 0.2368204, -0.1211568, -9.760748, 0, 0, 43.05149, 1, 1, 998, 998
IMU, 123366758, -0.0001822043, -0.0006427083, -0.001624414, 0.2365568, -0.129715, -9.768781, 0, 0, 43.0526, 1, 1, 998, 998
RFND, 123376752, 0.2, 25, 0, 0
IMU, 123406721, -0.0002944928, -0.0003178862, 0.000719739, 0.2421063, -0.116536, -9.737953, 0, 0, 43.05405, 1, 1, 998, 998
MAG, 123426620, -2, 371, 489, 0, 0, 0, 0, 0, 0, 1, 123426612
RFND, 123426651, 0.2, 25, 0, 0
BARO, 123426690, 1.020085, 1001.061, 41.7, -0.0997656, 123426, 0, 35
CTUN, 123426703, 0, 0, 0, 0.3206044, 0.0339699, 0.0339699, 1.02, 0, 0.19, 0, 0, -2
ATT, 123426804, 0, 0.33, 0, 0.84, 271.52, 271.53, 0, 1
RATE, 123426811, -1.492096, -0.02360468, -0.003327198, -3.79837, 0.002021739, -0.009083862, 0.01033904, 0.04309304, 7.443969E-06, 818.2435, -0.5590439, 0
NKF1, 123426818, 0.33, 0.84, 271.52, -0.04811104, 0.04709575, 0.02020354, 0, 0, 0, -0.0339699, -0.01, 0, 0
NKF2, 123426818, 3, 0, 0, 0, 0, 0, 0, 0, 0, 0, 0, 0, 0
NKF3, 123426818, 0, 0, 0, -0.06, 0.08, 0.02, 0, 0, 0, 0, 0
NKF4, 123426818, 0, 0, 0.01, 0, 0, 2.272079E-05, 0, 0, 0, 19, 229, 0, 0
NKF5, 123426818, 0, 0, 0, 0, 0.17, 0.13, 0, 0.19, 0.5, 4.094742E-05, 0.00842589, 0.01812259
NKQ1, 123426818, 0.7163331, 0.01274518, 0.004628957, -0.6976268
AHR2, 123426864, 0.43, 0.87, 271.67, 1.02, 0, 0, 0.7173503, 0.008018025, 0.002826706, -0.6966609
MOTB, 123426872, 1, 1, 0, 1
RCIN, 123426876, 0, 0, 0, 0, 0, 0, 0, 0, 0, 0, 0, 0, 0, 0
RCOU, 123426881, 1101, 1101, 1101, 1101, 0, 0, 0, 0, 0, 0, 0, 0, 0, 0
VIBE, 123426890, 0.02005299, 0.01939094, 0.03201111, 0, 0, 0
CTRL, 123426896, 0.00349367, 0.0001441598, 0.009009859, 0.0001844867, 6.314788E-05
PRX, 123426958, 1, 3.58, 0, 0.57, 0, 3.58, 0, 3.58, 0, 0, 90, 0.57
IMU, 123446755, -8.217997E-05, 0.0003261763, 0.001529317, 0.2310516, -0.1205017, -9.75955, 0, 0, 43.05543, 1, 1, 998, 998
RFND, 123476602, 0.2, 25, 0, 0
IMU, 123486742, -0.0001645006, 0.0008213671, 0.001070581, 0.2267552, -0.1323824, -9.755991, 0, 0, 43.0557, 1, 1, 998, 998
MAG, 123526937, -4, 369, 479, 0, 0, 0, 0, 0, 0, 1, 123526917
RFND, 123526969, 0.2, 25, 0, 0
BARO, 123527009, 0.926836, 1001.071, 41.7, -0.009713433, 123526, 0, 35
CTUN, 123527021, 0, 0, 0, 0.3206044, 0.03440095, 0.03440095, 0.92, 0, 0.19, 0, 0, -1
ATT, 123527173, 0, 0.33, 0, 0.84, 271.52, 271.53, 0, 1
RATE, 123527179, -1.490499, -0.0722357, -0.003238507, -3.796908, -0.01550731, -0.009058897, 0.01078469, 0.02595806, -3.333468E-05, 809.3161, -0.5991936, 0
NKF1, 123527187, 0.33, 0.84, 271.52, -0.04919907, 0.04785586, 0.01998311, 0, 0, 0, -0.03440095, -0.01, 0, 0
NKF2, 123527187, 3, 0, 0, 0, 0, 0, 0, 0, 0, 0, 0, 0, 0
NKF3, 123527187, 0, 0, 0, -0.06, 0.08, 0.02, 0, 0, 0, 0, 0
NKF4, 123527187, 0, 0, 0.01, 0, 0, 1.57569E-05, 0, 0, 0, 19, 229, 0, 0
NKF5, 123527187, 0, 0, 0, 0, 0.17, 0.13, 0, 0.19, 0.5, 2.475602E-05, 0.008582531, 0.01859367
NKQ1, 123527187, 0.716349, 0.01274006, 0.004628432, -0.6976105
AHR2, 123527234, 0.43, 0.87, 271.68, 0.92, 0, 0, 0.7173672, 0.008009683, 0.002826476, -0.6966435
MOTB, 123527241, 1, 1, 0, 1
RCIN, 123527246, 0, 0, 0, 0, 0, 0, 0, 0, 0, 0, 0, 0, 0, 0
RCOU, 123527252, 1101, 1101, 1101, 1101, 0, 0, 0, 0, 0, 0, 0, 0, 0, 0
VIBE, 123527260, 0.01929725, 0.01883225, 0.03273378, 0, 0, 0
CTRL, 123527266, 0.003501576, 0.0001410282, 0.008987867, 0.0001784976, 5.766073E-05
PRX, 123527297, 1, 3.58, 0, 0.57, 0, 3.58, 0, 3.58, 0, 0, 90, 0.57
IMU, 123527305, -0.001470079, -0.0003918467, 0.0004845826, 0.2266259, -0.1343429, -9.764256, 0, 0, 43.05599, 1, 1, 998, 998
IMU, 123566748, 0.0001864751, 0.0006034821, -0.0001670442, 0.2251898, -0.1259748, -9.76536, 0, 0, 43.05555, 1, 1, 998, 998
RFND, 123576650, 0.2, 25, 0, 0
IMU, 123606790, 0.0002959232, 0.0002408279, 0.0004693358, 0.2258064, -0.1152687, -9.766523, 0, 0, 43.05571, 1, 1, 998, 998
MAG, 123626674, -5, 366, 478, 0, 0, 0, 0, 0, 0, 1, 123626665
RFND, 123626708, 0.2, 25, 0, 0
BARO, 123626747, 0.9579189, 1001.068, 41.7, -0.04326878, 123626, 0, 35
CTUN, 123626759, 0, 0, 0, 0.3206044, 0.03465639, 0.03465639, 0.95, 0, 0.19, 0, 0, -1
ATT, 123626911, 0, 0.33, 0, 0.84, 271.52, 271.53, 0, 1
RATE, 123626917, -1.490404, 0.03565888, -0.003625014, -3.805285, -0.0193131, -0.008753004, 0.01153781, -0.03025032, -1.965552E-05, 773.2661, 1.157379, 0
NKF1, 123626957, 0.33, 0.84, 271.52, -0.04964427, 0.04941547, 0.01909299, 0, 0, 0, -0.03465639, -0.01, 0, 0
NKF2, 123626957, 3, 0, 0, 0, 0, 0, 0, 0, 0, 0, 0, 0, 0
NKF3, 123626957, 0, 0, 0, -0.07, 0.09, 0.02, 0, 0, 0, 0, 0
NKF4, 123626957, 0, 0, 0.01, 0, 0, 1.10185E-05, 0, 0, 0, 19, 229, 0, 0
NKF5, 123626957, 0, 0, 0, 0, 0.17, 0.13, 0, 0.19, 0.5, 2.16102E-05, 0.008536083, 0.0186807
NKQ1, 123626957, 0.7163522, 0.0127532, 0.004639253, -0.6976069
AHR2, 123627002, 0.43, 0.87, 271.68, 0.95, 0, 0, 0.7173716, 0.008017752, 0.002837087, -0.6966389
MOTB, 123627010, 1, 1, 0, 1
RCIN, 123627014, 0, 0, 0, 0, 0, 0, 0, 0, 0, 0, 0, 0, 0, 0
RCOU, 123627020, 1101, 1101, 1101, 1101, 0, 0, 0, 0, 0, 0, 0, 0, 0, 0
VIBE, 123627029, 0.01869037, 0.02005306, 0.03807181, 0, 0, 0
CTRL, 123627036, 0.003503497, 0.0001461138, 0.009002743, 0.0001698164, 5.566021E-05
PRX, 123627067, 2, 3.58, 0, 0.57, 0, 3.58, 0, 3.58, 0, 0, 90, 0.57
IMU, 123646698, -0.0007146242, -0.001021712, 0.0004674576, 0.2253055, -0.1311533, -9.769169, 0, 0, 43.05566, 1, 1, 998, 998
RFND, 123676598, 0.2, 25, 0, 0
IMU, 123686688, -0.001237541, 4.241121E-05, -0.00109969, 0.226721, -0.1166087, -9.778617, 0, 0, 43.0555, 1, 1, 998, 998
MAG, 123726630, -2, 366, 483, 0, 0, 0, 0, 0, 0, 1, 123726622
RFND, 123726664, 0.2, 25, 0, 0
BARO, 123726702, 1.020085, 1001.061, 41.7, -0.1271573, 123726, 0, 35
CTUN, 123726741, 0, 0, 0, 0.3206044, 0.03500864, 0.03500864, 1.02, 0, 0.19, 0, 0, -1
DU32, 123726781, 7, 50389208
ATT, 123726921, 0, 0.32, 0, 0.84, 271.52, 271.53, 0, 1
RATE, 123726942, -1.476794, -0.0171835, -0.003432046, -3.795993, -0.0427766, -0.009010063, 0.01041582, 0.00491573, 0.0001153266, 759.9581, -1.197815, 0
NKF1, 123726950, 0.32, 0.84, 271.52, -0.05071628, 0.05022816, 0.0187644, 0, 0, 0, -0.03500864, -0.01, 0, 0
NKF2, 123726950, 3, 0, 0, 0, 0, 0, 0, 0, 0, 0, 0, 0, 0
NKF3, 123726950, 0, 0, 0, -0.07, 0.09, 0.02, 0, 0, 0, 0, 0
NKF4, 123726950, 0, 0, 0.01, 0, 0, 7.948941E-06, 0, 0, 0, 19, 229, 0, 0
NKF5, 123726950, 0, 0, 0, 0, 0.17, 0.13, 0, 0.19, 0.5, 2.136162E-05, 0.008457163, 0.018636
NKQ1, 123726950, 0.7163415, 0.01272096, 0.004645367, -0.6976184
AHR2, 123726996, 0.42, 0.87, 271.68, 1.02, 0, 0, 0.717362, 0.007979695, 0.002843007, -0.6966491
MOTB, 123727002, 1, 1, 0, 1
RCIN, 123727007, 0, 0, 0, 0, 0, 0, 0, 0, 0, 0, 0, 0, 0, 0
RCOU, 123727013, 1101, 1101, 1101, 1101, 0, 0, 0, 0, 0, 0, 0, 0, 0, 0
VIBE, 123727022, 0.02173223, 0.02022764, 0.03337799, 0, 0, 0
CTRL, 123727027, 0.003478648, 0.0001473223, 0.008963441, 0.0001908812, 5.928706E-05
PRX, 123727059, 2, 3.58, 0, 0.57, 0, 3.58, 0, 3.58, 0, 0, 90, 0.57
IMU, 123727065, -0.000509959, -0.0008681816, 0.0001174349, 0.2379648, -0.1325283, -9.757885, 0, 0, 43.05339, 1, 1, 998, 998
IMU, 123766765, 0.0003320679, -0.0002129487, 0.001059614, 0.2348971, -0.1243209, -9.758617, 0, 0, 43.05215, 1, 1, 998, 998
RFND, 123776954, 0.2, 25, 0, 0
IMU, 123806689, -0.00149356, -0.0005665114, 0.002348952, 0.2298818, -0.1230863, -9.771268, 0, 0, 43.05224, 1, 1, 998, 998
MAG, 123827026, 1, 371, 482, 0, 0, 0, 0, 0, 0, 1, 123827017
RFND, 123827056, 0.2, 25, 0, 0
BARO, 123827096, 0.9890018, 1001.065, 41.7, -0.05828039, 123827, 0, 35
CTUN, 123827107, 0, 0, 0, 0.3206044, 0.03555369, 0.03555369, 0.98, 0, 0.19, 0, 0, -1
ATT, 123827211, 0, 0.32, 0, 0.84, 271.52, 271.54, 0, 1
RATE, 123827218, -1.466403, 0.005865255, -0.003562446, -3.79375, 0.01762446, -0.00904244, 0.01061556, 0.05272024, -0.0001297381, 752.1567, 0.4834175, 0
NKF1, 123827226, 0.32, 0.84, 271.53, -0.05167379, 0.05076956, 0.01857177, 0, 0, 0, -0.03555369, -0.01, 0, 0
NKF2, 123827226, 3, 0, 0, 0, 0, 0, 0, 0, 0, 0, 0, 0, 0
NKF3, 123827226, 0, 0, 0, -0.08, 0.1, 0.02, 0, 0, 0, 0, 0
NKF4, 123827226, 0, 0, 0.01, 0, 0, 6.037064E-06, 0, 0, 0, 19, 229, 0, 0
NKF5, 123827226, 0, 0, 0, 0, 0.17, 0.13, 0, 0.19, 0.5, 2.348991E-05, 0.008204179, 0.01818231
NKQ1, 123827226, 0.7163772, 0.01270192, 0.004657952, -0.6975821
AHR2, 123827272, 0.42, 0.86, 271.68, 0.98, 0, 0, 0.7173985, 0.007953833, 0.002854886, -0.6966118
MOTB, 123827279, 1, 1, 0, 1
RCIN, 123827283, 0, 0, 0, 0, 0, 0, 0, 0, 0, 0, 0, 0, 0, 0
RCOU, 123827288, 1101, 1101, 1101, 1101, 0, 0, 0, 0, 0, 0, 0, 0, 0, 0
VIBE, 123827297, 0.02054699, 0.02223525, 0.03273981, 0, 0, 0
CTRL, 123827304, 0.00345671, 0.0001550647, 0.008953678, 0.0001808071, 6.350859E-05
PRX, 123827335, 1, 3.58, 0, 0.57, 0, 3.58, 0, 3.58, 0, 0, 90, 0.57
IMU, 123846714, 0.0005493175, -0.0008169195, 0.0005265637, 0.2288125, -0.1300358, -9.766747, 0, 0, 43.05165, 1, 1, 998, 998
RFND, 123876647, 0.2, 25, 0, 0
IMU, 123886706, -7.411492E-05, -0.0007398379, 0.00126579, 0.2231836, -0.110496, -9.771873, 0, 0, 43.04923, 1, 1, 998, 998
MAG, 123926556, 0, 371, 478, 0, 0, 0, 0, 0, 0, 1, 123926548
RFND, 123926586, 0.2, 25, 0, 0
BARO, 123926622, 1.020085, 1001.061, 41.7, 0.1166578, 123926, 0, 35
CTUN, 123926634, 0, 0, 0, 0.3206044, 0.03568023, 0.03568023, 1.02, 0, 0.19, 0, 0, -1
ATT, 123926758, 0, 0.32, 0, 0.84, 271.52, 271.54, 0, 1
RATE, 123926765, -1.466102, 0.02545808, -0.003510683, -3.787596, -0.02960236, -0.008751827, 0.01115338, -0.02495096, 4.498449E-06, 757.9706, -2.240944, 0
NKF1, 123926772, 0.32, 0.84, 271.53, -0.05307093, 0.05218143, 0.01871532, 0, 0, 0, -0.03568023, -0.01, 0, 0
NKF2, 123926772, 3, 0, 0, 0, 0, 0, 0, 0, 0, 0, 0, 0, 0
NKF3, 123926772, 0, 0, 0, -0.08, 0.1, 0.02, 0, 0, 0, 0, 0
NKF4, 123926772, 0, 0, 0.01, 0, 0, 4.791797E-06, 0, 0, 0, 19, 229, 0, 0
NKF5, 123926772, 0, 0, 0, 0, 0.17, 0.13, 0, 0.19, 0.5, 2.61224E-05, 0.008024872, 0.01787028
NKQ1, 123926772, 0.7163783, 0.01269517, 0.004648131, -0.6975811
AHR2, 123926818, 0.42, 0.86, 271.68, 1.02, 0, 0, 0.7174007, 0.007939486, 0.002845064, -0.6966097
MOTB, 123926826, 1, 1, 0, 1
RCIN, 123926830, 0, 0, 0, 0, 0, 0, 0, 0, 0, 0, 0, 0, 0, 0
RCOU, 123926836, 1101, 1101, 1101, 1101, 0, 0, 0, 0, 0, 0, 0, 0, 0, 0
VIBE, 123926845, 0.02052199, 0.02076909, 0.03107087, 0, 0, 0
CTRL, 123926850, 0.003458242, 0.0001458911, 0.00894107, 0.0001782708, 6.527408E-05
PRX, 123926882, 1, 3.58, 0, 0.57, 0, 3.58, 0, 3.58, 0, 0, 90, 0.57
IMU, 123926889, 0.0002348526, -0.0006378876, -0.0004039226, 0.2326487, -0.1328017, -9.747655, 0, 0, 43.04776, 1, 1, 998, 998
IMU, 123966608, -0.0008112938, 0.001034709, 0.0007307806, 0.225377, -0.1270891, -9.752388, 0, 0, 43.04784, 1, 1, 998, 998
RFND, 123976525, 0.2, 25, 0, 0
IMU, 124006600, -0.000523006, -0.0002328827, 0.0007619178, 0.2414145, -0.123934, -9.756386, 0, 0, 43.04803, 1, 1, 998, 998
MAG, 124026527, 0, 370, 481, 0, 0, 0, 0, 0, 0, 1, 124026519
RFND, 124026555, 0.2, 25, 0, 0
BARO, 124026591, 1.014433, 1001.062, 41.71, 0.1631202, 124026, 0, 35
CTUN, 124026602, 0, 0, 0, 0.3206044, 0.03636765, 0.03636765, 1.01, 0, 0.19, 0, 0, -1
ATT, 124026691, 0, 0.32, 0, 0.84, 271.52, 271.54, 0, 1
RATE, 124026697, -1.463003, -0.01072907, -0.003459119, -3.790882, -0.01167629, -0.008882128, 0.01001618, 0.02338234, 2.231522E-06, 754.7996, -0.6754875, 0
NKF1, 124026728, 0.32, 0.84, 271.53, -0.05442974, 0.05306009, 0.01863703, 0, 0, 0, -0.03636765, -0.01, 0, 0
NKF2, 124026728, 3, 0, 0, 0, 0, 0, 0, 0, 0, 0, 0, 0, 0
NKF3, 124026728, 0, 0, 0, -0.09, 0.11, 0.02, 0, 0, 0, 0, 0
NKF4, 124026728, 0, 0, 0.01, 0, 0, 4.136027E-06, 0, 0, 0, 19, 229, 0, 0
NKF5, 124026728, 0, 0, 0, 0, 0.17, 0.13, 0, 0.19, 0.5, 3.145609E-05, 0.007679453, 0.0171361
NKQ1, 124026728, 0.7163889, 0.01269469, 0.00465846, -0.6975701
AHR2, 124026773, 0.42, 0.86, 271.68, 1.01, 0, 0, 0.7174124, 0.007933208, 0.002857138, -0.6965978
MOTB, 124026780, 1, 1, 0, 1
RCIN, 124026784, 0, 0, 0, 0, 0, 0, 0, 0, 0, 0, 0, 0, 0, 0
RCOU, 124026790, 1101, 1101, 1101, 1101, 0, 0, 0, 0, 0, 0, 0, 0, 0, 0
VIBE, 124026799, 0.02142913, 0.01979479, 0.03262302, 0, 0, 0
CTRL, 124026804, 0.003446804, 0.0001285959, 0.008945703, 0.0001747463, 5.435164E-05
PRX, 124026835, 1, 3.58, 0, 0.57, 0, 3.58, 0, 3.58, 0, 0, 90, 0.57
IMU, 124047209, -4.085992E-05, 0.0003845918, 0.0004277936, 0.2433323, -0.1414193, -9.749092, 0, 0, 43.04918, 1, 1, 998, 998
RFND, 124076683, 0.2, 25, 0, 0
IMU, 124086758, -0.001436427, 0.0008205789, -0.0007723121, 0.220575, -0.1294183, -9.764195, 0, 0, 43.04868, 1, 1, 998, 998
MAG, 124126653, -1, 372, 480, 0, 0, 0, 0, 0, 0, 1, 124126644
RFND, 124126682, 0.2, 25, 0, 0
BARO, 124126745, 1.059645, 1001.057, 41.71, 0.1121457, 124126, 0, 35
CTUN, 124126758, 0, 0, 0, 0.3206044, 0.0364953, 0.0364953, 1.05, 0, 0.19, 0, 0, -1
ATT, 124126861, 0, 0.32, 0, 0.83, 271.53, 271.54, 0, 1
RATE, 124126868, -1.452484, 0.005166242, -0.003672624, -3.779225, -0.1157064, -0.008440235, 0.009647206, 0.02972343, 2.824281E-05, 787.3464, -1.720333, 0
NKF1, 124126875, 0.32, 0.83, 271.53, -0.05607884, 0.0541065, 0.01944065, 0, 0, 0, -0.0364953, -0.01, 0, 0
NKF2, 124126875, 3, 0, 0, 0, 0, 0, 0, 0, 0, 0, 0, 0, 0
NKF3, 124126875, 0, 0, 0, -0.1, 0.12, 0.02, 0, 0, 0, 0, 0
NKF4, 124126875, 0, 0, 0.01, 0, 0, 3.740184E-06, 0, 0, 0, 19, 229, 0, 0
NKF5, 124126875, 0, 0, 0, 0, 0.17, 0.13, 0, 0.19, 0.5, 3.735735E-05, 0.007305108, 0.01634978
NKQ1, 124126875, 0.7163924, 0.01266395, 0.004656606, -0.6975671
AHR2, 124126935, 0.42, 0.86, 271.69, 1.05, 0, 0, 0.7174169, 0.00789771, 0.002858114, -0.6965935
MOTB, 124126944, 1, 1, 0, 1
RCIN, 124126949, 0, 0, 0, 0, 0, 0, 0, 0, 0, 0, 0, 0, 0, 0
RCOU, 124126954, 1101, 1101, 1101, 1101, 0, 0, 0, 0, 0, 0, 0, 0, 0, 0
VIBE, 124126963, 0.02150706, 0.01958939, 0.03047133, 0, 0, 0
CTRL, 124126970, 0.003421034, 0.0001376882, 0.008928679, 0.0002059223, 4.637021E-05
PRX, 124127001, 2, 3.58, 0, 0.57, 0, 3.58, 0, 3.58, 0, 0, 90, 0.57
IMU, 124127009, -0.0001196943, -0.002140839, 0.0005503857, 0.228873, -0.1306122, -9.752894, 0, 0, 43.05016, 1, 1, 998, 998
IMU, 124166762, -0.0005564802, 0.001161628, 0.0005521151, 0.2324602, -0.1349799, -9.768944, 0, 0, 43.05225, 1, 1, 998, 998
RFND, 124176698, 0.2, 25, 0, 0
IMU, 124206777, -0.001208256, -0.0008329579, -0.001040709, 0.2340969, -0.1260758, -9.752687, 0, 0, 43.05495, 1, 1, 998, 998
MAG, 124226668, -3, 369, 481, 0, 0, 0, 0, 0, 0, 1, 124226660
RFND, 124226700, 0.2, 25, 0, 0
BARO, 124226739, 1.048342, 1001.058, 41.71, 0.1176436, 124226, 0, 35
CTUN, 124226753, 0, 0, 0, 0.3206044, 0.03679701, 0.03679701, 1.04, 0, 0.19, 0, 0, -2
ATT, 124226856, 0, 0.32, 0, 0.84, 271.53, 271.54, 0, 1
RATE, 124226863, -1.445056, -0.0005595444, -0.00346485, -3.783113, 0.03584731, -0.009119782, 0.01020047, 0.06142633, 1.632548E-05, 815.8926, -1.439381, 0
NKF1, 124226870, 0.32, 0.84, 271.53, -0.05798515, 0.05511522, 0.02014549, 0, 0, 0, -0.03679701, -0.01, 0, 0
NKF2, 124226870, 3, 0, 0, 0, 0, 0, 0, 0, 0, 0, 0, 0, 0
NKF3, 124226870, 0, 0, 0, -0.1, 0.12, 0.02, 0, 0, 0, 0, 0
NKF4, 124226870, 0, 0, 0.01, 0, 0, 3.649414E-06, 0, 0, 0, 19, 229, 0, 0
NKF5, 124226870, 0, 0, 0, 0, 0.17, 0.13, 0, 0.19, 0.5, 3.96503E-05, 0.007081506, 0.01584012
NKQ1, 124226870, 0.716408, 0.01265754, 0.004672823, -0.6975512
AHR2, 124226914, 0.41, 0.86, 271.69, 1.04, 0, 0, 0.7174336, 0.007890138, 0.002875763, -0.6965763
MOTB, 124226950, 1, 1, 0, 1
RCIN, 124226957, 0, 0, 0, 0, 0, 0, 0, 0, 0, 0, 0, 0, 0, 0
RCOU, 124226963, 1101, 1101, 1101, 1101, 0, 0, 0, 0, 0, 0, 0, 0, 0, 0
VIBE, 124226972, 0.0185315, 0.01897223, 0.03209484, 0, 0, 0
CTRL, 124226978, 0.003408041, 0.0001513362, 0.008924715, 0.0002028351, 4.471013E-05
PRX, 124227010, 2, 3.58, 0, 0.57, 0, 3.58, 0, 3.58, 0, 0, 90, 0.57
IMU, 124247088, 0.0008262368, -0.000245452, 0.0007128468, 0.2292874, -0.1252754, -9.754299, 0, 0, 43.05803, 1, 1, 998, 998
RFND, 124276525, 0.2, 25, 0, 0
IMU, 124286593, -0.00074913, -0.0001488705, 0.000778474, 0.2349835, -0.1346997, -9.749473, 0, 0, 43.06116, 1, 1, 998, 998
MAG, 124326526, 1, 365, 483, 0, 0, 0, 0, 0, 0, 1, 124326518
RFND, 124326554, 0.2, 25, 0, 0
BARO, 124326590, 0.9353132, 1001.07, 41.71, 0.1096826, 124326, 0, 35
CTUN, 124326603, 0, 0, 0, 0.3206044, 0.03682159, 0.03682159, 0.93, 0, 0.19, 0, 0, -2
ATT, 124326696, 0, 0.32, 0, 0.83, 271.53, 271.54, 0, 1
RATE, 124326703, -1.441386, 0.03167423, -0.003622493, -3.768774, -0.04615136, -0.008627212, 0.01026179, -0.02456288, 3.439848E-05, 838.5414, -1.133347, 0
NKF1, 124326731, 0.32, 0.83, 271.53, -0.05958634, 0.05566528, 0.02070473, 0, 0, 0, -0.03682159, -0.01, 0, 0
NKF2, 124326731, 3, 0, 0, 0, 0, 0, 0, 0, 0, 0, 0, 0, 0
NKF3, 124326731, 0, 0, 0, -0.11, 0.13, 0.02, 0, 0, 0, 0, 0
NKF4, 124326731, 0, 0, 0, 0, 0, 3.697379E-06, 0, 0, 0, 19, 229, 0, 0
NKF5, 124326731, 0, 0, 0, 0, 0.17, 0.13, 0, 0.19, 0.5, 4.456463E-05, 0.006669853, 0.01489053
NKQ1, 124326731, 0.7164071, 0.01263444, 0.004655604, -0.6975526
AHR2, 124326777, 0.41, 0.86, 271.69, 0.93, 0, 0, 0.7174339, 0.007867909, 0.002859385, -0.6965763
MOTB, 124326784, 1, 1, 0, 1
RCIN, 124326788, 0, 0, 0, 0, 0, 0, 0, 0, 0, 0, 0, 0, 0, 0
RCOU, 124326794, 1101, 1101, 1101, 1101, 0, 0, 0, 0, 0, 0, 0, 0, 0, 0
VIBE, 124326803, 0.01917424, 0.01994359, 0.02861633, 0, 0, 0
CTRL, 124326809, 0.003399241, 0.0001615129, 0.008895654, 0.000190021, 3.866869E-05
PRX, 124326841, 1, 3.58, 0, 0.57, 0, 3.58, 0, 3.58, 0, 0, 90, 0.57
IMU, 124326847, 0.0003434621, -0.000926535, -0.000397165, 0.2360312, -0.1277636, -9.758695, 0, 0, 43.06354, 1, 1, 998, 998
IMU, 124366613, 0.001380158, 0.0005353552, -0.0002003746, 0.2237927, -0.1374436, -9.769775, 0, 0, 43.06583, 1, 1, 998, 998
RFND, 124376986, 0.2, 25, 0, 0
IMU, 124406786, -0.0001616144, -0.000226658, 0.001426908, 0.228338, -0.1263122, -9.768549, 0, 0, 43.06836, 1, 1, 998, 998
MAG, 124426645, 0, 370, 478, 0, 0, 0, 0, 0, 0, 1, 124426636
RFND, 124426675, 0.2, 25, 0, 0
BARO, 124426713, 0.8731473, 1001.078, 41.71, -0.08924706, 124426, 0, 35
CTUN, 124426725, 0, 0, 0, 0.3206044, 0.03680173, 0.03680173, 0.87, 0, 0.19, 0, 0, -2
ATT, 124426830, 0, 0.32, 0, 0.83, 271.53, 271.54, 0, 1
RATE, 124426836, -1.443963, -0.0393815, -0.002976624, -3.763581, -0.0315741, -0.008786723, 0.01006196, 0.004885507, 1.013612E-05, 836.9879, -0.08392334, 0
NKF1, 124426844, 0.32, 0.83, 271.53, -0.06135036, 0.05658133, 0.02066637, 0, 0, 0, -0.03680173, -0.01, 0, 0
NKF2, 124426844, 3, 0, 0, 0, 0, 0, 0, 0, 0, 0, 0, 0, 0
NKF3, 124426844, 0, 0, 0, -0.11, 0.13, 0.02, 0, 0, 0, 0, 0
NKF4, 124426844, 0, 0, 0, 0, 0, 3.876134E-06, 0, 0, 0, 19, 229, 0, 0
NKF5, 124426844, 0, 0, 0, 0, 0.17, 0.13, 0, 0.19, 0.5, 4.467011E-05, 0.00648737, 0.0144573
NKQ1, 124426844, 0.7164085, 0.01263155, 0.004646173, -0.6975513
AHR2, 124426888, 0.41, 0.86, 271.69, 0.87, 0, 0, 0.7174366, 0.007866598, 0.002850888, -0.6965736
MOTB, 124426896, 1, 1, 0, 1
RCIN, 124426900, 0, 0, 0, 0, 0, 0, 0, 0, 0, 0, 0, 0, 0, 0
RCOU, 124426905, 1101, 1101, 1101, 1101, 0, 0, 0, 0, 0, 0, 0, 0, 0, 0
VIBE, 124426914, 0.01964352, 0.02006444, 0.02625813, 0, 0, 0
CTRL, 124426920, 0.00341597, 0.0001608964, 0.00888658, 0.000175483, 4.34792E-05
PRX, 124426981, 1, 3.58, 0, 0.57, 0, 3.58, 0, 3.58, 0, 0, 90, 0.57
IMU, 124446741, -0.0006463156, -0.001021168, -0.000408504, 0.2253918, -0.1229961, -9.782776, 0, 0, 43.07028, 1, 1, 998, 998
RFND, 124476692, 0.2, 25, 0, 0
IMU, 124486718, -0.0005044537, 0.001078532, 0.0001727624, 0.2343156, -0.1244999, -9.751022, 0, 0, 43.07189, 1, 1, 998, 998
MAG, 124526644, -1, 368, 480, 0, 0, 0, 0, 0, 0, 1, 124526636
RFND, 124526674, 0.2, 25, 0, 0
BARO, 124526738, 0.8420644, 1001.081, 41.71, -0.426507, 124526, 0, 35
CTUN, 124526752, 0, 0, 0, 0.3206044, 0.03691818, 0.03691818, 0.84, 0, 0.19, 0, 0, -1
ATT, 124526854, 0, 0.31, 0, 0.83, 271.53, 271.54, 0, 1
RATE, 124526860, -1.440419, -0.02851427, -0.003390653, -3.772295, -0.005782938, -0.00866963, 0.00953953, 0.04185423, -2.303707E-07, 803.0198, -0.3147125, 0
NKF1, 124526868, 0.31, 0.83, 271.53, -0.06262524, 0.05728964, 0.01982765, 0, 0, 0, -0.03691818, -0.01, 0, 0
NKF2, 124526868, 3, 0, 0, 0, 0, 0, 0, 0, 0, 0, 0, 0, 0
NKF3, 124526868, 0, 0, 0, -0.12, 0.14, 0.02, 0, 0, 0, 0, 0
NKF4, 124526868, 0, 0, 0, 0, 0, 4.17863E-06, 0, 0, 0, 19, 229, 0, 0
NKF5, 124526868, 0, 0, 0, 0, 0.17, 0.13, 0, 0.19, 0.5, 4.86977E-05, 0.006057011, 0.01342041
NKQ1, 124526868, 0.7164205, 0.01263701, 0.004663915, -0.6975388
AHR2, 124526914, 0.41, 0.86, 271.69, 0.84, 0, 0, 0.7174497, 0.007874032, 0.002869583, -0.6965599
MOTB, 124526921, 1, 1, 0, 1
RCIN, 124526940, 0, 0, 0, 0, 0, 0, 0, 0, 0, 0, 0, 0, 0, 0
RCOU, 124526946, 1101, 1101, 1101, 1101, 0, 0, 0, 0, 0, 0, 0, 0, 0, 0
VIBE, 124526955, 0.01971796, 0.02048577, 0.03081084, 0, 0, 0
CTRL, 124526961, 0.003393973, 0.000170897, 0.008902157, 0.0001771484, 3.725926E-05
PRX, 124526994, 1, 3.58, 0, 0.57, 0, 3.58, 0, 3.58, 0, 0, 90, 0.57
IMU, 124527000, -0.0007068902, -0.0002218384, 0.0007620119, 0.2340495, -0.1295848, -9.766921, 0, 0, 43.07321, 1, 1, 998, 998
IMU, 124566894, -0.001232883, 0.0002789087, -0.0002224018, 0.2411819, -0.1259379, -9.746235, 0, 0, 43.07469, 1, 1, 998, 998
RFND, 124576537, 0.2, 25, 0, 0
IMU, 124606638, -0.001668431, -0.0007465237, 0.00184186, 0.2280692, -0.1279217, -9.767099, 0, 0, 43.07597, 1, 1, 998, 998
MAG, 124626552, -5, 368, 481, 0, 0, 0, 0, 0, 0, 1, 124626542
RFND, 124626581, 0.2, 25, 0, 0
BARO, 124626619, 0.8731473, 1001.078, 41.71, -0.589869, 124626, 0, 35
CTUN, 124626631, 0, 0, 0, 0.3206044, 0.03678021, 0.03678021, 0.87, 0, 0.19, 0, 0, -1
ATT, 124626747, 0, 0.31, 0, 0.83, 271.53, 271.54, 0, 1
RATE, 124626753, -1.424235, -0.04371152, -0.003247991, -3.756338, -0.002877193, -0.008735017, 0.009216606, 0.04667788, -5.73242E-05, 805.3084, 0.1182556, 0
NKF1, 124626761, 0.31, 0.83, 271.53, -0.06387195, 0.05792915, 0.01988416, 0, 0, 0, -0.03678021, -0.01, 0, 0
NKF2, 124626761, 3, 0, 0, 0, 0, 0, 0, 0, 0, 0, 0, 0, 0
NKF3, 124626761, 0, 0, 0, -0.12, 0.14, 0.02, 0, 0, 0, 0, 0
NKF4, 124626761, 0, 0, 0, 0, 0, 4.491349E-06, 0, 0, 0, 19, 229, 0, 0
NKF5, 124626761, 0, 0, 0, 0, 0.17, 0.13, 0, 0.19, 0.5, 4.714444E-05, 0.005927372, 0.01310804
NKQ1, 124626761, 0.7164311, 0.01259367, 0.004664351, -0.6975286
AHR2, 124626805, 0.41, 0.86, 271.69, 0.87, 0, 0, 0.7174616, 0.007830594, 0.002873259, -0.6965482
MOTB, 124626812, 1, 1, 0, 1
RCIN, 124626816, 0, 0, 0, 0, 0, 0, 0, 0, 0, 0, 0, 0, 0, 0
RCOU, 124626822, 1101, 1101, 1101, 1101, 0, 0, 0, 0, 0, 0, 0, 0, 0, 0
VIBE, 124626830, 0.02192846, 0.02023711, 0.02909977, 0, 0, 0
CTRL, 124626836, 0.003361251, 0.0001579897, 0.008873521, 0.0001987449, 3.611088E-05
PRX, 124626868, 2, 3.58, 0, 0.57, 0, 3.58, 0, 3.58, 0, 0, 90, 0.57
IMU, 124646616, -0.001498191, -0.0005339315, -0.0002561156, 0.2162603, -0.1349805, -9.761873, 0, 0, 43.07727, 1, 1, 998, 998
RFND, 124676557, 0.2, 25, 0, 0
IMU, 124686570, 0.0003925117, -0.0009827771, 0.0005764728, 0.2286999, -0.1327981, -9.762936, 0, 0, 43.07822, 1, 1, 998, 998
MAG, 124726624, 0, 373, 477, 0, 0, 0, 0, 0, 0, 1, 124726615
RFND, 124726654, 0.2, 25, 0, 0
BARO, 124726694, 0.9211845, 1001.072, 41.71, -0.4079633, 124726, 0, 35
CTUN, 124726731, 0, 0, 0, 0.3206044, 0.03699265, 0.03699265, 0.92, 0, 0.19, 0, 0, -2
DU32, 124726771, 7, 50389208
ATT, 124726911, 0, 0.31, 0, 0.83, 271.53, 271.55, 0, 1
RATE, 124726917, -1.416675, 0.02360151, -0.00346808, -3.752862, 0.07759389, -0.009237939, 0.01089166, -0.03511723, -1.452046E-05, 830.3426, -1.119804, 0
NKF1, 124726939, 0.31, 0.83, 271.54, -0.06575058, 0.05884198, 0.02050229, 0, 0, 0, -0.03699265, -0.01, 0, 0
NKF2, 124726939, 3, 0, 0, 0, 0, 0, 0, 0, 0, 0, 0, 0, 0
NKF3, 124726939, 0, 0, 0, -0.13, 0.15, 0.02, 0, 0, 0, 0, 0
NKF4, 124726939, 0, 0, 0, 0, 0, 4.969609E-06, 0, 0, 0, 19, 229, 0, 0
NKF5, 124726939, 0, 0, 0, 0, 0.17, 0.13, 0, 0.19, 0.5, 5.097656E-05, 0.005492348, 0.01201111
NKQ1, 124726939, 0.7164347, 0.01257893, 0.004667311, -0.6975251
AHR2, 124726986, 0.41, 0.86, 271.69, 0.92, 0, 0, 0.7174664, 0.007814624, 0.002881174, -0.6965433
MOTB, 124726994, 1, 1, 0, 1
RCIN, 124726998, 0, 0, 0, 0, 0, 0, 0, 0, 0, 0, 0, 0, 0, 0
RCOU, 124727003, 1101, 1101, 1101, 1101, 0, 0, 0, 0, 0, 0, 0, 0, 0, 0
VIBE, 124727012, 0.02126648, 0.02115154, 0.03044012, 0, 0, 0
CTRL, 124727018, 0.003340253, 0.0001778817, 0.008854383, 0.0001956379, 3.993952E-05
PRX, 124727049, 2, 3.58, 0, 0.57, 0, 3.58, 0, 3.58, 0, 0, 90, 0.57
IMU, 124727057, 0.0002023431, 0.001233222, -0.0005813403, 0.2389578, -0.1285021, -9.758696, 0, 0, 43.07822, 1, 1, 998, 998
IMU, 124766828, -0.0009001695, 0.0005795052, -0.001530627, 0.2292512, -0.1249194, -9.750934, 0, 0, 43.07822, 1, 1, 998, 998
RFND, 124776648, 0.2, 25, 0, 0
IMU, 124806757, -0.001075476, -0.00122713, -0.000475364, 0.2333705, -0.1115509, -9.777443, 0, 0, 43.07822, 1, 1, 998, 998
MAG, 124826656, 0, 368, 479, 0, 0, 0, 0, 0, 0, 1, 124826647
RFND, 124826686, 0.2, 25, 0, 0
BARO, 124826754, 0.9805247, 1001.066, 41.71, -0.0388537, 124826, 0, 35
CTUN, 124826767, 0, 0, 0, 0.3206044, 0.03669831, 0.03669831, 0.98, 0, 0.19, 0, 0, -1
ATT, 124826935, 0, 0.31, 0, 0.83, 271.53, 271.54, 0, 1
RATE, 124826942, -1.407888, 0.02595744, -0.003484164, -3.744539, 0.02447479, -0.009047265, 0.01032293, -0.04014954, 7.885101E-05, 788.6379, 1.225376, 0
NKF1, 124826950, 0.31, 0.83, 271.53, -0.06684782, 0.05970842, 0.01947254, 0, 0, 0, -0.03669831, -0.01, 0, 0
NKF2, 124826950, 3, 0, 0, 0, 0, 0, 0, 0, 0, 0, 0, 0, 0
NKF3, 124826950, 0, 0, 0, -0.13, 0.15, 0.02, 0, 0, 0, 0, 0
NKF4, 124826950, 0, 0, 0, 0, 0, 5.351464E-06, 0, 0, 0, 19, 229, 0, 0
NKF5, 124826950, 0, 0, 0, 0, 0.17, 0.13, 0, 0.19, 0.5, 4.840148E-05, 0.005412845, 0.01183322
NKQ1, 124826950, 0.7164177, 0.0125552, 0.004666983, -0.6975431
AHR2, 124826994, 0.41, 0.85, 271.69, 0.98, 0, 0, 0.7174506, 0.00779021, 0.002882963, -0.69656
MOTB, 124827001, 1, 1, 0, 1
RCIN, 124827006, 0, 0, 0, 0, 0, 0, 0, 0, 0, 0, 0, 0, 0, 0
RCOU, 124827011, 1101, 1101, 1101, 1101, 0, 0, 0, 0, 0, 0, 0, 0, 0, 0
VIBE, 124827021, 0.0175638, 0.02154483, 0.03162935, 0, 0, 0
CTRL, 124827027, 0.00331808, 0.0001710848, 0.008840109, 0.0002035657, 5.142542E-05
PRX, 124827059, 1, 3.58, 0, 0.57, 0, 3.58, 0, 3.58, 0, 0, 90, 0.57
IMU, 124847232, 0.0006813308, -0.0002070971, -0.0004978566, 0.2341932, -0.1229484, -9.780815, 0, 0, 43.07822, 1, 1, 998, 998
EV, 124861300, 57
RFND, 124876645, 0.2, 25, 0, 0
IMU, 124886720, -0.000711341, -0.0007258086, 0.002050991, 0.2257716, -0.1164194, -9.762991, 0, 0, 43.07822, 1, 1, 998, 998
MAG, 124926643, -1, 372, 481, 0, 0, 0, 0, 0, 0, 1, 124926634
RFND, 124926672, 0.2, 25, 0, 0
BARO, 124926710, 0.8985788, 1001.075, 41.72, 0.2463674, 124926, 0, 35
CTUN, 124926724, 0, 0, 0, 0.3206044, 0.03711903, 0.03711903, 0.89, 0, 0.19, 0, 0, -1
ATT, 124926824, 0, 0.31, 0, 0.83, 271.53, 271.55, 0, 1
RATE, 124926830, -1.40744, 0.03539159, -0.003686289, -3.740473, 0.04174934, -0.009001076, 0.01023069, -0.005102921, -1.565679E-05, 755.8858, -0.8303642, 0
NKF1, 124926838, 0.31, 0.83, 271.54, -0.0680807, 0.06008033, 0.01866385, 0, 0, 0, -0.03711903, -0.01, 0, 0
NKF2, 124926838, 3, 0, 0, 0, 0, 0, 0, 0, 0, 0, 0, 0, 0
NKF3, 124926838, 0, 0, 0, -0.14, 0.17, 0.02, 0, 0, 0, 0, 0
NKF4, 124926838, 0, 0, 0, 0, 0, 5.981964E-06, 0, 0, 0, 19, 229, 0, 0
NKF5, 124926838, 0, 0, 0, 0, 0.17, 0.13, 0, 0.19, 0.5, 5.256036E-05, 0.004970977, 0.01069352
NKQ1, 124926838, 0.7164385, 0.0125485, 0.004663274, -0.6975217
AHR2, 124926884, 0.41, 0.85, 271.69, 0.89, 0, 0, 0.7174726, 0.007783373, 0.002879552, -0.6965373
MOTB, 124926891, 1, 1, 0, 1
RCIN, 124926895, 0, 0, 0, 0, 0, 0, 0, 0, 0, 0, 0, 0, 0, 0
RCOU, 124926901, 1116, 1116, 1116, 1116, 0, 0, 0, 0, 0, 0, 0, 0, 0, 0
VIBE, 124926910, 0.01962177, 0.02128944, 0.03071975, 0, 0, 0
CTRL, 124926916, 0.003315076, 0.0001928904, 0.008825937, 0.0001822494, 5.638968E-05
PRX, 124926979, 1, 3.58, 0, 0.57, 0, 3.58, 0, 3.58, 0, 0, 90, 0.57
IMU, 124926988, 0.0004078447, 0.0006075373, -5.745213E-05, 0.2365988, -0.1346036, -9.761529, 0, 0, 43.07822, 1, 1, 998, 998
IMU, 124966725, 0.0001622977, 0.0003680534, 0.001663212, 0.2314762, -0.1224378, -9.764331, 0, 0, 43.07822, 1, 1, 998, 998
RFND, 124976638, 0.2, 25, 0, 0
IMU, 125006769, -0.0005329239, 0.0001138427, 0.001222505, 0.2323971, -0.1360699, -9.768269, 0, 0, 43.07822, 1, 1, 998, 998
MAG, 125026626, -2, 369, 482, 0, 0, 0, 0, 0, 0, 1, 125026618
RFND, 125026657, 0.2, 25, 0, 0
BARO, 125026695, 0.9127074, 1001.073, 41.72, 0.2507826, 125026, 0, 35
CTUN, 125026708, 0, 0, 0, 0.3206044, 0.03707852, 0.03707852, 0.91, 0, 0.19, 0, 0, -1
ATT, 125026818, 0, 0.31, 0, 0.82, 271.54, 271.55, 0, 1
RATE, 125026825, -1.407213, -0.00587675, -0.003326107, -3.722509, -0.1282397, -0.008262049, 0.0102305, 0.08223443, -0.0001340748, 765.9897, -1.726246, 0
NKF1, 125026833, 0.31, 0.82, 271.54, -0.06941672, 0.06066275, 0.01891332, 0, 0, 0, -0.03707852, -0.01, 0, 0
NKF2, 125026833, 3, 0, 0, 0, 0, 0, 0, 0, 0, 0, 0, 0, 0
NKF3, 125026833, 0, 0, 0, -0.15, 0.18, 0.02, 0, 0, 0, 0, 0
NKF4, 125026833, 0, 0, 0, 0, 0, 6.490471E-06, 0, 0, 0, 19, 229, 0, 0
NKF5, 125026833, 0, 0, 0, 0, 0.17, 0.13, 0, 0.19, 0.5, 5.735557E-05, 0.004501096, 0.009499406
NKQ1, 125026833, 0.716478, 0.01252315, 0.004641986, -0.6974819
AHR2, 125026878, 0.4, 0.85, 271.7, 0.91, 0, 0, 0.7175132, 0.007757368, 0.00286136, -0.6964958
MOTB, 125026886, 1, 1, 0, 1
RCIN, 125026891, 0, 0, 0, 0, 0, 0, 0, 0, 0, 0, 0, 0, 0, 0
RCOU, 125026896, 1140, 1140, 1140, 1140, 0, 0, 0, 0, 0, 0, 0, 0, 0, 0
VIBE, 125026905, 0.01946718, 0.01883592, 0.03401598, 0, 0, 0
CTRL, 125026911, 0.003313545, 0.0001700195, 0.008801498, 0.0002218332, 7.124491E-05
PRX, 125026974, 1, 3.58, 0, 0.57, 0, 3.58, 0, 3.58, 0, 0, 90, 0.57
IMU, 125047034, -0.0009022881, -0.0006170933, 0.0003163168, 0.2163949, -0.1129873, -9.758211, 0, 0, 43.0776, 1, 1, 998, 998
RFND, 125076636, 0.2, 25, 0, 0
IMU, 125086758, -0.0009488224, -0.0001484272, -0.0004093274, 0.2407421, -0.1373354, -9.766267, 0, 0, 43.07745, 1, 1, 998, 998
MAG, 125126606, -6, 372, 482, 0, 0, 0, 0, 0, 0, 1, 125126597
RFND, 125126635, 0.2, 25, 0, 0
BARO, 125126673, 0.9607446, 1001.068, 41.72, 0.05121622, 125126, 0, 35
CTUN, 125126686, 0, 0, 0, 0.3206044, 0.03737591, 0.03737591, 0.96, 0, 0.19, 0, 0, -1
ATT, 125126787, 0, 0.3, 0, 0.82, 271.54, 271.55, 0, 1
RATE, 125126794, -1.386418, 0.005946917, -0.003429211, -3.718586, -0.02470742, -0.008723994, 0.01009211, -0.02565997, 2.419976E-05, 738.1875, -1.345158, 0
NKF1, 125126802, 0.3, 0.82, 271.54, -0.07135928, 0.06147144, 0.01822685, 0, 0, 0, -0.03737591, -0.01, 0, 0
NKF2, 125126802, 3, 0, 0, 0, 0, 0, 0, 0, 0, 0, 0, 0, 0
NKF3, 125126802, 0, 0, 0, -0.15, 0.18, 0.02, 0, 0, 0, 0, 0
NKF4, 125126802, 0, 0, 0, 0, 0, 7.179819E-06, 0, 0, 0, 19, 229, 0, 0
NKF5, 125126802, 0, 0, 0, 0, 0.17, 0.13, 0, 0.19, 0.5, 5.424523E-05, 0.004499868, 0.009490764
NKQ1, 125126802, 0.7164682, 0.01249087, 0.004661793, -0.6974924
AHR2, 125126848, 0.4, 0.85, 271.7, 0.96, 0, 0, 0.7175049, 0.007723947, 0.002887439, -0.6965047
MOTB, 125126855, 1, 1, 0, 1
RCIN, 125126859, 0, 0, 0, 0, 0, 0, 0, 0, 0, 0, 0, 0, 0, 0
RCOU, 125126864, 1164, 1164, 1164, 1164, 0, 0, 0, 0, 0, 0, 0, 0, 0, 0
VIBE, 125126873, 0.02024399, 0.01866515, 0.03438398, 0, 0, 0
CTRL, 125126879, 0.003269959, 0.0001653283, 0.008779257, 0.0002137075, 7.431852E-05
PRX, 125126910, 2, 3.58, 0, 0.57, 0, 3.58, 0, 3.58, 0, 0, 90, 0.57
IMU, 125126918, -0.0001055169, -0.0005519451, -0.0004163252, 0.2217008, -0.1369372, -9.75679, 0, 0, 43.07706, 1, 1, 998, 998
IMU, 125166716, -0.0006395159, 0.0001566549, -0.0002282802, 0.2260794, -0.13356, -9.750299, 0, 0, 43.07673, 1, 1, 998, 998
RFND, 125176941, 0.2, 25, 0, 0
IMU, 125206711, 0.000408615, -0.002112605, -0.0001179743, 0.2175877, -0.1334136, -9.778061, 0, 0, 43.07695, 1, 1, 998, 998
MAG, 125226643, 0, 367, 476, 0, 0, 0, 0, 0, 0, 1, 125226634
RFND, 125226673, 0.2, 25, 0, 0
BARO, 125226712, 0.9098817, 1001.073, 41.72, -0.04503489, 125226, 0, 35
CTUN, 125226724, 0, 0, 0, 0.3206044, 0.03752836, 0.03752836, 0.9, 0, 0.19, 0, 0, -1
ATT, 125226831, 0, 0.3, 0, 0.82, 271.54, 271.55, 0, 1
RATE, 125226838, -1.375474, -0.05925, -0.002652827, -3.709846, 0.01317235, -0.009048318, 0.009969053, -0.01268997, 2.26887E-05, 747.7238, -0.5867958, 0
NKF1, 125226845, 0.3, 0.82, 271.54, -0.07354878, 0.06167295, 0.01846232, 0, 0, 0, -0.03752836, -0.01, 0, 0
NKF2, 125226845, 3, 0, 0, 0, 0, 0, 0, 0, 0, 0, 0, 0, 0
NKF3, 125226845, 0, 0, 0, -0.16, 0.19, 0.02, 0, 0, 0, 0, 0
NKF4, 125226845, 0, 0, 0, 0, 0, 7.838597E-06, 0, 0, 0, 19, 229, 0, 0
NKF5, 125226845, 0, 0, 0, 0, 0.17, 0.13, 0, 0.19, 0.5, 6.002263E-05, 0.004007794, 0.008205065
NKQ1, 125226845, 0.7164698, 0.01246379, 0.004664887, -0.6974912
AHR2, 125226891, 0.4, 0.85, 271.7, 0.9, 0, 0, 0.7175077, 0.007697153, 0.00289398, -0.6965021
MOTB, 125226899, 1, 1, 0, 1
RCIN, 125226902, 0, 0, 0, 0, 0, 0, 0, 0, 0, 0, 0, 0, 0, 0
RCOU, 125226908, 1181, 1181, 1181, 1181, 0, 0, 0, 0, 0, 0, 0, 0, 0, 0
VIBE, 125226917, 0.08325803, 0.08336747, 0.08081277, 0, 0, 0
CTRL, 125226953, 0.003264186, 0.0001594897, 0.008755784, 0.0002168452, 6.14795E-05
PRX, 125226987, 2, 3.58, 0, 0.57, 0, 3.58, 0, 3.58, 0, 0, 90, 0.57
IMU, 125247710, -0.0006753005, -0.0005046971, -0.00695083, 0.2349635, -0.1263325, -9.755732, 0, 0, 43.07647, 1, 1, 998, 998
RFND, 125276759, 0.2, 25, 0, 0
IMU, 125286748, -0.0009029686, -0.002027982, -0.0004101952, 0.07343962, -0.2152155, -9.791335, 0, 0, 43.07664, 1, 1, 998, 998
MAG, 125326649, -1, 373, 483, 0, 0, 0, 0, 0, 0, 1, 125326640
RFND, 125326679, 0.2, 25, 0, 0
BARO, 125326746, 0.9098817, 1001.073, 41.72, 0.005298237, 125326, 0, 35
CTUN, 125326760, 0, 0, 0, 0.3206044, 0.03771069, 0.03771069, 0.9, 0, 0.19, 0, 0, -1
ATT, 125326864, 0, 0.3, 0, 0.81, 271.58, 271.59, 0, 1
RATE, 125326871, -1.398407, -0.1208484, -0.002134812, -3.650627, -0.1183229, -0.007195896, 0.0100146, 0.2912323, -0.0009906736, 713.7673, 0.4218102, 0
NKF1, 125326879, 0.3, 0.81, 271.58, -0.07373419, 0.06272094, 0.01762388, 0, 0, 0, -0.03771069, -0.01, 0, 0
NKF2, 125326879, 3, 0, 0, 0, 0, 0, 0, 0, 0, 0, 0, 0, 0
NKF3, 125326879, 0, 0, 0, -0.16, 0.19, 0.02, 0, 0, 0, 0, 0
NKF4, 125326879, 0, 0, 0, 0, 0, 8.548658E-06, 0, 0, 0, 19, 229, 0, 0
NKF5, 125326879, 0, 0, 0, 0, 0.17, 0.13, 0, 0.19, 0.5, 5.608729E-05, 0.004079597, 0.008405991
NKQ1, 125326879, 0.7167239, 0.01241002, 0.00456413, -0.6972318
AHR2, 125326940, 0.4, 0.83, 271.74, 0.9, 0, 0, 0.7177619, 0.007645349, 0.002792572, -0.6962411
MOTB, 125326948, 1, 1, 0, 1
RCIN, 125326952, 0, 0, 0, 0, 0, 0, 0, 0, 0, 0, 0, 0, 0, 0
RCOU, 125326958, 1181, 1181, 1181, 1181, 0, 0, 0, 0, 0, 0, 0, 0, 0, 0
VIBE, 125326966, 0.2709765, 0.3102555, 0.2413027, 0, 0, 0
CTRL, 125326972, 0.003272837, 0.0002777682, 0.008672097, 0.0004290554, 0.000592763
PRX, 125327003, 1, 3.58, 0, 0.57, 0, 3.58, 0, 3.58, 0, 0, 90, 0.57
IMU, 125327010, -0.002318869, -0.002185942, 0.005114538, 0.17491, -0.1868256, -9.774946, 0, 0, 43.07684, 1, 1, 998, 998
IMU, 125366777, -0.0003027712, 0.0008886384, -0.003142054, 0.2685351, -0.1147195, -9.793493, 0, 0, 43.07677, 1, 1, 998, 998
RFND, 125376644, 0.2, 25, 0, 0
IMU, 125406820, 0.003466929, 0.0001020387, -0.002949276, 0.1683947, -0.1817189, -9.757713, 0, 0, 43.07655, 1, 1, 998, 998
MAG, 125426675, -4, 366, 479, 0, 0, 0, 0, 0, 0, 1, 125426666
RFND, 125426706, 0.2, 25, 0, 0
BARO, 125426745, 1.246142, 1001.036, 41.7, 0.09271899, 125426, 0, 35
CTUN, 125426757, 0, 0, 0, 0.3206044, 0.0380742, 0.0380742, 1.24, 0, 0.19, 0, 0, -1
ATT, 125426865, 0, 0.31, 0, 0.81, 271.59, 271.6, 0, 1
RATE, 125426871, -1.409054, -0.00237493, -0.002931774, -3.656318, -0.01891013, -0.008730377, 0.01001468, 0.7110991, -0.0003133824, 671.6711, 1.385784, 0
NKF1, 125426880, 0.31, 0.81, 271.59, -0.0761246, 0.06442931, 0.01658447, 0, 0, 0, -0.0380742, -0.01, 0, 0
NKF2, 125426880, 3, 0, 0, 0, 0, 0, 0, 0, 0, 0, 0, 0, 0
NKF3, 125426880, 0, 0, 0, -0.18, 0.2, 0.02, 0, 0, 0, 0, 0
NKF4, 125426880, 0, 0, 0, 0, 0, 9.36764E-06, 0, 0, 0, 19, 229, 0, 0
NKF5, 125426880, 0, 0, 0, 0, 0.17, 0.13, 0, 0.19, 0.5, 6.320222E-05, 0.003561101, 0.007027703
NKQ1, 125426880, 0.7167682, 0.0124263, 0.004569347, -0.6971859
AHR2, 125426960, 0.4, 0.84, 271.75, 1.24, 0, 0, 0.7178077, 0.007656638, 0.00279682, -0.6961938
MOTB, 125426969, 1, 1, 0, 1
RCIN, 125426973, 0, 0, 0, 0, 0, 0, 0, 0, 0, 0, 0, 0, 0, 0
RCOU, 125426979, 1181, 1181, 1181, 1181, 0, 0, 0, 0, 0, 0, 0, 0, 0, 0
VIBE, 125426988, 0.4296579, 0.4590637, 0.3018433, 0, 0, 0
CTRL, 125426994, 0.00331742, 0.0004676045, 0.008626056, 0.0005149186, 0.0005192939
PRX, 125427025, 1, 3.58, 0, 0.57, 0, 3.58, 0, 3.58, 0, 0, 90, 0.57
IMU, 125446761, 0.004084561, -0.003480878, -0.02675193, 0.182197, -0.1024341, -9.783104, 0, 0, 43.07661, 1, 1, 998, 998
RFND, 125476656, 0.2, 25, 0, 0
IMU, 125487027, -0.002544169, 0.003847597, 0.0001542083, 0.2536578, -0.1578326, -9.767522, 0, 0, 43.07682, 1, 1, 998, 998
MAG, 125526769, -2, 368, 482, 0, 0, 0, 0, 0, 0, 1, 125526761
RFND, 125526799, 0.2, 25, 0, 0
BARO, 125526837, 1.150068, 1001.047, 41.71, 0.4159106, 125526, 0, 35
CTUN, 125526849, 0, 0, 0, 0.3206044, 0.03826308, 0.03826308, 1.15, 0, 0.19, 0, 0, -1
ATT, 125526964, 0, 0.31, 0, 0.8, 271.55, 271.57, 0, 1
RATE, 125526970, -1.398243, -0.355925, -0.0005405165, -3.624548, 0.2049447, -0.01102528, 0.009906738, 0.1127608, 0.0001712603, 673.3511, 0.4393578, 0
NKF1, 125526978, 0.31, 0.8, 271.56, -0.0776849, 0.06462283, 0.01662595, 0, 0, 0, -0.03826308, -0.01, 0, 0
NKF2, 125526978, 3, 0, 0, 0, 0, 0, 0, 0, 0, 0, 0, 0, 0
NKF3, 125526978, 0, 0, 0, -0.18, 0.2, 0.02, 0, 0, 0, 0, 0
NKF4, 125526978, 0, 0, 0, 0, 0, 1.009489E-05, 0, 0, 0, 19, 229, 0, 0
NKF5, 125526978, 0, 0, 0, 0, 0.17, 0.13, 0, 0.19, 0.5, 5.836103E-05, 0.003702126, 0.007453406
NKQ1, 125526978, 0.7165608, 0.01237673, 0.004519918, -0.6974002
AHR2, 125527023, 0.4, 0.83, 271.72, 1.15, 0, 0, 0.7176015, 0.007596425, 0.00274645, -0.6964071
MOTB, 125527031, 1, 1, 0, 1
RCIN, 125527035, 0, 0, 0, 0, 0, 0, 0, 0, 0, 0, 0, 0, 0, 0
RCOU, 125527041, 1181, 1181, 1181, 1181, 0, 0, 0, 0, 0, 0, 0, 0, 0, 0
VIBE, 125527049, 0.506336, 0.5100809, 0.3419181, 0, 0, 0
CTRL, 125527055, 0.003347755, 0.0005975156, 0.008546816, 0.000769524, 0.00055309
PRX, 125527085, 1, 3.58, 0, 0.57, 0, 3.58, 0, 3.58, 0, 0, 90, 0.57
IMU, 125527093, -0.006421634, 0.00345632, 0.001999603, 0.2081923, -0.1396077, -9.774875, 0, 0, 43.07662, 1, 1, 998, 998
IMU, 125567676, 0.002430588, -0.005151351, 0.006618809, 0.2013698, -0.1738331, -9.739825, 0, 0, 43.07652, 1, 1, 998, 998
RFND, 125576664, 0.2, 25, 0, 0
IMU, 125606653, 0.008001291, 0.0001320727, 0.01208538, 0.1938342, -0.1385714, -9.744303, 0, 0, 43.07673, 1, 1, 998, 998
MAG, 125626512, -3, 363, 479, 0, 0, 0, 0, 0, 0, 1, 125626504
RFND, 125626584, 0.2, 25, 0, 0
BARO, 125626621, 1.085076, 1001.054, 41.72, 0.8159264, 125626, 0, 35
CTUN, 125626634, 0, 0, 0, 0.3206044, 0.03886619, 0.03886619, 1.08, 0, 0.19, 0, 0, -1
ATT, 125626753, 0, 0.31, 0, 0.79, 271.55, 271.56, 0, 1
RATE, 125626759, -1.393887, -0.2637175, 8.867308E-05, -3.594408, -0.3181924, -0.006853588, 0.009798826, -0.5863184, -2.51067E-05, 694.4435, -1.589203, 0
NKF1, 125626767, 0.31, 0.79, 271.55, -0.07952057, 0.06455287, 0.01714675, 0, 0, 0, -0.03886619, -0.01, 0, 0
NKF2, 125626767, 3, 0, 0, 0, 0, 0, 0, 0, 0, 0, 0, 0, 0
NKF3, 125626767, 0, 0, 0, -0.19, 0.21, 0.02, 0, 0, 0, 0, 0
NKF4, 125626767, 0, 0, 0, 0, 0, 1.108062E-05, 0, 0, 0, 19, 229, 0, 0
NKF5, 125626767, 0, 0, 0, 0, 0.17, 0.13, 0, 0.19, 0.5, 6.652276E-05, 0.003189672, 0.006036032
NKQ1, 125626767, 0.7165445, 0.01233894, 0.004465392, -0.697418
AHR2, 125626813, 0.4, 0.82, 271.71, 1.08, 0, 0, 0.717586, 0.007559686, 0.002698932, -0.6964237
MOTB, 125626819, 1, 1, 0, 1
RCIN, 125626823, 0, 0, 0, 0, 0, 0, 0, 0, 0, 0, 0, 0, 0, 0
RCOU, 125626829, 1181, 1181, 1181, 1181, 0, 0, 0, 0, 0, 0, 0, 0, 0, 0
VIBE, 125626837, 0.391015, 0.4039477, 0.3664426, 0, 0, 0
CTRL, 125626843, 0.003400808, 0.001107817, 0.008532319, 0.0008730286, 0.000469658
PRX, 125626875, 2, 3.58, 0, 0.57, 0, 3.58, 0, 3.58, 0, 0, 90, 0.57
IMU, 125646853, -0.002965854, 0.005370859, 0.007414453, 0.211104, -0.07824828, -9.767361, 0, 0, 43.07682, 1, 1, 998, 998
RFND, 125676523, 0.2, 25, 0, 0
IMU, 125686610, -0.008966276, -1.880617E-05, -0.0054211, 0.211407, -0.1215047, -9.74077, 0, 0, 43.07659, 1, 1, 998, 998
MAG, 125727113, -3, 364, 479, 0, 0, 0, 0, 0, 0, 1, 125727105
RFND, 125727144, 0.2, 25, 0, 0
BARO, 125727183, 1.085076, 1001.054, 41.72, 0.633073, 125727, 0, 35
CTUN, 125727195, 0, 0, 0, 0.3206044, 0.03889793, 0.03889793, 1.08, 0, 0.19, 0, 0, -1
DU32, 125727234, 7, 33611992
ATT, 125727567, 0, 0.31, 0, 0.8, 271.55, 271.57, 0, 1
RATE, 125727575, -1.413429, 0.02253048, -0.002051293, -3.607702, 0.01900748, -0.009218588, 0.009983428, -0.2180582, 4.812996E-05, 761.2106, -2.588177, 0
NKF1, 125727583, 0.31, 0.8, 271.56, -0.08038589, 0.06511594, 0.01879532, 0, 0, 0, -0.03889793, -0.01, 0, 0
NKF2, 125727583, 3, 0, 0, 0, 0, 0, 0, 0, 0, 0, 0, 0, 0
NKF3, 125727583, 0, 0, 0, -0.2, 0.22, 0.02, 0, 0, 0, 0, 0
NKF4, 125727583, 0, 0, 0, 0, 0, 1.184973E-05, 0, 0, 0, 19, 229, 0, 0
NKF5, 125727583, 0, 0, 0, 0, 0.17, 0.13, 0, 0.19, 0.5, 7.510329E-05, 0.002610949, 0.004541478
NKQ1, 125727583, 0.716563, 0.01237947, 0.004467423, -0.6973983
AHR2, 125727632, 0.4, 0.83, 271.72, 1.08, 0, 0, 0.7176058, 0.007611666, 0.002715527, -0.6964027
MOTB, 125727639, 1, 1, 0, 1
RCIN, 125727643, 0, 0, 0, 0, 0, 0, 0, 0, 0, 0, 0, 0, 0, 0
RCOU, 125727649, 1181, 1181, 1181, 1181, 0, 0, 0, 0, 0, 0, 0, 0, 0, 0
VIBE, 125727658, 0.3271726, 0.3198619, 0.3924059, 0, 0, 0
CTRL, 125727664, 0.003441074, 0.001486461, 0.008505367, 0.000841583, 0.0003913967
PRX, 125727695, 2, 3.58, 0, 0.57, 0, 3.58, 0, 3.58, 0, 0, 90, 0.57
IMU, 125727702, 0.0001832165, 0.0002111493, -0.003774229, 0.2905244, -0.1501601, -9.742441, 0, 0, 43.07654, 1, 1, 998, 998
PM, 125727713, 21, 4000, 4956, 10, 0, 0, 43, 262144
IMU, 125766740, 0.000958374, -0.00180853, -0.001560141, 0.2840413, -0.1190399, -9.77457, 0, 0, 43.0765, 1, 1, 998, 998
RFND, 125777013, 0.2, 25, 0, 0
IMU, 125806769, -0.004001152, -0.005267887, -0.001395169, 0.2422409, -0.1310101, -9.734821, 0, 0, 43.07677, 1, 1, 998, 998
MAG, 125826664, 0, 367, 481, 0, 0, 0, 0, 0, 0, 1, 125826656
RFND, 125826694, 0.2, 25, 0, 0
BARO, 125826732, 1.147242, 1001.047, 41.72, 0.04095677, 125826, 0, 35
CTUN, 125826744, 0, 0, 0, 0.3206044, 0.03912055, 0.03912055, 1.14, 0, 0.19, 0, 0, -2
ATT, 125826845, 0, 0.31, 0, 0.8, 271.56, 271.57, 0, 1
RATE, 125826852, -1.426594, 0.1232633, -0.005230885, -3.599226, 0.3663018, -0.01111922, 0.01001411, 0.2282718, 6.560062E-05, 820.5805, -2.537918, 0
NKF1, 125826859, 0.31, 0.8, 271.56, -0.08093908, 0.06648726, 0.02026125, 0, 0, 0, -0.03912055, -0.01, 0, 0
NKF2, 125826859, 3, 0, 0, 0, 0, 0, 0, 0, 0, 0, 0, 0, 0
NKF3, 125826859, 0, 0, 0, -0.2, 0.22, 0.02, 0, 0, 0, 0, 0
NKF4, 125826859, 0, 0, 0, 0, 0, 1.291928E-05, 0, 0, 0, 19, 229, 0, 0
NKF5, 125826859, 0, 0, 0, 0, 0.17, 0.13, 0, 0.19, 0.5, 6.928384E-05, 0.002859521, 0.005198332
NKQ1, 125826859, 0.7165878, 0.01238035, 0.004449925, -0.6973729
AHR2, 125826904, 0.41, 0.82, 271.72, 1.14, 0, 0, 0.7176318, 0.00761167, 0.002701925, -0.696376
MOTB, 125826912, 1, 1, 0, 1
RCIN, 125826916, 0, 0, 0, 0, 0, 0, 0, 0, 0, 0, 0, 0, 0, 0
RCOU, 125826947, 1181, 1181, 1181, 1181, 0, 0, 0, 0, 0, 0, 0, 0, 0, 0
VIBE, 125826958, 0.3492988, 0.3059325, 0.4811411, 0, 0, 0
CTRL, 125826965, 0.003359422, 0.001315149, 0.008481893, 0.0009493043, 0.0003250832
PRX, 125826997, 1, 3.58, 0, 0.57, 0, 3.58, 0, 3.58, 0, 0, 90, 0.57
IMU, 125846760, 0.005673859, -0.002240914, -0.005185408, 0.1916604, -0.1710259, -9.727053, 0, 0, 43.07641, 1, 1, 998, 998
RFND, 125876602, 0.2, 25, 0, 0
IMU, 125886755, 0.01023699, 0.006616805, -0.006540635, 0.2032422, -0.118526, -9.731265, 0, 0, 43.06888, 1, 1, 998, 998
MAG, 125926505, -3, 365, 481, 0, 0, 0, 0, 0, 0, 1, 125926497
RFND, 125926534, 0.2, 25, 0, 0
BARO, 125926571, 1.175499, 1001.044, 41.7, -0.1416636, 125926, 0, 35
CTUN, 125926582, 0, 0, 0, 0.3206044, 0.03877312, 0.03877312, 1.17, 0, 0.19, 0, 0, -2
ATT, 125926679, 0, 0.31, 0, 0.79, 271.55, 271.56, 0, 1
RATE, 125926685, -1.392601, -0.2104966, -0.004657884, -3.587178, 0.1426005, -0.01119195, 0.009844857, -0.3989857, -0.0001750921, 956.225, -4.182816, 0
NKF1, 125926693, 0.31, 0.79, 271.55, -0.08210303, 0.06579429, 0.0236105, 0, 0, 0, -0.03877312, -0.01, 0, 0
NKF2, 125926693, 3, 0, 0, 0, 0, 0, 0, 0, 0, 0, 0, 0, 0
NKF3, 125926693, 0, 0, 0, -0.21, 0.23, 0.02, 0, 0, 0, 0, 0
NKF4, 125926693, 0, 0, 0, 0, 0, 1.386909E-05, 0, 0, 0, 19, 229, 0, 0
NKF5, 125926693, 0, 0, 0, 0, 0.17, 0.13, 0, 0.19, 0.5, 7.925292E-05, 0.002232478, 0.003507219
NKQ1, 125926693, 0.7165372, 0.0123256, 0.004462109, -0.6974258
AHR2, 125926763, 0.4, 0.82, 271.71, 1.17, 0, 0, 0.7175827, 0.007543855, 0.002706937, -0.6964272
MOTB, 125926770, 1, 1, 0, 1
RCIN, 125926775, 0, 0, 0, 0, 0, 0, 0, 0, 0, 0, 0, 0, 0, 0
RCOU, 125926780, 1181, 1181, 1181, 1181, 0, 0, 0, 0, 0, 0, 0, 0, 0, 0
VIBE, 125926790, 0.2856479, 0.2698438, 0.4485576, 0, 0, 0
CTRL, 125926796, 0.003352829, 0.00169159, 0.008436243, 0.001158273, 0.000278662
PRX, 125926827, 1, 3.58, 0, 0.57, 0, 3.58, 0, 3.58, 0, 0, 90, 0.57
IMU, 125926835, -0.003883835, 0.002368457, -0.006932027, 0.2371653, -0.06590161, -9.728728, 0, 0, 43.0517, 1, 1, 998, 998
IMU, 125966627, -0.01571838, -0.009349704, 0.004401813, 0.2403618, -0.1473271, -9.726659, 0, 0, 43.02862, 1, 1, 998, 998
RFND, 125976510, 0.2, 25, 0, 0
IMU, 126006599, 0.001911576, -0.01076559, 0.01051128, 0.1926735, -0.2384985, -9.72045, 0, 0, 43.00077, 1, 1, 998, 998
MAG, 126026512, 0, 362, 483, 0, 0, 0, 0, 0, 0, 1, 126026504
RFND, 126026540, 0.2, 25, 0, 0
BARO, 126026576, 1.141591, 1001.048, 41.69, 0.09625117, 126026, 0, 35
CTUN, 126026588, 0, 0, 0, 0.3206044, 0.03828533, 0.03828533, 1.14, 0, 0.19, 0, 0, -2
ATT, 126026753, 0, 0.3, 0, 0.79, 271.55, 271.57, 0, 1
RATE, 126026759, -1.341799, -1.057418, 0.0006584344, -3.573362, 0.2233007, -0.01176961, 0.009445027, -0.9630627, 0.0002220892, 1078.04, -3.35741, 0
NKF1, 126026766, 0.3, 0.79, 271.56, -0.08313909, 0.06608631, 0.02661828, 0, 0, 0, -0.03828533, -0.01, 0, 0
NKF2, 126026766, 3, 0, 0, 0, 0, 0, 0, 0, 0, 0, 0, 0, 0
NKF3, 126026766, 0, 0, 0, -0.21, 0.23, 0.02, 0, 0, 0, 0, 0
NKF4, 126026766, 0, 0, 0, 0, 0, 1.496717E-05, 0, 0, 0, 19, 229, 0, 0
