FMT, 128, 89, FMT, BBnNZ, Type,Length,Name,Format,Columns
FMT, 129, 31, PARM, QNf, TimeUS,Name,Value
FMT, 130, 46, GPS, QBIHBcLLefffB, TimeUS,Status,GMS,GWk,NSats,HDop,Lat,Lng,Alt,Spd,GCrs,VZ,U
FMT, 131, 46, GPS2, QBIHBcLLefffB, TimeUS,Status,GMS,GWk,NSats,HDop,Lat,Lng,Alt,Spd,GCrs,VZ,U
FMT, 132, 46, GPSB, QBIHBcLLefffB, TimeUS,Status,GMS,GWk,NSats,HDop,Lat,Lng,Alt,Spd,GCrs,VZ,U
FMT, 193, 24, GPA, QCCCCBI, TimeUS,VDop,HAcc,VAcc,SAcc,VV,SMS
FMT, 194, 24, GPA2, QCCCCBI, TimeUS,VDop,HAcc,VAcc,SAcc,VV,SMS
FMT, 195, 24, GPAB, QCCCCBI, TimeUS,VDop,HAcc,VAcc,SAcc,VV,SMS
FMT, 133, 53, IMU, QffffffIIfBBHH, TimeUS,GyrX,GyrY,GyrZ,AccX,AccY,AccZ,EG,EA,T,GH,AH,GHz,AHz
FMT, 134, 75, MSG, QZ, TimeUS,Message
FMT, 135, 39, RCIN, QHHHHHHHHHHHHHH, TimeUS,C1,C2,C3,C4,C5,C6,C7,C8,C9,C10,C11,C12,C13,C14
FMT, 136, 39, RCOU, QHHHHHHHHHHHHHH, TimeUS,C1,C2,C3,C4,C5,C6,C7,C8,C9,C10,C11,C12,C13,C14
FMT, 137, 15, RSSI, Qf, TimeUS,RXRSSI
FMT, 139, 37, BARO, QffcfIff, TimeUS,Alt,Press,Temp,CRt,SMS,Offset,GndTemp
FMT, 140, 22, POWR, QffHB, TimeUS,Vcc,VServo,Flags,Safety
FMT, 143, 45, CMD, QHHHfffffff, TimeUS,CTot,CNum,CId,Prm1,Prm2,Prm3,Prm4,Lat,Lng,Alt
FMT, 144, 20, RAD, QBBBBBHH, TimeUS,RSSI,RemRSSI,TxBuf,Noise,RemNoise,RxErrors,Fixed
FMT, 146, 43, CAM, QIHLLeeeccC, TimeUS,GPSTime,GPSWeek,Lat,Lng,Alt,RelAlt,GPSAlt,Roll,Pitch,Yaw
FMT, 232, 43, TRIG, QIHLLeeeccC, TimeUS,GPSTime,GPSWeek,Lat,Lng,Alt,RelAlt,GPSAlt,Roll,Pitch,Yaw
FMT, 162, 30, ARSP, QffcffB, TimeUS,Airspeed,DiffPress,Temp,RawPress,Offset,U
FMT, 164, 45, CURR, QfffcHHHHHHHHHH, TimeUS,Volt,Curr,CurrTot,Temp,V1,V2,V3,V4,V5,V6,V7,V8,V9,V10
FMT, 165, 45, CUR2, QfffcHHHHHHHHHH, TimeUS,Volt,Curr,CurrTot,Temp,V1,V2,V3,V4,V5,V6,V7,V8,V9,V10
FMT, 163, 27, ATT, QccccCCCC, TimeUS,DesRoll,Roll,DesPitch,Pitch,DesYaw,Yaw,ErrRP,ErrYaw
FMT, 166, 34, MAG, QhhhhhhhhhBI, TimeUS,MagX,MagY,MagZ,OfsX,OfsY,OfsZ,MOfsX,MOfsY,MOfsZ,Health,S
FMT, 169, 14, MODE, QMBB, TimeUS,Mode,ModeNum,Rsn
FMT, 196, 17, RFND, QCBCB, TimeUS,Dist1,Orient1,Dist2,Orient2
FMT, 223, 33, DMS, IIIIIBBBBBBBBBB, TimeMS,N,Dp,RT,RS,Er,Fa,Fmn,Fmx,Pa,Pmn,Pmx,Sa,Smn,Smx
FMT, 240, 41, BCN, QBBfffffff, TimeUS,Health,Cnt,D0,D1,D2,D3,PosX,PosY,PosZ
FMT, 138, 53, IMU2, QffffffIIfBBHH, TimeUS,GyrX,GyrY,GyrZ,AccX,AccY,AccZ,EG,EA,T,GH,AH,GHz,AHz
FMT, 147, 53, IMU3, QffffffIIfBBHH, TimeUS,GyrX,GyrY,GyrZ,AccX,AccY,AccZ,EG,EA,T,GH,AH,GHz,AHz
FMT, 141, 45, AHR2, QccCfLLffff, TimeUS,Roll,Pitch,Yaw,Alt,Lat,Lng,Q1,Q2,Q3,Q4
FMT, 180, 31, POS, QLLfff, TimeUS,Lat,Lng,Alt,RelHomeAlt,RelOriginAlt
FMT, 142, 45, SIM, QccCfLLffff, TimeUS,Roll,Pitch,Yaw,Alt,Lat,Lng,Q1,Q2,Q3,Q4
FMT, 198, 51, NKF1, QccCfffffffccc, TimeUS,Roll,Pitch,Yaw,VN,VE,VD,dPD,PN,PE,PD,GX,GY,GZ
FMT, 199, 35, NKF2, QbccccchhhhhhB, TimeUS,AZbias,GSX,GSY,GSZ,VWN,VWE,MN,ME,MD,MX,MY,MZ,MI
FMT, 200, 33, NKF3, Qcccccchhhcc, TimeUS,IVN,IVE,IVD,IPN,IPE,IPD,IMX,IMY,IMZ,IYAW,IVT
FMT, 201, 35, NKF4, QcccccfbbHBHHb, TimeUS,SV,SP,SH,SM,SVT,errRP,OFN,OFE,FS,TS,SS,GPS,PI
FMT, 202, 40, NKF5, QBhhhcccCCfff, TimeUS,NI,FIX,FIY,AFI,HAGL,offset,RI,rng,Herr,eAng,eVel,ePos
FMT, 203, 51, NKF6, QccCfffffffccc, TimeUS,Roll,Pitch,Yaw,VN,VE,VD,dPD,PN,PE,PD,GX,GY,GZ
FMT, 204, 35, NKF7, QbccccchhhhhhB, TimeUS,AZbias,GSX,GSY,GSZ,VWN,VWE,MN,ME,MD,MX,MY,MZ,MI
FMT, 205, 33, NKF8, Qcccccchhhcc, TimeUS,IVN,IVE,IVD,IPN,IPE,IPD,IMX,IMY,IMZ,IYAW,IVT
FMT, 206, 35, NKF9, QcccccfbbHBHHb, TimeUS,SV,SP,SH,SM,SVT,errRP,OFN,OFE,FS,TS,SS,GPS,PI
FMT, 207, 36, NKF0, QBccCCcccccccc, TimeUS,ID,rng,innov,SIV,TR,BPN,BPE,BPD,OFH,OFL,OFN,OFE,OFD
FMT, 208, 27, NKQ1, Qffff, TimeUS,Q1,Q2,Q3,Q4
FMT, 209, 27, NKQ2, Qffff, TimeUS,Q1,Q2,Q3,Q4
FMT, 210, 51, XKF1, QccCfffffffccc, TimeUS,Roll,Pitch,Yaw,VN,VE,VD,dPD,PN,PE,PD,GX,GY,GZ
FMT, 211, 34, XKF2, QccccchhhhhhB, TimeUS,AX,AY,AZ,VWN,VWE,MN,ME,MD,MX,MY,MZ,MI
FMT, 212, 33, XKF3, Qcccccchhhcc, TimeUS,IVN,IVE,IVD,IPN,IPE,IPD,IMX,IMY,IMZ,IYAW,IVT
FMT, 213, 35, XKF4, QcccccfbbHBHHb, TimeUS,SV,SP,SH,SM,SVT,errRP,OFN,OFE,FS,TS,SS,GPS,PI
FMT, 214, 40, XKF5, QBhhhcccCCfff, TimeUS,NI,FIX,FIY,AFI,HAGL,offset,RI,rng,Herr,eAng,eVel,ePos
FMT, 215, 51, XKF6, QccCfffffffccc, TimeUS,Roll,Pitch,Yaw,VN,VE,VD,dPD,PN,PE,PD,GX,GY,GZ
FMT, 216, 34, XKF7, QccccchhhhhhB, TimeUS,AX,AY,AZ,VWN,VWE,MN,ME,MD,MX,MY,MZ,MI
FMT, 217, 33, XKF8, Qcccccchhhcc, TimeUS,IVN,IVE,IVD,IPN,IPE,IPD,IMX,IMY,IMZ,IYAW,IVT
FMT, 218, 35, XKF9, QcccccfbbHBHHb, TimeUS,SV,SP,SH,SM,SVT,errRP,OFN,OFE,FS,TS,SS,GPS,PI
FMT, 219, 36, XKF0, QBccCCcccccccc, TimeUS,ID,rng,innov,SIV,TR,BPN,BPE,BPD,OFH,OFL,OFN,OFE,OFD
FMT, 220, 27, XKQ1, Qffff, TimeUS,Q1,Q2,Q3,Q4
FMT, 221, 27, XKQ2, Qffff, TimeUS,Q1,Q2,Q3,Q4
FMT, 222, 35, XKFD, Qffffff, TimeUS,IX,IY,IZ,IVX,IVY,IVZ
FMT, 148, 34, TERR, QBLLHffHH, TimeUS,Status,Lat,Lng,Spacing,TerrH,CHeight,Pending,Loaded
FMT, 149, 18, UBX1, QBHBBH, TimeUS,Instance,noisePerMS,jamInd,aPower,agcCnt
FMT, 150, 16, UBX2, QBbBbB, TimeUS,Instance,ofsI,magI,ofsQ,magQ
FMT, 151, 18, UBY1, QBHBBH, TimeUS,Instance,noisePerMS,jamInd,aPower,agcCnt
FMT, 152, 16, UBY2, QBbBbB, TimeUS,Instance,ofsI,magI,ofsQ,magQ
FMT, 170, 42, GRAW, QIHBBddfBbB, TimeUS,WkMS,Week,numSV,sv,cpMes,prMes,doMes,mesQI,cno,lli
FMT, 171, 24, GRXH, QdHbBB, TimeUS,rcvTime,week,leapS,numMeas,recStat
FMT, 172, 41, GRXS, QddfBBBHBBBBB, TimeUS,prMes,cpMes,doMes,gnss,sv,freq,lock,cno,prD,cpD,doD,trk
FMT, 173, 63, SBFE, QIHBBdddfffff, TimeUS,TOW,WN,Mode,Err,Lat,Lng,Height,Undul,Vn,Ve,Vu,COG
FMT, 153, 19, ESC1, Qcccc, TimeUS,RPM,Volt,Curr,Temp
FMT, 154, 19, ESC2, Qcccc, TimeUS,RPM,Volt,Curr,Temp
FMT, 155, 19, ESC3, Qcccc, TimeUS,RPM,Volt,Curr,Temp
FMT, 156, 19, ESC4, Qcccc, TimeUS,RPM,Volt,Curr,Temp
FMT, 157, 19, ESC5, Qcccc, TimeUS,RPM,Volt,Curr,Temp
FMT, 158, 19, ESC6, Qcccc, TimeUS,RPM,Volt,Curr,Temp
FMT, 159, 19, ESC7, Qcccc, TimeUS,RPM,Volt,Curr,Temp
FMT, 160, 19, ESC8, Qcccc, TimeUS,RPM,Volt,Curr,Temp
FMT, 167, 34, MAG2, QhhhhhhhhhBI, TimeUS,MagX,MagY,MagZ,OfsX,OfsY,OfsZ,MOfsX,MOfsY,MOfsZ,Health,S
FMT, 168, 34, MAG3, QhhhhhhhhhBI, TimeUS,MagX,MagY,MagZ,OfsX,OfsY,OfsZ,MOfsX,MOfsY,MOfsZ,Health,S
FMT, 174, 31, ACC1, QQfff, TimeUS,SampleUS,AccX,AccY,AccZ
FMT, 175, 31, ACC2, QQfff, TimeUS,SampleUS,AccX,AccY,AccZ
FMT, 176, 31, ACC3, QQfff, TimeUS,SampleUS,AccX,AccY,AccZ
FMT, 177, 31, GYR1, QQfff, TimeUS,SampleUS,GyrX,GyrY,GyrZ
FMT, 178, 31, GYR2, QQfff, TimeUS,SampleUS,GyrX,GyrY,GyrZ
FMT, 179, 31, GYR3, QQfff, TimeUS,SampleUS,GyrX,GyrY,GyrZ
FMT, 181, 35, PIDR, Qffffff, TimeUS,Des,P,I,D,FF,AFF
FMT, 182, 35, PIDP, Qffffff, TimeUS,Des,P,I,D,FF,AFF
FMT, 183, 35, PIDY, Qffffff, TimeUS,Des,P,I,D,FF,AFF
FMT, 184, 35, PIDA, Qffffff, TimeUS,Des,P,I,D,FF,AFF
FMT, 185, 35, PIDS, Qffffff, TimeUS,Des,P,I,D,FF,AFF
FMT, 186, 35, PIDL, Qffffff, TimeUS,Des,P,I,D,FF,AFF
FMT, 161, 37, BAR2, QffcfIff, TimeUS,Alt,Press,Temp,CRt,SMS,Offset,GndTemp
FMT, 197, 37, BAR3, QffcfIff, TimeUS,Alt,Press,Temp,CRt,SMS,Offset,GndTemp
FMT, 187, 35, VIBE, QfffIII, TimeUS,VibeX,VibeY,VibeZ,Clip0,Clip1,Clip2
FMT, 188, 47, IMT, Qfffffffff, TimeUS,DelT,DelvT,DelaT,DelAX,DelAY,DelAZ,DelVX,DelVY,DelVZ
FMT, 189, 47, IMT2, Qfffffffff, TimeUS,DelT,DelvT,DelaT,DelAX,DelAY,DelAZ,DelVX,DelVY,DelVZ
FMT, 190, 47, IMT3, Qfffffffff, TimeUS,DelT,DelvT,DelaT,DelAX,DelAY,DelAZ,DelVX,DelVY,DelVZ
FMT, 191, 24, ORGN, QBLLe, TimeUS,Type,Lat,Lng,Alt
FMT, 192, 19, RPM, Qff, TimeUS,rpm1,rpm2
FMT, 233, 47, GMB1, Iffffffffff, TimeMS,dt,dax,day,daz,dvx,dvy,dvz,jx,jy,jz
FMT, 234, 44, GMB2, IBfffffffff, TimeMS,es,ex,ey,ez,rx,ry,rz,tx,ty,tz
FMT, 235, 13, GMB3, Ihhh, TimeMS,rl_torque_cmd,el_torque_cmd,az_torque_cmd
FMT, 236, 59, RATE, Qffffffffffff, TimeUS,RDes,R,ROut,PDes,P,POut,YDes,Y,YOut,ADes,A,AOut
FMT, 237, 23, RALY, QBBLLh, TimeUS,Tot,Seq,Lat,Lng,Alt
FMT, 238, 43, VISO, Qffffffff, TimeUS,dt,AngDX,AngDY,AngDZ,PosDX,PosDY,PosDZ,conf
FMT, 224, 23, SBPH, QIII, TimeUS,CrcError,LastInject,IARhyp
FMT, 229, 80, SBR1, QHHBZ, TimeUS,msg_type,sender_id,msg_len,d1
FMT, 230, 205, SBR2, QHZZZ, TimeUS,msg_type,d2,d3,d4
FMT, 25, 41, ATUN, QBBfffffff, TimeUS,Axis,TuneStep,Targ,Min,Max,RP,RD,SP,ddt
FMT, 26, 19, ATDE, Qff, TimeUS,Angle,Rate
FMT, 31, 22, PTUN, QBfHHH, TimeUS,Param,TunVal,CtrlIn,TunLo,TunHi
FMT, 12, 28, OF, QBffff, TimeUS,Qual,flowX,flowY,bodyX,bodyY
FMT, 5, 51, NTUN, Qffffffffff, TimeUS,DPosX,DPosY,PosX,PosY,DVelX,DVelY,VelX,VelY,DAccX,DAccY
FMT, 4, 51, CTUN, Qffffffeccfhh, TimeUS,ThI,ABst,ThO,ThH,DAlt,Alt,BAlt,DSAlt,SAlt,TAlt,DCRt,CRt
FMT, 6, 32, PM, QHHIhBHII, TimeUS,NLon,NLoop,MaxT,PMT,I2CErr,INSErr,LogDrop,Mem
FMT, 30, 27, MOTB, Qffff, TimeUS,LiftMax,BatVolt,BatRes,ThLimit
FMT, 13, 12, EV, QB, TimeUS,Id
FMT, 20, 14, D16, QBh, TimeUS,Id,Value
FMT, 21, 14, DU16, QBH, TimeUS,Id,Value
FMT, 22, 16, D32, QBi, TimeUS,Id,Value
FMT, 23, 16, DU32, QBI, TimeUS,Id,Value
FMT, 24, 16, DFLT, QBf, TimeUS,Id,Value
FMT, 19, 13, ERR, QBB, TimeUS,Subsys,ECode
FMT, 32, 19, HELI, Qff, TimeUS,DRRPM,ERRPM
FMT, 33, 29, PL, QBBffff, TimeUS,Heal,TAcq,pX,pY,vX,vY
FMT, 34, 36, GUID, QBffffff, TimeUS,Type,pX,pY,pZ,vX,vY,vZ
FMT, 35, 32, THRO, QBffffbbbb, TimeUS,Stage,Vel,VelZ,Acc,AccEfZ,Throw,AttOk,HgtOk,PosOk
FMT, 36, 56, PRX, QBfffffffffff, TimeUS,Health,D0,D45,D90,D135,D180,D225,D270,D315,DUp,CAn,CDis
MODE, 17271062, 100, 100, 2
FMT, 254, 47, NKT1, QIffffffff, TimeUS,Cnt,IMUMin,IMUMax,EKFMin,EKFMax,AngMin,AngMax,VelMin,VelM
FMT, 253, 31, CTRL, Qfffff, TimeUS,RMSRollP,RMSRollD,RMSPitchP,RMSPitchD,RMSYaw
MAG, 17371460, 218, 623, 266, 0, 0, 0, 0, 0, 0, 1, 17371452
RFND, 17371494, 0.2, 25, 0, 0
BARO, 17371531, -0.0620932, 988.058, 34.92, 0.187933, 17371, 0, 34.64
CTUN, 17371544, 0, 0, 0, 0.3202634, 0.05920081, 0.05920081, -0.06, 0, 0.19, 0, 0, 0
DU32, 17371673, 7, 50389208
IMU, 17371769, -0.0004211727, 0.0002538649, 0.001305831, 0.08051179, 0.02084306, -9.784132, 0, 0, 36.29191, 1, 1, 999, 999
MSG, 17409198, APM:Copter V3.5.7 (870dd8f0)
MSG, 17409202, New mission
MSG, 17409213, Frame: QUAD
MODE, 17409217, Autonomous, 100, 2
IMU, 17413807, 0.0007012619, 0.0003501255, -0.001291963, 0.0975478, 0.01295392, -9.790858, 0, 0, 36.29298, 1, 1, 999, 999
RFND, 17423652, 0.2, 25, 0, 0
IMU, 17455026, 0.0001732605, 0.0009454492, 0.0005617174, 0.07584403, 0.01541213, -9.798081, 0, 0, 36.29525, 1, 1, 999, 999
MAG, 17475101, 224, 618, 260, 0, 0, 0, 0, 0, 0, 1, 17475093
RFND, 17475137, 0.2, 25, 0, 0
BARO, 17475173, -0.03386902, 988.0552, 34.93, -0.06437783, 17475, 0, 34.64
CTUN, 17475187, 0, 0, 0, 0.3202634, 0.05897718, 0.05897718, -0.03, 0, 0.19, 0, 0, 0
ATT, 17477478, 0, -0.05, 0, -0.64, 359.91, 359.92, 0, 1
RATE, 17477487, 0.2627267, 0.0285856, 0.0005404741, 2.882203, 0.005351149, 0.006985944, 0.002881324, -0.001155746, 3.796554E-06, 312.7009, 0.2575874, 0
NKF1, 17477495, -0.05, -0.64, 359.91, 0.001080486, -0.004380132, 0.007721009, 0, 0, 0, -0.05895388, 0.01, 0, 0
NKF2, 17477495, 1, 0, 0, 0, 0, 0, 0, 0, 0, 0, 0, 0, 0
NKF3, 17477495, 0, 0, 0, 0, 0, 0, 0, 0, 0, 0, 0
NKF4, 17477495, 0, 0, 0, 0, 0, 5.61511E-06, 0, 0, 0, 19, 229, 0, 0
NKF5, 17477495, 0, 0, 0, 0, 0.19, 0.13, 0, 0.19, 0.5, 5.377407E-05, 0.001199433, 0.001397503
NKQ1, 17477495, 0.9999895, -0.001528973, 0.004255758, -0.0007131208
AHR2, 17477540, -0.03, -0.62, 359.91, -0.03, 0, 0, 0.9999849, -0.0002981559, -0.005442069, -0.0007436302
MOTB, 17477548, 1, 1, 0, 1
RCIN, 17477553, 0, 0, 0, 0, 0, 0, 0, 0, 0, 0, 0, 0, 0, 0
RCOU, 17477559, 1101, 1101, 1101, 1101, 0, 0, 0, 0, 0, 0, 0, 0, 0, 0
VIBE, 17477567, 0.02226526, 0.02251638, 0.03739046, 0, 0, 0
CTRL, 17477573, 0.0006039656, 0.0001681817, 0.006785774, 0.0001446853, 5.924223E-05
PRX, 17477605, 2, 0.54, 0, 0.41, 0, 3.58, 0, 2.59, 0, 0, 90, 0.41
IMU, 17497004, 0.0007225214, 0.0005209582, -0.0008567294, 0.09075942, 0.01371291, -9.7827, 0, 0, 36.29775, 1, 1, 999, 999
RFND, 17524943, 0.2, 25, 0, 0
IMU, 17535663, 0.0008807131, 0.0001451827, -0.0006925045, 0.07989772, 0.02940418, -9.814453, 0, 0, 36.29912, 1, 1, 999, 999
MAG, 17574995, 224, 623, 256, 0, 0, 0, 0, 0, 0, 1, 17574987
RFND, 17575027, 0.2, 25, 0, 0
BARO, 17575066, 0.01975693, 988.0489, 34.93, -0.09770562, 17575, 0, 34.64
CTUN, 17575079, 0, 0, 0, 0.3202634, 0.05902934, 0.05902934, 0.01, 0, 0.19, 0, 0, 0
IMU, 17575148, 0.0005729146, -0.0009765138, 0.0004770634, 0.08782343, 0.01292317, -9.779367, 0, 0, 36.30082, 1, 1, 999, 999
ATT, 17577481, 0, -0.05, 0, -0.64, 359.91, 359.92, 0, 1
RATE, 17577492, 0.2620466, 0.003651225, 0.0008142948, 2.882265, -0.05698892, 0.00703875, 0.001190683, 0.03509366, 7.515627E-05, 265.2887, -1.769733, 0
NKF1, 17577499, -0.05, -0.64, 359.91, 0.001091341, -0.00552035, 0.006550337, 0, 0, 0, -0.05901623, 0.01, 0, 0
NKF2, 17577499, 1, 0, 0, 0, 0, 0, 0, 0, 0, 0, 0, 0, 0
NKF3, 17577499, 0, 0, 0, 0, 0, 0, 0, 0, 0, 0, 0
NKF4, 17577499, 0, 0, 0, 0, 0, 3.610751E-06, 0, 0, 0, 19, 229, 0, 0
NKF5, 17577499, 0, 0, 0, 0, 0.19, 0.13, 0, 0.19, 0.5, 4.867556E-05, 0.0009950869, 0.001008066
NKQ1, 17577499, 0.9999895, -0.001526786, 0.004255472, -0.0007355739
AHR2, 17577545, -0.03, -0.62, 359.91, 0.01, 0, 0, 0.9999849, -0.0002731712, -0.005438656, -0.0007662343
MOTB, 17577553, 1, 1, 0, 1
RCIN, 17577557, 0, 0, 0, 0, 0, 0, 0, 0, 0, 0, 0, 0, 0, 0
RCOU, 17577563, 1101, 1101, 1101, 1101, 0, 0, 0, 0, 0, 0, 0, 0, 0, 0
VIBE, 17577571, 0.02057651, 0.02261524, 0.04098995, 0, 0, 0
CTRL, 17577578, 0.000601728, 0.0001760221, 0.006786144, 0.000148056, 6.454535E-05
PRX, 17577609, 2, 0.54, 0, 0.41, 0, 3.59, 0, 2.56, 0, 0, 90, 0.41
IMU, 17615768, -0.0003351437, 0.0005691898, -0.001101394, 0.08701176, 0.02797016, -9.793032, 0, 0, 36.3013, 1, 1, 999, 999
RFND, 17624960, 0.2, 25, 0, 0
IMU, 17656809, 0.001515181, -2.006304E-05, -0.0004412941, 0.08764728, 0.02121006, -9.800232, 0, 0, 36.30161, 1, 1, 999, 999
MAG, 17680403, 219, 625, 258, 0, 0, 0, 0, 0, 0, 1, 17680394
RFND, 17680434, 0.2, 25, 0, 0
BARO, 17680473, -0.03386902, 988.055, 34.93, 0.08344515, 17680, 0, 34.64
CTUN, 17680486, 0, 0, 0, 0.3202634, 0.05915178, 0.05915178, -0.03, 0, 0.19, 0, 0, 0
ATT, 17682454, 0, -0.05, 0, -0.64, 359.91, 359.92, 0, 1
RATE, 17682465, 0.2629617, -0.02071952, 0.0007707773, 2.891798, -0.003853776, 0.006880314, 0.001816502, 0.0554993, 2.07595E-05, 230.099, -0.4577637, 0
NKF1, 17682472, -0.05, -0.64, 359.91, 0.00110751, -0.006250497, 0.005681456, 0, 0, 0, -0.05913469, 0.01, 0, 0
NKF2, 17682472, 1, 0, 0, 0, 0, 0, 0, 0, 0, 0, 0, 0, 0
NKF3, 17682472, 0, 0, 0, 0, 0, 0, 0, 0, 0, 0, 0
NKF4, 17682472, 0, 0, 0, 0, 0, 2.394931E-06, 0, 0, 0, 19, 229, 0, 0
NKF5, 17682472, 0, 0, 0, 0, 0.19, 0.13, 0, 0.19, 0.5, 4.531419E-05, 0.001127103, 0.001299469
NKQ1, 17682472, 0.9999896, -0.001528022, 0.004237689, -0.0007447851
AHR2, 17682514, -0.02, -0.62, 359.91, -0.03, 0, 0, 0.9999849, -0.0002424248, -0.005450877, -0.0007755967
MOTB, 17682521, 1, 1, 0, 1
RCIN, 17682526, 0, 0, 0, 0, 0, 0, 0, 0, 0, 0, 0, 0, 0, 0
RCOU, 17682532, 1101, 1101, 1101, 1101, 0, 0, 0, 0, 0, 0, 0, 0, 0, 0
VIBE, 17682541, 0.01965672, 0.02052399, 0.03632049, 0, 0, 0
CTRL, 17682546, 0.0006138084, 0.0002148339, 0.006809212, 0.0001748681, 6.757825E-05
PRX, 17682577, 2, 0.54, 0, 0.41, 0, 3.59, 0, 2.56, 0, 0, 90, 0.41
IMU, 17701007, 0.0005741119, 0.0005639455, -0.0007098301, 0.08960439, 0.0244625, -9.777235, 0, 0, 36.30397, 1, 1, 999, 999
RFND, 17730166, 0.2, 25, 0, 0
IMU, 17740587, -0.0002414388, 0.0008048209, 0.0005333265, 0.07896356, 0.02076922, -9.790492, 0, 0, 36.30746, 1, 1, 999, 999
MAG, 17783654, 216, 628, 258, 0, 0, 0, 0, 0, 0, 1, 17783645
RFND, 17783684, 0.2, 25, 0, 0
BARO, 17783725, -0.02257935, 988.0538, 34.94, 0.1699391, 17783, 0, 34.64
CTUN, 17783737, 0, 0, 0, 0.3202634, 0.05929568, 0.05929568, -0.02, 0, 0.19, 0, 0, 0
IMU, 17783812, 0.0003876451, -0.0002075095, -6.704411E-06, 0.08257994, 0.0206465, -9.797205, 0, 0, 36.31208, 1, 1, 999, 999
ATT, 17786244, 0, -0.05, 0, -0.64, 359.91, 359.92, 0, 1
RATE, 17786255, 0.2683277, 0.0007420743, 0.0006029728, 2.887187, -0.0169975, 0.00690823, 0.001770544, -0.01071285, -1.909262E-05, 205.0513, 0.228405, 0
NKF1, 17786262, -0.05, -0.64, 359.91, 0.00142206, -0.007018228, 0.005062995, 0, 0, 0, -0.05928553, 0.01, 0, 0
NKF2, 17786262, 1, 0, 0, 0, 0, 0, 0, 0, 0, 0, 0, 0, 0
NKF3, 17786262, 0, 0, 0, 0, 0, 0, 0, 0, 0, 0, 0
NKF4, 17786262, 0, 0, 0, 0, 0, 1.603138E-06, 0, 0, 0, 19, 229, 0, 0
NKF5, 17786262, 0, 0, 0, 0, 0.19, 0.13, 0, 0.19, 0.5, 4.285603E-05, 0.0009456677, 0.0009706127
NKQ1, 17786262, 0.9999895, -0.001539795, 0.004247432, -0.0007452184
AHR2, 17786306, -0.02, -0.62, 359.91, -0.02, 0, 0, 0.9999849, -0.0002250893, -0.005435288, -0.0007760803
MOTB, 17786314, 1, 1, 0, 1
RCIN, 17786318, 0, 0, 0, 0, 0, 0, 0, 0, 0, 0, 0, 0, 0, 0
RCOU, 17786324, 1101, 1101, 1101, 1101, 0, 0, 0, 0, 0, 0, 0, 0, 0, 0
VIBE, 17786333, 0.02085848, 0.02137842, 0.03382671, 0, 0, 0
CTRL, 17786340, 0.0006251716, 0.0002027875, 0.006801635, 0.0001573429, 5.710153E-05
PRX, 17786372, 2, 0.54, 0, 0.41, 0, 3.59, 0, 2.57, 0, 0, 90, 0.41
IMU, 17822545, -0.0005927747, -0.0004830275, -0.001012002, 0.09355112, 0.03546315, -9.792484, 0, 0, 36.31683, 1, 1, 999, 999
RFND, 17833623, 0.2, 25, 0, 0
IMU, 17862853, -0.0009473586, -0.0004128055, 7.754086E-05, 0.1003216, 0.03739987, -9.771125, 0, 0, 36.32116, 1, 1, 999, 999
MAG, 17882626, 219, 628, 259, 0, 0, 0, 0, 0, 0, 1, 17882617
RFND, 17882656, 0.2, 25, 0, 0
BARO, 17882695, -0.02822418, 988.0544, 34.94, 0.06174402, 17882, 0, 34.64
CTUN, 17882709, 0, 0, 0, 0.3202634, 0.05959706, 0.05959706, -0.02, 0, 0.19, 0, 0, 0
ATT, 17885009, 0, -0.06, 0, -0.64, 359.91, 359.92, 0, 1
RATE, 17885017, 0.2919684, -0.002900157, 0.0006780636, 2.897237, 0.01020477, 0.006769942, 0.0003582173, -0.04969075, 7.977033E-05, 233.9764, -2.110195, 0
NKF1, 17885024, -0.06, -0.64, 359.91, 0.002443728, -0.007229803, 0.005777196, 0, 0, 0, -0.05958555, 0.01, 0, 0
NKF2, 17885024, 1, 0, 0, 0, 0, 0, 0, 0, 0, 0, 0, 0, 0
NKF3, 17885024, 0, 0, 0, 0, 0, 0, 0, 0, 0, 0, 0
NKF4, 17885024, 0, 0, 0, 0, 0, 1.107216E-06, 0, 0, 0, 19, 229, 0, 0
NKF5, 17885024, 0, 0, 0, 0, 0.19, 0.13, 0, 0.19, 0.5, 4.067612E-05, 0.001012379, 0.001149094
NKQ1, 17885024, 0.9999895, -0.001586377, 0.004228282, -0.000768494
AHR2, 17885068, -0.02, -0.62, 359.9, -0.02, 0, 0, 0.9999848, -0.000249418, -0.005447414, -0.0007989985
MOTB, 17885076, 1, 1, 0, 1
RCIN, 17885080, 0, 0, 0, 0, 0, 0, 0, 0, 0, 0, 0, 0, 0, 0
RCOU, 17885086, 1101, 1101, 1101, 1101, 0, 0, 0, 0, 0, 0, 0, 0, 0, 0
VIBE, 17885164, 0.01934138, 0.02336792, 0.03290363, 0, 0, 0
CTRL, 17885169, 0.000674141, 0.0001850471, 0.006823865, 0.0001398084, 5.375446E-05
PRX, 17885199, 2, 0.54, 0, 0.41, 0, 3.59, 0, 2.57, 0, 0, 90, 0.41
IMU, 17902957, -0.001107677, -0.0003225484, -0.0005166391, 0.09805983, 0.03338307, -9.779592, 0, 0, 36.32573, 1, 1, 999, 999
RFND, 17932559, 0.2, 25, 0, 0
IMU, 17943346, 0.0002304291, -0.0003006937, 0.001849985, 0.09315394, 0.02262184, -9.78253, 0, 0, 36.33029, 1, 1, 999, 999
MAG, 17982734, 221, 623, 258, 0, 0, 0, 0, 0, 0, 1, 17982726
RFND, 17982766, 0.2, 25, 0, 0
BARO, 17982805, 0.01128967, 988.0499, 34.94, -0.03415219, 17982, 0, 34.64
CTUN, 17982819, 0, 0, 0, 0.3202634, 0.05973303, 0.05973303, 0.01, 0, 0.19, 0, 0, 0
IMU, 17982892, -0.0009897919, -0.000332673, -0.0002684557, 0.09024033, 0.03411074, -9.805407, 0, 0, 36.33419, 1, 1, 1000, 1000
ATT, 17984889, 0, -0.06, 0, -0.64, 359.91, 359.92, 0, 1
RATE, 17984899, 0.3051436, -0.06312993, 0.0009253024, 2.905449, -0.003503751, 0.006553619, 0.003247164, -0.02918812, -9.195617E-06, 212.2493, 1.272964, 0
NKF1, 17984906, -0.06, -0.64, 359.91, 0.003282324, -0.007365079, 0.005240723, 0, 0, 0, -0.05971185, 0.01, 0, 0
NKF2, 17984906, 1, 0, 0, 0, 0, 0, 0, 0, 0, 0, 0, 0, 0
NKF3, 17984906, 0, 0, 0, 0, 0, 0, 0, 0, 0, 0, 0
NKF4, 17984906, 0, 0, 0, 0, 0, 7.70641E-07, 0, 0, 0, 19, 229, 0, 0
NKF5, 17984906, 0, 0, 0, 0, 0.19, 0.13, 0, 0.19, 0.5, 3.95142E-05, 0.001133533, 0.001457737
NKQ1, 17984906, 0.9999895, -0.001611571, 0.004211868, -0.0007601916
AHR2, 17984951, -0.02, -0.62, 359.9, 0.01, 0, 0, 0.9999848, -0.0002537679, -0.005454906, -0.0007905469
MOTB, 17984958, 1, 1, 0, 1
RCIN, 17984962, 0, 0, 0, 0, 0, 0, 0, 0, 0, 0, 0, 0, 0, 0
RCOU, 17984968, 1101, 1101, 1101, 1101, 0, 0, 0, 0, 0, 0, 0, 0, 0, 0
VIBE, 17984977, 0.02042779, 0.02129872, 0.03360027, 0, 0, 0
CTRL, 17984984, 0.0007100111, 0.000184329, 0.006846095, 0.0001557477, 5.255001E-05
PRX, 17985016, 2, 0.54, 0, 0.41, 0, 3.59, 0, 2.58, 0, 0, 90, 0.41
IMU, 18022579, 0.0009296479, 0.0002471949, 0.0004487669, 0.09207974, 0.02568066, -9.782194, 0, 0, 36.33801, 1, 1, 1000, 1000
RFND, 18034520, 0.2, 25, 0, 0
IMU, 18063710, 0.001119357, 0.0001200067, -0.0002926475, 0.09578644, 0.02064217, -9.793674, 0, 0, 36.34139, 1, 1, 1000, 1000
MAG, 18082548, 217, 617, 256, 0, 0, 0, 0, 0, 0, 1, 18082539
RFND, 18082578, 0.2, 25, 0, 0
BARO, 18082616, 0.005644836, 988.0506, 34.95, 0.01053638, 18082, 0, 34.64
CTUN, 18082630, 0, 0, 0, 0.3202634, 0.06000324, 0.06000324, 0, 0, 0.19, 0, 0, 0
ATT, 18084926, 0, -0.06, 0, -0.64, 359.91, 359.92, 0, 1
RATE, 18084936, 0.300161, 0.05889507, 0.000520867, 2.899136, 0.04760578, 0.006555686, 0.002628688, -0.009516928, -4.164374E-06, 225.4554, -1.105404, 0
NKF1, 18084944, -0.06, -0.64, 359.91, 0.004054762, -0.008079811, 0.005566799, 0, 0, 0, -0.05999214, 0.01, 0, 0
NKF2, 18084944, 1, 0, 0, 0, 0, 0, 0, 0, 0, 0, 0, 0, 0
NKF3, 18084944, 0, 0, 0, 0, 0, 0, 0, 0, 0, 0, 0
NKF4, 18084944, 0, 0, 0, 0, 0, 6.141954E-07, 0, 0, 0, 19, 229, 0, 0
NKF5, 18084944, 0, 0, 0, 0, 0.19, 0.13, 0, 0.19, 0.5, 3.906873E-05, 0.000894869, 0.0009841248
NKQ1, 18084944, 0.9999895, -0.001601465, 0.004224273, -0.0007562176
AHR2, 18084987, -0.02, -0.62, 359.91, 0, 0, 0, 0.999985, -0.0002278053, -0.00542855, -0.0007867688
MOTB, 18084994, 1, 1, 0, 1
RCIN, 18084999, 0, 0, 0, 0, 0, 0, 0, 0, 0, 0, 0, 0, 0, 0
RCOU, 18085004, 1101, 1101, 1101, 1101, 0, 0, 0, 0, 0, 0, 0, 0, 0, 0
VIBE, 18085013, 0.01990642, 0.0225711, 0.03638201, 0, 0, 0
CTRL, 18085020, 0.0007057849, 0.0001704579, 0.006834316, 0.0001460229, 4.42349E-05
PRX, 18085051, 2, 0.54, 0, 0.41, 0, 1.67, 0, 2.56, 0, 0, 90, 0.41
IMU, 18102585, -0.0001489802, 0.001177611, -0.001168347, 0.06612519, 0.02313795, -9.802946, 0, 0, 36.3438, 1, 1, 1000, 1000
RFND, 18132587, 0.2, 25, 0, 0
IMU, 18142582, -0.0002622509, 0.00121171, -0.001144744, 0.09525289, 0.02134759, -9.796394, 0, 0, 36.34555, 1, 1, 1000, 1000
MAG, 18182589, 215, 623, 259, 0, 0, 0, 0, 0, 0, 1, 18182581
RFND, 18182620, 0.2, 25, 0, 0
BARO, 18182659, 0.02540176, 988.0483, 34.95, 0.1040765, 18182, 0, 34.64
CTUN, 18182673, 0, 0, 0, 0.3202634, 0.06021179, 0.06021179, 0.02, 0, 0.19, 0, 0, 0
IMU, 18183145, 0.0007686192, -0.0006289115, 0.0007276867, 0.09878172, 0.01469624, -9.803034, 0, 0, 36.34711, 1, 1, 1000, 1000
ATT, 18185028, 0, -0.06, 0, -0.64, 359.91, 359.92, 0, 1
RATE, 18185038, 0.3078028, 0.03711551, 0.0004807744, 2.894226, -0.03119211, 0.006842947, 0.003410937, 0.04980602, 2.528809E-05, 187.8175, 0.5558014, 0
NKF1, 18185046, -0.06, -0.64, 359.91, 0.004380089, -0.009626741, 0.004637468, 0, 0, 0, -0.06019326, 0.01, 0, 0
NKF2, 18185046, 1, 0, 0, 0, 0, 0, 0, 0, 0, 0, 0, 0, 0
NKF3, 18185046, 0, 0, 0, 0, 0, 0, 0, 0, 0, 0, 0
NKF4, 18185046, 0, 0, 0, 0, 0, 5.491033E-07, 0, 0, 0, 19, 229, 0, 0
NKF5, 18185046, 0, 0, 0, 0, 0.19, 0.13, 0, 0.19, 0.5, 3.814795E-05, 0.0009590029, 0.001162169
NKQ1, 18185046, 0.9999894, -0.001614936, 0.004233828, -0.0007635703
AHR2, 18185089, -0.02, -0.61, 359.9, 0.02, 0, 0, 0.9999851, -0.0002240105, -0.005406304, -0.0007940871
MOTB, 18185096, 1, 1, 0, 1
RCIN, 18185100, 0, 0, 0, 0, 0, 0, 0, 0, 0, 0, 0, 0, 0, 0
RCOU, 18185106, 1101, 1101, 1101, 1101, 0, 0, 0, 0, 0, 0, 0, 0, 0, 0
VIBE, 18185115, 0.02038399, 0.02040102, 0.03574018, 0, 0, 0
CTRL, 18185122, 0.0007228284, 0.0001608237, 0.006817064, 0.0001467589, 4.389326E-05
PRX, 18185154, 2, 0.54, 0, 0.41, 0, 1.67, 0, 2.58, 0, 0, 90, 0.41
IMU, 18222599, -0.0001059108, -0.0008822527, 0.0006795445, 0.07837402, 0.01797342, -9.784687, 0, 0, 36.34848, 1, 1, 1000, 1000
RFND, 18232557, 0.2, 25, 0, 0
IMU, 18262610, 0.0001846113, 0.0004931064, -0.0003357472, 0.0853311, 0.02632048, -9.792283, 0, 0, 36.3499, 1, 1, 1000, 1000
MAG, 18282592, 218, 620, 256, 0, 0, 0, 0, 0, 0, 1, 18282584
RFND, 18282622, 0.2, 25, 0, 0
BARO, 18282660, -0.1241864, 988.0648, 34.96, 0.08491662, 18282, 0, 34.64
CTUN, 18282673, 0, 0, 0, 0.3202634, 0.06045842, 0.06045842, -0.12, 0, 0.19, 0, 0, 0
ATT, 18284893, 0, -0.06, 0, -0.64, 359.91, 359.92, 0, 1
RATE, 18284902, 0.304643, 0.02764237, 0.000469663, 2.904136, 0.03670534, 0.006706391, 0.003107802, -0.07422061, 4.464954E-05, 178.3278, -1.051044, 0
NKF1, 18284910, -0.06, -0.64, 359.91, 0.004424089, -0.0108085, 0.004403155, 0, 0, 0, -0.06044965, 0.01, 0, 0
NKF2, 18284910, 1, 0, 0, 0, 0, 0, 0, 0, 0, 0, 0, 0, 0
NKF3, 18284910, 0, 0, 0, 0, 0, 0, 0, 0, 0, 0, 0
NKF4, 18284910, 0, 0, 0, 0, 0, 5.647947E-07, 0, 0, 0, 19, 229, 0, 0
NKF5, 18284910, 0, 0, 0, 0, 0.19, 0.13, 0, 0.19, 0.5, 3.800352E-05, 0.0007905554, 0.0008293185
NKQ1, 18284910, 0.9999896, -0.001611626, 0.004213463, -0.0007765428
AHR2, 18284955, -0.02, -0.62, 359.9, -0.12, 0, 0, 0.999985, -0.0002004329, -0.005418453, -0.0008071915
MOTB, 18284962, 1, 1, 0, 1
RCIN, 18284966, 0, 0, 0, 0, 0, 0, 0, 0, 0, 0, 0, 0, 0, 0
RCOU, 18284973, 1101, 1101, 1101, 1101, 0, 0, 0, 0, 0, 0, 0, 0, 0, 0
VIBE, 18284981, 0.02142131, 0.019573, 0.03181821, 0, 0, 0
CTRL, 18285036, 0.0007199722, 0.0001666618, 0.006843288, 0.0001343164, 3.83297E-05
PRX, 18285067, 2, 0.54, 0, 0.41, 0, 3.02, 0, 2.58, 0, 0, 90, 0.41
IMU, 18302567, -7.769219E-05, 0.000697147, 0.000427464, 0.09459244, 0.0253828, -9.78113, 0, 0, 36.35115, 1, 1, 1000, 1000
RFND, 18333831, 0.2, 25, 0, 0
IMU, 18343030, -0.0004076643, 1.08091E-05, -0.0004249259, 0.08890441, 0.01734211, -9.799443, 0, 0, 36.35201, 1, 1, 1000, 1000
MAG, 18382744, 220, 628, 262, 0, 0, 0, 0, 0, 0, 1, 18382736
RFND, 18382774, 0.2, 25, 0, 0
BARO, 18382813, -0.1467658, 988.067, 34.96, -0.1367757, 18382, 0, 34.64
CTUN, 18382826, 0, 0, 0, 0.3202634, 0.06074353, 0.06074353, -0.14, 0, 0.19, 0, 0, 0
DU32, 18382907, 7, 50389208
IMU, 18382997, 0.0002230164, 0.0005171908, -0.0007167415, 0.0829309, 0.01937259, -9.79966, 0, 0, 36.35287, 1, 1, 1000, 1000
ATT, 18385215, 0, -0.06, 0, -0.64, 359.91, 359.91, 0, 1
RATE, 18385223, 0.3080134, 0.006253073, 0.0005545303, 2.896943, 0.02304338, 0.006595184, 0.001057594, -0.02182791, 8.306951E-05, 163.3783, 0.5311012, 0
NKF1, 18385230, -0.06, -0.64, 359.9, 0.004630377, -0.01184248, 0.004034033, 0, 0, 0, -0.06073542, 0.01, 0, 0
NKF2, 18385230, 1, 0, 0, 0, 0, 0, 0, 0, 0, 0, 0, 0, 0
NKF3, 18385230, 0, 0, 0, 0, 0, 0, 0, 0, 0, 0, 0
NKF4, 18385230, 0, 0, 0, 0, 0, 6.684189E-07, 0, 0, 0, 19, 229, 0, 0
NKF5, 18385230, 0, 0, 0, 0, 0.19, 0.13, 0, 0.19, 0.5, 3.669246E-05, 0.0008196615, 0.0009210235
NKQ1, 18385230, 0.9999894, -0.001616765, 0.004229396, -0.0007807477
AHR2, 18385339, -0.02, -0.61, 359.9, -0.14, 0, 0, 0.9999851, -0.0001839607, -0.005394603, -0.000811474
MOTB, 18385347, 1, 1, 0, 1
RCIN, 18385352, 0, 0, 0, 0, 0, 0, 0, 0, 0, 0, 0, 0, 0, 0
RCOU, 18385358, 1101, 1101, 1101, 1101, 0, 0, 0, 0, 0, 0, 0, 0, 0, 0
VIBE, 18385367, 0.02053481, 0.02038141, 0.02853068, 0, 0, 0
CTRL, 18385373, 0.0007247858, 0.0001715517, 0.006826596, 0.0001357796, 4.095557E-05
PRX, 18385403, 2, 0.54, 0, 0.41, 0, 3.42, 0, 2.54, 0, 0, 90, 0.41
IMU, 18422582, -0.0003819028, 0.0001159726, 0.0002177458, 0.09093197, 0.01642613, -9.807541, 0, 0, 36.35367, 1, 1, 1000, 1000
RFND, 18432597, 0.2, 25, 0, 0
IMU, 18462563, 0.0008108162, 0.000430401, 0.00024014, 0.09306092, 0.01725077, -9.798527, 0, 0, 36.3541, 1, 1, 1000, 1000
MAG, 18483169, 212, 629, 254, 0, 0, 0, 0, 0, 0, 1, 18483160
RFND, 18483198, 0.2, 25, 0, 0
BARO, 18483238, -0.1524106, 988.0681, 34.97, -0.4391743, 18483, 0, 34.64
CTUN, 18483334, 0, 0, 0, 0.3202634, 0.06100431, 0.06100431, -0.15, 0, 0.19, 0, 0, 0
ATT, 18484838, 0, -0.06, 0, -0.64, 359.91, 359.92, 0, 1
RATE, 18484847, 0.3055033, 0.04934594, 0.0003943607, 2.882111, 0.07213625, 0.006492449, 0.001761453, 0.016906, -9.919278E-06, 92.58879, 2.871609, 0
NKF1, 18484855, -0.06, -0.64, 359.91, 0.005246507, -0.01330427, 0.002286143, 0, 0, 0, -0.06100201, 0.01, 0, 0
NKF2, 18484855, 1, 0, 0, 0, 0, 0, 0, 0, 0, 0, 0, 0, 0
NKF3, 18484855, 0, 0, 0, 0, 0, 0, 0, 0, 0, 0, 0
NKF4, 18484855, 0, 0, 0, 0, 0, 7.83347E-07, 0, 0, 0, 19, 229, 0, 0
NKF5, 18484855, 0, 0, 0, 0, 0.19, 0.13, 0, 0.19, 0.5, 3.662007E-05, 0.0007137898, 0.0007409469
NKQ1, 18484855, 0.9999893, -0.001611242, 0.004256483, -0.0007713289
AHR2, 18484897, -0.01, -0.61, 359.9, -0.15, 0, 0, 0.9999853, -0.000153825, -0.005361419, -0.0008022632
MOTB, 18484905, 1, 1, 0, 1
RCIN, 18484909, 0, 0, 0, 0, 0, 0, 0, 0, 0, 0, 0, 0, 0, 0
RCOU, 18484915, 1101, 1101, 1101, 1101, 0, 0, 0, 0, 0, 0, 0, 0, 0, 0
VIBE, 18484924, 0.02499797, 0.02132298, 0.03090435, 0, 0, 0
CTRL, 18484931, 0.0007219394, 0.0001935658, 0.006796738, 0.0001447991, 3.735462E-05
PRX, 18484963, 2, 0.54, 0, 0.41, 0, 3.58, 0, 2.56, 0, 0, 90, 0.41
IMU, 18502696, 0.0009210316, -0.0003505236, -0.0007558416, 0.09252185, 0.02226429, -9.80689, 0, 0, 36.35452, 1, 1, 1000, 1000
RFND, 18532601, 0.2, 25, 0, 0
IMU, 18542929, 0.0003011548, 0.0005252182, 0.0005634329, 0.08262634, 0.02845668, -9.792016, 0, 0, 36.35471, 1, 1, 1000, 1000
MAG, 18582622, 219, 629, 261, 0, 0, 0, 0, 0, 0, 1, 18582613
RFND, 18582651, 0.2, 25, 0, 0
BARO, 18582689, -0.06773804, 988.0588, 34.97, -0.4907845, 18582, 0, 34.64
CTUN, 18582702, 0, 0, 0, 0.3202634, 0.0614877, 0.0614877, -0.06, 0, 0.19, 0, 0, 0
IMU, 18582774, 0.0004311535, 9.676722E-05, -0.001234369, 0.08327422, 0.02529606, -9.789745, 0, 0, 36.35516, 1, 1, 1000, 1000
ATT, 18584929, 0, -0.06, 0, -0.64, 359.91, 359.91, 0, 1
RATE, 18584937, 0.3059546, 0.02126024, 0.00042324, 2.886189, -0.02019454, 0.007031701, 0.003415922, -0.07984699, 2.931075E-05, 73.90907, 0.483036, 0
NKF1, 18584945, -0.06, -0.64, 359.9, 0.005541455, -0.01374342, 0.001824915, 0, 0, 0, -0.06148221, 0.01, 0, 0
NKF2, 18584945, 1, 0, 0, 0, 0, 0, 0, 0, 0, 0, 0, 0, 0
NKF3, 18584945, 0, 0, 0, 0, 0, 0, 0, 0, 0, 0, 0
NKF4, 18584945, 0, 0, 0, 0, 0, 1.051838E-06, 0, 0, 0, 19, 229, 0, 0
NKF5, 18584945, 0, 0, 0, 0, 0.19, 0.13, 0, 0.19, 0.5, 3.479201E-05, 0.0007271573, 0.0007697706
NKQ1, 18584945, 0.9999893, -0.001614062, 0.004249708, -0.0007862762
AHR2, 18584988, -0.01, -0.61, 359.9, -0.06, 0, 0, 0.9999853, -0.0001326995, -0.005361523, -0.0008173107
MOTB, 18584997, 1, 1, 0, 1
RCIN, 18585001, 0, 0, 0, 0, 0, 0, 0, 0, 0, 0, 0, 0, 0, 0
RCOU, 18585007, 1101, 1101, 1101, 1101, 0, 0, 0, 0, 0, 0, 0, 0, 0, 0
VIBE, 18585016, 0.0226719, 0.02109494, 0.03330852, 0, 0, 0
CTRL, 18585022, 0.0007220327, 0.0001722855, 0.006797599, 0.0001376124, 3.267141E-05
PRX, 18585053, 2, 0.54, 0, 0.41, 0, 3.59, 0, 2.56, 0, 0, 90, 0.41
IMU, 18622465, 0.0005871711, -0.0001686286, -0.0002123471, 0.08988421, 0.008944032, -9.781712, 0, 0, 36.35559, 1, 1, 1000, 1000
RFND, 18632513, 0.2, 25, 0, 0
IMU, 18662491, 0.0003135097, 4.931221E-05, 0.0001838081, 0.09230887, 0.01415647, -9.793786, 0, 0, 36.35579, 1, 1, 1000, 1000
MAG, 18682523, 216, 617, 256, 0, 0, 0, 0, 0, 0, 1, 18682514
RFND, 18682552, 0.2, 25, 0, 0
BARO, 18682590, -0.07902771, 988.0598, 34.98, -0.1867658, 18682, 0, 34.64
CTUN, 18682603, 0, 0, 0, 0.3202634, 0.06183224, 0.06183224, -0.07, 0, 0.19, 0, 0, 0
ATT, 18685065, 0, -0.06, 0, -0.63, 359.91, 359.92, 0, 1
RATE, 18685074, 0.3104465, -0.0298615, 0.0008794506, 2.880206, 0.02009705, 0.006648499, 0.0007098124, 0.04975657, -1.005453E-05, 85.35621, -0.4471779, 0
NKF1, 18685082, -0.06, -0.63, 359.91, 0.006337765, -0.01494556, 0.002107561, 0, 0, 0, -0.06182602, 0.01, 0, 0
NKF2, 18685082, 1, 0, 0, 0, 0, 0, 0, 0, 0, 0, 0, 0, 0
NKF3, 18685082, 0, 0, 0, 0, 0, 0, 0, 0, 0, 0, 0
NKF4, 18685082, 0, 0, 0, 0, 0, 1.272012E-06, 0, 0, 0, 19, 229, 0, 0
NKF5, 18685082, 0, 0, 0, 0, 0.19, 0.13, 0, 0.19, 0.5, 3.221111E-05, 0.0008064173, 0.0009474534
NKQ1, 18685082, 0.9999893, -0.001620149, 0.00425964, -0.0007751734
AHR2, 18685125, -0.01, -0.61, 359.9, -0.07, 0, 0, 0.9999854, -0.0001186768, -0.005343879, -0.0008062632
MOTB, 18685446, 1, 1, 0, 1
RCIN, 18685452, 0, 0, 0, 0, 0, 0, 0, 0, 0, 0, 0, 0, 0, 0
RCOU, 18685458, 1101, 1101, 1101, 1101, 0, 0, 0, 0, 0, 0, 0, 0, 0, 0
VIBE, 18685467, 0.02085662, 0.02335349, 0.03216329, 0, 0, 0
CTRL, 18685473, 0.0007232834, 0.0001641727, 0.006794071, 0.0001253877, 3.804515E-05
PRX, 18685505, 2, 0.54, 0, 0.41, 0, 3.59, 0, 3.28, 0, 0, 90, 0.41
IMU, 18702426, -0.0003240872, 0.001051969, 0.0009908761, 0.1013161, 0.01869943, -9.788782, 0, 0, 36.35622, 1, 1, 1000, 1000
RFND, 18732412, 0.2, 25, 0, 0
IMU, 18742659, -0.001543725, -5.552571E-05, 0.0002992887, 0.08646494, 0.02050748, -9.796191, 0, 0, 36.35667, 1, 1, 1000, 1000
MAG, 18786384, 215, 629, 256, 0, 0, 0, 0, 0, 0, 1, 18786375
RFND, 18786413, 0.2, 25, 0, 0
BARO, 18786452, 0.01128967, 988.0499, 34.98, 0.1755483, 18786, 0, 34.64
CTUN, 18786466, 0, 0, 0, 0.3202634, 0.06221529, 0.06221529, 0.01, 0, 0.19, 0, 0, 0
IMU, 18786537, -0.001170324, -0.0003103532, -0.0001755315, 0.09032495, 0.02010469, -9.766284, 0, 0, 36.35698, 1, 1, 1000, 1000
ATT, 18789082, 0, -0.07, 0, -0.63, 359.91, 359.92, 0, 1
RATE, 18789091, 0.3329676, -0.07106555, 0.0009210446, 2.880443, -0.0153769, 0.006774477, 0.001370395, 0.007100532, -4.634801E-05, 100.4355, -2.203083, 0
NKF1, 18789099, -0.07, -0.63, 359.91, 0.007207173, -0.01653511, 0.002479889, 0, 0, 0, -0.0622076, 0.01, 0, 0
NKF2, 18789099, 1, 0, 0, 0, 0, 0, 0, 0, 0, 0, 0, 0, 0
NKF3, 18789099, 0, 0, 0, 0, 0, 0, 0, 0, 0, 0, 0
NKF4, 18789099, 0, 0, 0, 0, 0, 1.740978E-06, 0, 0, 0, 19, 229, 0, 0
NKF5, 18789099, 0, 0, 0, 0, 0.19, 0.13, 0, 0.19, 0.5, 3.2437E-05, 0.0006721178, 0.0007018761
NKQ1, 18789099, 0.9999893, -0.00166463, 0.004261107, -0.0007524312
AHR2, 18789144, -0.01, -0.61, 359.91, 0.01, 0, 0, 0.9999855, -0.0001413662, -0.005334022, -0.0007831936
MOTB, 18789151, 1, 1, 0, 1
RCIN, 18789155, 0, 0, 0, 0, 0, 0, 0, 0, 0, 0, 0, 0, 0, 0
RCOU, 18789161, 1101, 1101, 1101, 1101, 0, 0, 0, 0, 0, 0, 0, 0, 0, 0
VIBE, 18789170, 0.02037582, 0.02071162, 0.03638452, 0, 0, 0
CTRL, 18789177, 0.0007735464, 0.0001843703, 0.006786741, 0.0001237706, 5.14579E-05
PRX, 18789208, 2, 0.54, 0, 0.41, 0, 3.59, 0, 2.64, 0, 0, 90, 0.41
IMU, 18825784, -0.001382679, -0.001093697, -0.0003631994, 0.0799053, 0.0158091, -9.779924, 0, 0, 36.35726, 1, 1, 1000, 1000
RFND, 18835712, 0.2, 25, 0, 0
IMU, 18890312, 0.0005489286, 0.0005810583, -0.0009147315, 0.08333857, 0.02021156, -9.806085, 0, 0, 36.35726, 1, 1, 1000, 1000
MAG, 18906328, 224, 622, 259, 0, 0, 0, 0, 0, 0, 1, 18906320
RFND, 18906359, 0.2, 25, 0, 0
BARO, 18906392, 0.02822418, 988.0481, 34.98, 0.3566465, 18906, 0, 34.64
CTUN, 18906406, 0, 0, 0, 0.3202634, 0.06239497, 0.06239497, 0.02, 0, 0.19, 0, 0, 0
ATT, 18908983, 0, -0.07, 0, -0.64, 359.91, 359.92, 0, 1
RATE, 18908992, 0.3398162, 0.02852708, 0.0007723933, 2.883771, 0.04575359, 0.006575155, 0.002505476, -0.0194013, 2.920676E-05, 105.358, -2.775002, 0
NKF1, 18909119, -0.07, -0.64, 359.91, 0.007060538, -0.01843638, 0.002601432, 0, 0, 0, -0.06245948, 0.01, 0, 0
NKF2, 18909119, 1, 0, 0, 0, 0, 0, 0, 0, 0, 0, 0, 0, 0
NKF3, 18909119, 0, 0, 0, 0, 0, 0, 0, 0, 0, 0, 0
NKF4, 18909119, 0, 0, 0, 0, 0, 2.167362E-06, 0, 0, 0, 19, 229, 0, 0
NKF5, 18909119, 0, 0, 0, 0, 0.19, 0.13, 0, 0.19, 0.5, 2.851194E-05, 0.0007349766, 0.000811841
NKQ1, 18909119, 0.9999892, -0.001678535, 0.004253635, -0.000772429
AHR2, 18909168, -0.01, -0.61, 359.9, 0.02, 0, 0, 0.9999855, -0.000126516, -0.005330072, -0.0008032049
MOTB, 18909176, 1, 1, 0, 1
RCIN, 18909180, 0, 0, 0, 0, 0, 0, 0, 0, 0, 0, 0, 0, 0, 0
RCOU, 18909186, 1101, 1101, 1101, 1101, 0, 0, 0, 0, 0, 0, 0, 0, 0, 0
VIBE, 18909195, 0.01848739, 0.01990253, 0.03967442, 0, 0, 0
CTRL, 18909201, 0.0007976976, 0.0001795834, 0.006800649, 0.0001227542, 4.489717E-05
PRX, 18909230, 2, 0.54, 0, 0.41, 0, 3.59, 0, 2.64, 0, 0, 90, 0.41
IMU, 18929949, -7.947326E-05, -5.197735E-05, -0.0001599377, 0.07998507, 0.01073406, -9.785537, 0, 0, 36.35726, 1, 1, 1000, 1000
RFND, 18957100, 0.2, 25, 0, 0
IMU, 18969939, 9.826778E-05, -0.0007052351, -0.0005289936, 0.08354384, 0.02317233, -9.801624, 0, 0, 36.35699, 1, 1, 1000, 1000
MAG, 19009085, 222, 619, 258, 0, 0, 0, 0, 0, 0, 1, 19009077
RFND, 19009113, 0.2, 25, 0, 0
BARO, 19009145, 0.03386902, 988.0474, 34.99, 0.3885935, 19009, 0, 34.64
CTUN, 19009157, 0, 0, 0, 0.3202634, 0.06270633, 0.06270633, 0.03, 0, 0.19, 0, 0, 0
ATT, 19011618, 0, -0.07, 0, -0.64, 359.91, 359.92, 0, 1
RATE, 19011627, 0.3304364, 0.0734404, 0.0005764246, 2.88761, 0.03723094, 0.006566442, 0.0006828887, 0.01580903, 6.076364E-06, 103.0578, -0.9414673, 0
NKF1, 19011635, -0.07, -0.64, 359.91, 0.007439245, -0.01906495, 0.002544638, 0, 0, 0, -0.0626986, 0.01, 0, 0
NKF2, 19011635, 1, 0, 0, 0, 0, 0, 0, 0, 0, 0, 0, 0, 0
NKF3, 19011635, 0, 0, 0, 0, 0, 0, 0, 0, 0, 0, 0
NKF4, 19011635, 0, 0, 0, 0, 0, 2.807708E-06, 0, 0, 0, 19, 229, 0, 0
NKF5, 19011635, 0, 0, 0, 0, 0.19, 0.13, 0, 0.19, 0.5, 2.777706E-05, 0.0006766711, 0.0007334299
NKQ1, 19011635, 0.9999893, -0.00165962, 0.004245992, -0.0007677578
AHR2, 19011678, 0, -0.61, 359.9, 0.03, 0, 0, 0.9999855, -8.377717E-05, -0.0053311, -0.00079885
MOTB, 19011686, 1, 1, 0, 1
RCIN, 19011690, 0, 0, 0, 0, 0, 0, 0, 0, 0, 0, 0, 0, 0, 0
RCOU, 19011695, 1101, 1101, 1101, 1101, 0, 0, 0, 0, 0, 0, 0, 0, 0, 0
VIBE, 19011704, 0.01914578, 0.0218252, 0.03370658, 0, 0, 0
CTRL, 19011710, 0.0007833724, 0.0001701315, 0.00680916, 0.0001297535, 4.003299E-05
PRX, 19011740, 2, 0.54, 0, 0.41, 0, 3.59, 0, 2.56, 0, 0, 90, 0.41
IMU, 19011748, 0.001596296, 0.0008109929, 0.0002790516, 0.09310272, 0.0358739, -9.784045, 0, 0, 36.35702, 1, 1, 1000, 1000
IMU, 19051650, 0.0003218278, 0.0004409595, -0.0007852372, 0.0916, 0.02867796, -9.800747, 0, 0, 36.35709, 1, 1, 1000, 1000
RFND, 19059046, 0.2, 25, 0, 0
IMU, 19091725, 0.0007607135, 0.0009867323, 0.0003354988, 0.07694774, 0.03281904, -9.801734, 0, 0, 36.35702, 1, 1, 1000, 1000
MAG, 19109141, 217, 626, 253, 0, 0, 0, 0, 0, 0, 1, 19109133
RFND, 19109239, 0.2, 25, 0, 0
BARO, 19109274, -0.03386902, 988.0552, 34.99, 0.3041095, 19109, 0, 34.64
CTUN, 19109288, 0, 0, 0, 0.3202634, 0.06299295, 0.06299295, -0.03, 0, 0.19, 0, 0, 0
ATT, 19111732, 0, -0.07, 0, -0.63, 359.91, 359.91, 0, 1
RATE, 19111742, 0.3253447, 0.001816567, 0.0008399748, 2.875803, 0.001521277, 0.006889154, 0.002489476, -0.01328233, 1.580732E-05, 60.0619, -0.5609512, 0
NKF1, 19111749, -0.07, -0.63, 359.9, 0.00733366, -0.01984099, 0.00148301, 0, 0, 0, -0.06298985, 0.01, 0, 0
NKF2, 19111749, 1, 0, 0, 0, 0, 0, 0, 0, 0, 0, 0, 0, 0
NKF3, 19111749, 0, 0, 0, 0, -0.01, 0, 0, 0, 0, 0, 0
NKF4, 19111749, 0, 0, 0, 0, 0, 3.578329E-06, 0, 0, 0, 19, 229, 0, 0
NKF5, 19111749, 0, 0, 0, 0, 0.19, 0.13, 0, 0.19, 0.5, 2.246988E-05, 0.0007454265, 0.0008259687
NKQ1, 19111749, 0.9999892, -0.001650317, 0.004268923, -0.0007786744
AHR2, 19111792, 0, -0.6, 359.9, -0.03, 0, 0, 0.9999856, -5.317178E-05, -0.005306224, -0.0008099864
MOTB, 19111800, 1, 1, 0, 1
RCIN, 19111804, 0, 0, 0, 0, 0, 0, 0, 0, 0, 0, 0, 0, 0, 0
RCOU, 19111810, 1101, 1101, 1101, 1101, 0, 0, 0, 0, 0, 0, 0, 0, 0, 0
VIBE, 19111819, 0.02174855, 0.02138574, 0.03760714, 0, 0, 0
CTRL, 19111825, 0.0007658793, 0.0001648833, 0.006779691, 0.0001304504, 3.652563E-05
PRX, 19111891, 2, 0.54, 0, 0.41, 0, 3.59, 0, 2.57, 0, 0, 90, 0.41
IMU, 19131802, 7.524096E-07, -0.0001126741, -0.0001866489, 0.08162116, 0.0120353, -9.798997, 0, 0, 36.3571, 1, 1, 1000, 1000
RFND, 19159533, 0.2, 25, 0, 0
IMU, 19173003, -8.22531E-05, 8.45013E-05, 0.0003043796, 0.07809921, 0.01975289, -9.781321, 0, 0, 36.35712, 1, 1, 1000, 1000
MAG, 19209157, 217, 620, 264, 0, 0, 0, 0, 0, 0, 1, 19209148
RFND, 19209242, 0.2, 25, 0, 0
BARO, 19209277, -0.1354761, 988.0662, 35, 0.0642639, 19209, 0, 34.64
CTUN, 19209291, 0, 0, 0, 0.3202634, 0.06327405, 0.06327405, -0.13, 0, 0.19, 0, 0, 0
ATT, 19211733, 0, -0.07, 0, -0.63, 359.91, 359.92, 0, 1
RATE, 19211743, 0.3279383, -0.02937101, 0.0008010036, 2.878265, -0.04747742, 0.007122674, 0.001491619, 0.01173875, 3.184182E-06, 71.50633, -0.6401062, 0
NKF1, 19211750, -0.07, -0.63, 359.91, 0.006907674, -0.02076045, 0.001765588, 0, 0, 0, -0.06326875, 0.01, 0, 0
NKF2, 19211750, 1, 0, 0, 0, 0, 0, 0, 0, 0, 0, 0, 0, 0
NKF3, 19211750, 0, 0, 0, 0, -0.01, 0, 0, 0, 0, 0, 0
NKF4, 19211750, 0, 0, 0, 0, 0, 4.474351E-06, 0, 0, 0, 19, 229, 0, 0
NKF5, 19211750, 0, 0, 0, 0, 0.19, 0.13, 0, 0.19, 0.5, 2.513314E-05, 0.0007009681, 0.000858322
NKQ1, 19211750, 0.9999893, -0.001654714, 0.004264941, -0.0007783118
AHR2, 19211794, 0, -0.6, 359.9, -0.13, 0, 0, 0.9999856, -3.911582E-05, -0.005307822, -0.0008096768
MOTB, 19211801, 1, 1, 0, 1
RCIN, 19211805, 0, 0, 0, 0, 0, 0, 0, 0, 0, 0, 0, 0, 0, 0
RCOU, 19211811, 1101, 1101, 1101, 1101, 0, 0, 0, 0, 0, 0, 0, 0, 0, 0
VIBE, 19211820, 0.02093733, 0.02340545, 0.03502802, 0, 0, 0
CTRL, 19211826, 0.0007754643, 0.0001839396, 0.006775646, 0.0001195009, 3.392715E-05
PRX, 19211890, 2, 0.54, 0, 0.41, 0, 3.59, 0, 2.57, 0, 0, 90, 0.41
IMU, 19211898, -0.0001927804, -0.0006645923, 0.0002080665, 0.09044083, 0.01843658, -9.786833, 0, 0, 36.35715, 1, 1, 1000, 1000
IMU, 19252790, 1.264494E-05, 0.000215205, -0.0003890868, 0.09869316, 0.02440088, -9.786667, 0, 0, 36.35705, 1, 1, 1000, 1000
RFND, 19260451, 0.2, 25, 0, 0
EV, 19272322, 57
IMU, 19293328, -3.098059E-05, -0.0004821494, -0.000285835, 0.09946041, 0.01484543, -9.810639, 0, 0, 36.357, 1, 1, 1000, 1000
MAG, 19310573, 216, 625, 264, 0, 0, 0, 0, 0, 0, 1, 19310565
RFND, 19310661, 0.2, 25, 0, 0
BARO, 19310695, -0.07902771, 988.06, 35, -0.2690688, 19310, 0, 34.64
CTUN, 19310708, 0, 0, 0, 0.3202634, 0.06355534, 0.06355534, -0.07, 0, 0.19, 0, 0, 0
ATT, 19313348, 0, -0.07, 0, -0.63, 359.91, 359.92, 0, 1
RATE, 19313357, 0.3167258, 0.06243002, 0.0005242716, 2.874007, 0.04588623, 0.006531911, 0.001758635, 0.03296879, 7.813772E-06, 58.23011, -0.5073547, 0
NKF1, 19313365, -0.07, -0.63, 359.91, 0.007718283, -0.02180129, 0.001437781, 0, 0, 0, -0.06355107, 0.01, 0, 0
NKF2, 19313365, 1, 0, 0, 0, 0, 0, 0, 0, 0, 0, 0, 0, 0
NKF3, 19313365, 0, 0, 0, 0, -0.01, 0, 0, 0, 0, 0, 0
NKF4, 19313365, 0, 0, 0, 0, 0, 5.709123E-06, 0, 0, 0, 19, 229, 0, 0
NKF5, 19313365, 0, 0, 0, 0, 0.19, 0.13, 0, 0.19, 0.5, 2.116333E-05, 0.0007689242, 0.0009590712
NKQ1, 19313365, 0.9999892, -0.001632571, 0.004272814, -0.0007722313
AHR2, 19313409, 0, -0.6, 359.9, -0.07, 0, 0, 0.9999856, -3.646355E-06, -0.005297292, -0.0008038931
MOTB, 19313417, 1, 1, 0, 1
RCIN, 19313421, 0, 0, 0, 0, 0, 0, 0, 0, 0, 0, 0, 0, 0, 0
RCOU, 19313427, 1110, 1110, 1110, 1110, 0, 0, 0, 0, 0, 0, 0, 0, 0, 0
VIBE, 19313435, 0.02142509, 0.02336951, 0.03648938, 0, 0, 0
CTRL, 19313442, 0.0007498217, 0.0001983196, 0.006780212, 0.0001400687, 2.821481E-05
PRX, 19313472, 2, 0.54, 0, 0.41, 0, 3.59, 0, 2.57, 0, 0, 90, 0.41
IMU, 19333243, 0.0004180339, 0.0006192754, 0.0001494623, 0.08731259, 0.0281242, -9.799373, 0, 0, 36.35718, 1, 1, 1000, 1000
RFND, 19360588, 0.2, 25, 0, 0
IMU, 19373234, 0.0003631692, -0.0007198914, -0.0005785308, 0.09373896, 0.0378656, -9.808773, 0, 0, 36.35751, 1, 1, 1000, 1000
MAG, 19410599, 216, 619, 261, 0, 0, 0, 0, 0, 0, 1, 19410591
RFND, 19410629, 0.2, 25, 0, 0
BARO, 19410662, -0.07902771, 988.06, 35, -0.4244778, 19410, 0, 34.64
CTUN, 19410674, 0, 0, 0, 0.3202634, 0.0638539, 0.0638539, -0.07, 0, 0.19, 0, 0, 0
DU32, 19410696, 7, 33611992
PM, 19410792, 172, 4000, 16764, 8, 0, 0, 32, 262144
ATT, 19413494, 0, -0.07, 0, -0.63, 359.91, 359.91, 0, 1
RATE, 19413504, 0.3183123, 0.01899359, 0.0005881798, 2.868305, 0.03986621, 0.006605762, 0.001765398, 0.01176583, 3.029985E-05, -7.114736, 0.9703636, 0
NKF1, 19413511, -0.07, -0.63, 359.9, 0.008139852, -0.02227996, -0.0001756725, 0, 0, 0, -0.06385453, 0.01, 0, 0
NKF2, 19413511, 1, 0, 0, 0, 0, 0, 0, 0, 0, 0, 0, 0, 0
NKF3, 19413511, 0, 0, 0, 0, -0.01, 0, 0, 0, 0, 0, 0
NKF4, 19413511, 0, 0, 0, 0, 0, 6.800722E-06, 0, 0, 0, 19, 229, 0, 0
NKF5, 19413511, 0, 0, 0, 0, 0.19, 0.13, 0, 0.19, 0.5, 1.654024E-05, 0.0009416637, 0.001244694
NKQ1, 19413511, 0.9999892, -0.001636047, 0.004283872, -0.0007854583
AHR2, 19413557, 0, -0.6, 359.9, -0.07, 0, 0, 0.9999857, 6.770696E-06, -0.005282263, -0.0008171624
MOTB, 19413564, 1, 1, 0, 1
RCIN, 19413568, 0, 0, 0, 0, 0, 0, 0, 0, 0, 0, 0, 0, 0, 0
RCOU, 19413573, 1134, 1134, 1134, 1134, 0, 0, 0, 0, 0, 0, 0, 0, 0, 0
VIBE, 19413582, 0.0242508, 0.02285904, 0.03859496, 0, 0, 0
CTRL, 19413588, 0.0007548704, 0.0001763051, 0.006767116, 0.0001402634, 2.871116E-05
PRX, 19413617, 2, 0.54, 0, 0.41, 0, 3.59, 0, 2.55, 0, 0, 90, 0.41
IMU, 19413624, 0.0006511466, 0.0008601482, 0.0002085427, 0.09332275, 0.01577736, -9.802717, 0, 0, 36.35818, 1, 1, 1000, 1000
IMU, 19454455, 0.0004727192, -0.0008556319, -0.0004097788, 0.07469855, 0.03258258, -9.796451, 0, 0, 36.35911, 1, 1, 1000, 1000
RFND, 19461641, 0.2, 25, 0, 0
IMU, 19494999, 0.0003578712, -0.0001433038, -7.807356E-05, 0.08358751, 0.02751401, -9.802917, 0, 0, 36.36092, 1, 1, 1000, 1000
MAG, 19512293, 219, 626, 262, 0, 0, 0, 0, 0, 0, 1, 19512284
RFND, 19512412, 0.2, 25, 0, 0
BARO, 19512445, -0.1524106, 988.0676, 35.01, -0.2668679, 19512, 0, 34.64
CTUN, 19512459, 0, 0, 0, 0.3202634, 0.064294, 0.064294, -0.15, 0, 0.19, 0, 0, 0
ATT, 19514749, 0, -0.07, 0, -0.63, 359.9, 359.91, 0, 1
RATE, 19514761, 0.3219087, 0.0445139, 0.0005680706, 2.877568, 0.01413952, 0.006611644, 0.001791177, 0.02316171, 5.491355E-05, -28.2365, -0.8937836, 0
NKF1, 19514772, -0.07, -0.63, 359.9, 0.007930843, -0.02251105, -0.0006971975, 0, 0, 0, -0.06429545, 0.01, 0, 0
NKF2, 19514772, 1, 0, 0, 0, 0, 0, 0, 0, 0, 0, 0, 0, 0
NKF3, 19514772, 0, 0, 0, 0, -0.01, 0, 0, 0, 0, 0, 0
NKF4, 19514772, 0, 0, 0, 0, 0, 8.252687E-06, 0, 0, 0, 19, 229, 0, 0
NKF5, 19514772, 0, 0, 0, 0, 0.19, 0.13, 0, 0.19, 0.5, 1.822455E-05, 0.0007834766, 0.001087455
NKQ1, 19514772, 0.9999893, -0.001642863, 0.004264619, -0.0008019445
AHR2, 19514821, 0, -0.6, 359.9, -0.15, 0, 0, 0.9999856, 1.410735E-05, -0.00529595, -0.0008336464
MOTB, 19514830, 1, 1, 0, 1
RCIN, 19514834, 0, 0, 0, 0, 0, 0, 0, 0, 0, 0, 0, 0, 0, 0
RCOU, 19514839, 1158, 1158, 1158, 1158, 0, 0, 0, 0, 0, 0, 0, 0, 0, 0
VIBE, 19514848, 0.02316595, 0.02262544, 0.03597532, 0, 0, 0
CTRL, 19514855, 0.0007609791, 0.0001626264, 0.006788701, 0.0001344534, 4.57695E-05
PRX, 19514887, 2, 0.54, 0, 0.41, 0, 3.59, 0, 2.56, 0, 0, 90, 0.41
IMU, 19535978, -0.0004957459, 0.00142481, -7.428323E-05, 0.08973946, 0.02171111, -9.786795, 0, 0, 36.36299, 1, 1, 1000, 1000
RFND, 19563474, 0.2, 25, 0, 0
IMU, 19579184, 0.0004787004, -0.0001830156, 0.0001392594, 0.1015941, 0.005038679, -9.794775, 0, 0, 36.36505, 1, 1, 1000, 1000
MAG, 19614669, 221, 622, 264, 0, 0, 0, 0, 0, 0, 1, 19614661
RFND, 19614700, 0.2, 25, 0, 0
BARO, 19614733, -0.1580554, 988.0683, 35.01, -0.1187928, 19614, 0, 34.64
CTUN, 19614747, 0, 0, 0, 0.3202634, 0.06470443, 0.06470443, -0.15, 0, 0.19, 0, 0, 0
ATT, 19617869, 0, -0.07, 0, -0.64, 359.91, 359.92, 0, 1
RATE, 19617879, 0.3421392, -0.0759318, 0.001653844, 2.882127, -0.09440661, 0.007473269, 0.001872044, 0.5732319, 0.0002392313, -27.27133, -1.913548, 0
NKF1, 19617887, -0.07, -0.64, 359.91, 0.008053462, -0.02411825, -0.000673366, 0, 0, 0, -0.06470642, 0.01, 0, 0
NKF2, 19617887, 1, 0, 0, 0, 0, 0, 0, 0, 0, 0, 0, 0, 0
NKF3, 19617887, 0, 0, 0, 0, -0.02, 0, 0, 0, 0, 0, 0
NKF4, 19617887, 0, 0, 0, 0, 0, 9.769506E-06, 0, 0, 0, 19, 229, 0, 0
NKF5, 19617887, 0, 0, 0, 0, 0.19, 0.13, 0, 0.19, 0.5, 1.389156E-05, 0.0009835626, 0.001422012
NKQ1, 19617887, 0.9999893, -0.001670188, 0.004255865, -0.000759835
AHR2, 19617935, 0, -0.6, 359.9, -0.15, 0, 0, 0.9999856, 1.909413E-06, -0.00529902, -0.0007913379
MOTB, 19617943, 1, 1, 0, 1
RCIN, 19617947, 0, 0, 0, 0, 0, 0, 0, 0, 0, 0, 0, 0, 0, 0
RCOU, 19617953, 1182, 1182, 1182, 1182, 0, 0, 0, 0, 0, 0, 0, 0, 0, 0
VIBE, 19617961, 0.0829154, 0.1516257, 0.05545665, 0, 0, 0
CTRL, 19617969, 0.0007726366, 0.0002435445, 0.006777236, 0.0001506101, 9.749077E-05
PRX, 19618116, 2, 0.54, 0, 0.41, 0, 3.59, 0, 2.56, 0, 0, 90, 0.41
IMU, 19618127, -0.001007171, -0.001483851, 0.01000796, 0.07123858, 0.02966051, -9.773957, 0, 0, 36.3669, 1, 1, 1000, 1000
IMU, 19657190, -0.001238663, 0.002280872, -0.0131099, 0.08404481, 0.006500098, -9.817358, 0, 0, 36.36898, 1, 1, 1000, 1000
RFND, 19664572, 0.2, 25, 0, 0
IMU, 19698022, -0.0006548396, 0.0002950517, -0.009459474, 0.1330114, 0.07096672, -9.826072, 0, 0, 36.37064, 1, 1, 1000, 1000
MAG, 19716822, 213, 622, 256, 0, 0, 0, 0, 0, 0, 1, 19716814
RFND, 19716875, 0.2, 25, 0, 0
BARO, 19716909, -0.1806348, 988.0709, 35.01, -0.1867366, 19716, 0, 34.64
CTUN, 19716922, 0, 0, 0, 0.3202634, 0.06508985, 0.06508985, -0.18, 0, 0.19, 0, 0, 0
ATT, 19719412, 0, -0.07, 0, -0.63, 359.9, 359.91, 0, 1
RATE, 19719423, 0.3427301, 0.2059375, -0.0002732275, 2.854395, -0.07043768, 0.007393836, 0.001900821, -0.145904, 0.0004541859, -51.77259, -0.9940147, 0
NKF1, 19719430, -0.07, -0.63, 359.9, 0.006221174, -0.02581966, -0.001278335, 0, 0, 0, -0.0650953, 0.01, 0, 0
NKF2, 19719430, 1, 0, 0, 0, 0, 0, 0, 0, 0, 0, 0, 0, 0
NKF3, 19719430, 0, 0, 0, 0, -0.02, 0, 0, 0, 0, 0, 0
NKF4, 19719430, 0, 0, 0, 0, 0, 1.128764E-05, 0, 0, 0, 19, 229, 0, 0
NKF5, 19719430, 0, 0, 0, 0, 0.19, 0.13, 0, 0.19, 0.5, 1.446333E-05, 0.0008065923, 0.001216527
NKQ1, 19719430, 0.999989, -0.001686499, 0.004311595, -0.0008379561
AHR2, 19719476, 0, -0.6, 359.9, -0.18, 0, 0, 0.9999859, -1.107125E-06, -0.005238127, -0.0008693864
MOTB, 19719484, 1, 1, 0, 1
RCIN, 19719488, 0, 0, 0, 0, 0, 0, 0, 0, 0, 0, 0, 0, 0, 0
RCOU, 19719494, 1205, 1205, 1205, 1205, 0, 0, 0, 0, 0, 0, 0, 0, 0, 0
VIBE, 19719503, 0.2826768, 0.3320418, 0.2208369, 0, 0, 0
CTRL, 19719509, 0.0008240105, 0.0004002069, 0.006716599, 0.0003681533, 0.0001861183
PRX, 19719539, 2, 0.54, 0, 0.41, 0, 3.59, 0, 2.77, 0, 0, 90, 0.41
IMU, 19740656, -0.001136745, 0.005322597, 0.01273602, 0.04173935, 0.006041304, -9.765486, 0, 0, 36.37158, 1, 1, 1000, 1000
RFND, 19770804, 0.2, 25, 0, 0
IMU, 19783431, 0.00516065, 0.001578453, -0.003597056, 0.1186935, -0.03240776, -9.776281, 0, 0, 36.37201, 1, 1, 1000, 1000
MAG, 19820789, 217, 624, 265, 0, 0, 0, 0, 0, 0, 1, 19820781
RFND, 19820820, 0.2, 25, 0, 0
BARO, 19820884, -0.1637003, 988.0692, 35.01, -0.2548527, 19820, 0, 34.64
CTUN, 19820898, 0, 0, 0, 0.3202634, 0.06546496, 0.06546496, -0.16, 0, 0.19, 0, 0, 0
ATT, 19823613, 0, -0.07, 0, -0.63, 359.89, 359.9, 0, 1
RATE, 19823622, 0.3270831, 0.1689949, -0.001631408, 2.83952, 0.02008656, 0.006435504, 0.001781564, 0.2541046, 0.0006083239, -9.536458, -2.204704, 0
NKF1, 19823629, -0.07, -0.63, 359.89, 0.008409803, -0.02513481, -0.0002354681, 0, 0, 0, -0.0654661, 0.01, 0, 0
NKF2, 19823629, 1, 0, 0, 0, 0, 0, 0, 0, 0, 0, 0, 0, 0
NKF3, 19823629, 0, 0, 0, 0, -0.02, 0, 0, 0, 0, 0, 0
NKF4, 19823629, 0, 0, 0, 0, 0, 1.32688E-05, 0, 0, 0, 19, 229, 0, 0
NKF5, 19823629, 0, 0, 0, 0, 0.19, 0.13, 0, 0.19, 0.5, 1.584522E-05, 0.001033645, 0.00161082
NKQ1, 19823629, 0.9999888, -0.001647198, 0.004338816, -0.000948683
AHR2, 19823674, 0, -0.59, 359.88, -0.16, 0, 0, 0.999986, 4.716662E-05, -0.00520578, -0.0009805723
MOTB, 19823681, 1, 1, 0, 1
RCIN, 19823686, 0, 0, 0, 0, 0, 0, 0, 0, 0, 0, 0, 0, 0, 0
RCOU, 19823692, 1235, 1221, 1231, 1222, 0, 0, 0, 0, 0, 0, 0, 0, 0, 0
VIBE, 19823701, 0.4631684, 0.3457256, 0.370817, 0, 0, 0
CTRL, 19823708, 0.0008627369, 0.0007208773, 0.006698705, 0.0004945847, 0.0002887904
PRX, 19823737, 2, 0.54, 0, 0.41, 0, 3.59, 0, 2.61, 0, 0, 90, 0.41
IMU, 19823744, 0.003264369, 0.000513143, 0.004438114, 0.06505054, 0.05403911, -9.77102, 0, 0, 36.37204, 1, 1, 1000, 1000
IMU, 19864918, -0.009426973, 0.002922212, 0.009209614, 0.1206246, 0.05174321, -9.767111, 0, 0, 36.37263, 1, 1, 1000, 1000
RFND, 19874938, 0.2, 25, 0, 0
IMU, 19905614, 0.00401184, 0.001237176, -0.02556322, 0.1689159, 0.01175183, -9.820813, 0, 0, 36.37323, 1, 1, 1000, 1000
MAG, 19924216, 212, 624, 257, 0, 0, 0, 0, 0, 0, 1, 19924208
RFND, 19924248, 0.2, 25, 0, 0
BARO, 19924281, -0.05644836, 988.0576, 35.01, -0.1395996, 19924, 0, 34.64
CTUN, 19924295, 0, 0, 0, 0.3202634, 0.06568695, 0.06568695, -0.05, 0, 0.19, 0, 0, 0
ATT, 19926240, 0, -0.06, 0, -0.63, 359.88, 359.89, 0, 1
RATE, 19926248, 0.3142199, -0.1945401, 0.002072964, 2.854909, -0.07686942, 0.007580796, 0.001694377, 0.6769481, 0.0009195094, 87.20249, -4.823208, 0
NKF1, 19926256, -0.06, -0.63, 359.88, 0.009375094, -0.02694819, 0.002153148, 0, 0, 0, -0.06568427, 0.01, 0, 0
NKF2, 19926256, 1, 0, 0, 0, 0, 0, 0, 0, 0, 0, 0, 0, 0
NKF3, 19926256, 0, 0, 0, 0, -0.02, 0, 0, 0, 0, 0, 0
NKF4, 19926256, 0, 0, 0, 0, 0, 1.507288E-05, 0, 0, 0, 19, 229, 0, 0
NKF5, 19926256, 0, 0, 0, 0, 0.19, 0.13, 0, 0.19, 0.5, 2.736066E-05, 0.001399415, 0.002313638
NKQ1, 19926256, 0.999989, -0.001612828, 0.004308525, -0.001020076
AHR2, 19926300, 0.01, -0.59, 359.87, -0.05, 0, 0, 0.9999858, 8.616606E-05, -0.005231174, -0.001052333
MOTB, 19926307, 1, 1, 0, 1
RCIN, 19926311, 0, 0, 0, 0, 0, 0, 0, 0, 0, 0, 0, 0, 0, 0
RCOU, 19926317, 1235, 1226, 1237, 1221, 0, 0, 0, 0, 0, 0, 0, 0, 0, 0
VIBE, 19926326, 0.4661083, 0.4192449, 0.484477, 0, 0, 0
CTRL, 19926331, 0.0009051414, 0.001158085, 0.006725463, 0.0005794936, 0.000425183
PRX, 19926427, 2, 0.54, 0, 0.41, 0, 3.59, 0, 2.61, 0, 0, 90, 0.41
IMU, 19945550, -9.811699E-05, 0.00140101, 0.005714914, 0.1256022, 0.03459758, -9.814359, 0, 0, 36.37299, 1, 1, 1000, 1000
RFND, 19972886, 0.2, 25, 0, 0
IMU, 19986072, -0.007641316, 0.008853938, 0.02857529, 0.07809493, 0.04966182, -9.695704, 0, 0, 36.37299, 1, 1, 1000, 1000
MAG, 20023305, 215, 621, 262, 0, 0, 0, 0, 0, 0, 1, 20023296
RFND, 20023336, 0.2, 25, 0, 0
BARO, 20023433, -0.1467658, 988.0676, 35.01, 0.08717664, 20023, 0, 34.64
CTUN, 20023447, 0, 0, 0, 0.3202634, 0.06572741, 0.06572741, -0.14, 0, 0.19, 0, 0, 0
ATT, 20025522, 0, -0.06, 0, -0.63, 359.89, 359.9, 0, 1
RATE, 20025532, 0.3095165, 0.003104808, 0.002263442, 2.851244, 0.1579635, 0.006023662, 0.001696258, 0.1794925, -0.0002221994, 136.3145, -3.400421, 0
NKF1, 20025540, -0.06, -0.63, 359.89, 0.008668778, -0.02803065, 0.003365789, 0, 0, 0, -0.06572064, 0.01, 0, 0
NKF2, 20025540, 1, 0, 0, 0, 0, 0, 0, 0, 0, 0, 0, 0, 0
NKF3, 20025540, 0, 0, 0, 0, -0.02, 0, 0, 0, 0, 0, 0
NKF4, 20025540, 0, 0, 0, 0, 0, 1.733065E-05, 0, 0, 0, 19, 229, 0, 0
NKF5, 20025540, 0, 0, 0, 0, 0.19, 0.13, 0, 0.19, 0.5, 2.192689E-05, 0.001059563, 0.001756104
NKQ1, 20025540, 0.999989, -0.001614842, 0.004316665, -0.0009114588
AHR2, 20025633, 0.01, -0.59, 359.89, -0.14, 0, 0, 0.9999859, 8.972796E-05, -0.005216972, -0.0009437305
MOTB, 20025642, 1, 1, 0, 1
RCIN, 20025647, 0, 0, 0, 0, 0, 0, 0, 0, 0, 0, 0, 0, 0, 0
RCOU, 20025653, 1231, 1224, 1235, 1221, 0, 0, 0, 0, 0, 0, 0, 0, 0, 0
VIBE, 20025662, 0.4084117, 0.3795458, 0.4477822, 0, 0, 0
CTRL, 20025668, 0.0009527046, 0.001320647, 0.00673391, 0.00102913, 0.0004328571
PRX, 20025698, 2, 0.54, 0, 0.41, 0, 3.59, 0, 2.58, 0, 0, 90, 0.41
IMU, 20025706, 0.0003679686, 0.002919463, 0.003135882, 0.0867839, -0.01044467, -9.758978, 0, 0, 36.37241, 1, 1, 1000, 1000
IMU, 20066581, -0.001825469, 0.003263145, 0.01104213, -0.0612432, 0.05442238, -9.768984, 0, 0, 36.37141, 1, 1, 1000, 1000
RFND, 20073430, 0.2, 25, 0, 0
IMU, 20105529, -0.005944916, 0.003133644, -0.0005337574, -0.09714471, -0.01661696, -9.69445, 0, 0, 36.36979, 1, 1, 1000, 1000
MAG, 20123318, 211, 621, 261, 0, 0, 0, 0, 0, 0, 1, 20123310
RFND, 20123350, 0.2, 25, 0, 0
BARO, 20123383, -0.1185416, 988.0644, 35.01, 0.2107732, 20123, 0, 34.64
CTUN, 20123395, 0, 0, 0, 0.3202634, 0.06557284, 0.06557284, -0.11, 0, 0.19, 0, 0, 0
ATT, 20125500, 0, -0.07, 0, -0.62, 359.89, 359.9, 0, 1
RATE, 20125511, 0.3376392, 0.2879781, -0.001953698, 2.811609, 0.1055689, 0.005813754, 0.001856477, -0.3504304, 0.0003554277, 129.6782, 2.057743, 0
NKF1, 20125519, -0.07, -0.62, 359.89, 0.0095197, -0.02713291, 0.003201931, 0, 0, 0, -0.06556651, 0.01, 0, 0
NKF2, 20125519, 1, 0, 0, 0, 0, 0, 0, 0, 0, 0, 0, 0, 0
NKF3, 20125519, 0, 0, 0, 0.01, -0.02, 0, 0, 0, 0, 0, 0
NKF4, 20125519, 0, 0, 0, 0, 0, 1.953076E-05, 0, 0, 0, 19, 229, 0, 0
NKF5, 20125519, 0, 0, 0, 0, 0.19, 0.13, 0, 0.19, 0.5, 3.684386E-05, 0.001416023, 0.002492899
NKQ1, 20125519, 0.9999885, -0.001680343, 0.004395162, -0.000951345
AHR2, 20125565, 0, -0.58, 359.88, -0.11, 0, 0, 0.9999864, 2.834606E-05, -0.005130686, -0.000983004
MOTB, 20125573, 1, 1, 0, 1
RCIN, 20125577, 0, 0, 0, 0, 0, 0, 0, 0, 0, 0, 0, 0, 0, 0
RCOU, 20125583, 1234, 1221, 1230, 1223, 0, 0, 0, 0, 0, 0, 0, 0, 0, 0
VIBE, 20125592, 0.4502719, 0.4254319, 0.4064879, 0, 0, 0
CTRL, 20125598, 0.001013895, 0.001245235, 0.006683616, 0.001294004, 0.0003906318
PRX, 20125628, 2, 0.54, 0, 0.41, 0, 3.59, 0, 2.58, 0, 0, 90, 0.41
IMU, 20145576, -0.001836954, -0.005088218, -0.00210195, 0.02311505, -0.03804756, -9.741396, 0, 0, 36.36768, 1, 1, 1000, 1000
RFND, 20172952, 0.2, 25, 0, 0
IMU, 20185597, 0.00543796, -0.007518191, -0.0001550157, 0.02258114, 0.01054707, -9.806988, 0, 0, 36.36549, 1, 1, 1000, 1000
MAG, 20222798, 209, 622, 261, 0, 0, 0, 0, 0, 0, 1, 20222790
RFND, 20222911, 0.2, 25, 0, 0
BARO, 20222948, -0.1241864, 988.0647, 34.98, 0.1127955, 20222, 0, 34.64
CTUN, 20222962, 0, 0, 0, 0.3202634, 0.06527992, 0.06527992, -0.12, 0, 0.19, 0, 0, 0
ATT, 20225444, 0, -0.08, 0, -0.62, 359.88, 359.89, 0, 1
RATE, 20225454, 0.3859134, -0.02546785, -0.0008139236, 2.795473, 0.0584525, 0.007820541, 0.002107648, -0.3505553, -2.198313E-06, 224.3394, -1.844978, 0
NKF1, 20225462, -0.08, -0.62, 359.88, 0.008552206, -0.02911552, 0.005539245, 0, 0, 0, -0.06526514, 0.01, 0, 0
NKF2, 20225462, 1, 0, 0, 0, 0, 0, 0, 0, 0, 0, 0, 0, 0
NKF3, 20225462, 0, 0, 0, 0.01, -0.02, 0, 0, 0, 0, 0, 0
NKF4, 20225462, 0, 0, 0, 0, 0, 2.147749E-05, 0, 0, 0, 19, 229, 0, 0
NKF5, 20225462, 0, 0, 0, 0, 0.19, 0.13, 0, 0.19, 0.5, 2.774177E-05, 0.001046481, 0.001853451
NKQ1, 20225462, 0.9999881, -0.001773803, 0.004425146, -0.001018544
AHR2, 20225508, 0, -0.58, 359.87, -0.12, 0, 0, 0.9999864, -5.727205E-05, -0.005103949, -0.001049309
MOTB, 20225515, 1, 1, 0, 1
RCIN, 20225519, 0, 0, 0, 0, 0, 0, 0, 0, 0, 0, 0, 0, 0, 0
RCOU, 20225525, 1236, 1221, 1234, 1222, 0, 0, 0, 0, 0, 0, 0, 0, 0, 0
VIBE, 20225534, 0.4558398, 0.4013845, 0.3823016, 0, 0, 0
CTRL, 20225541, 0.001117224, 0.001328548, 0.006610909, 0.001443948, 0.0003416945
PRX, 20225572, 2, 0.54, 0, 0.41, 0, 3.59, 0, 2.58, 0, 0, 90, 0.41
IMU, 20225579, -0.0001321488, 0.001182511, -0.006115205, 0.003404168, 0.04927923, -9.774966, 0, 0, 36.36271, 1, 1, 1000, 1000
IMU, 20267685, -0.003078239, 0.008076071, -0.003850256, 0.2115121, 0.01743584, -9.821996, 0, 0, 36.35865, 1, 1, 1000, 1000
RFND, 20274802, 0.2, 25, 0, 0
IMU, 20307527, 0.002744361, -0.001279562, 0.005037709, 0.307929, 0.0457845, -9.812989, 0, 0, 36.35225, 1, 1, 1000, 1000
MAG, 20324898, 208, 618, 259, 0, 0, 0, 0, 0, 0, 1, 20324890
RFND, 20324926, 0.2, 25, 0, 0
BARO, 20324957, -0.07902771, 988.0598, 34.96, -0.01702718, 20324, 0, 34.64
CTUN, 20324970, 0, 0, 0, 0.3202634, 0.06479371, 0.06479371, -0.07, 0, 0.19, 0, 0, 0
ATT, 20327598, 0, -0.08, 0, -0.61, 359.87, 359.88, 0, 1
RATE, 20327659, 0.3842215, -0.1020871, 0.001291568, 2.785766, 0.2413307, 0.004616752, 0.002112002, -0.7409222, 0.0002433051, 293.6038, -5.034637, 0
NKF1, 20327668, -0.08, -0.61, 359.87, 0.007620156, -0.02981645, 0.007249477, 0, 0, 0, -0.0647864, 0.01, 0, 0
NKF2, 20327668, 1, 0, 0, 0, 0, 0, 0, 0, 0, 0, 0, 0, 0
NKF3, 20327668, 0, 0, 0, 0.01, -0.03, 0, 0, 0, 0, 0, 0
NKF4, 20327668, 0, 0, 0, 0, 0, 2.399127E-05, 0, 0, 0, 19, 229, 0, 0
NKF5, 20327668, 0, 0, 0, 0, 0.19, 0.13, 0, 0.19, 0.5, 4.593136E-05, 0.001420303, 0.002652275
NKQ1, 20327668, 0.9999879, -0.001777943, 0.004446917, -0.001125064
AHR2, 20327715, 0, -0.58, 359.86, -0.07, 0, 0, 0.9999864, -5.004629E-05, -0.005099725, -0.001155855
MOTB, 20327724, 1, 1, 0, 1
RCIN, 20327728, 0, 0, 0, 0, 0, 0, 0, 0, 0, 0, 0, 0, 0, 0
RCOU, 20327734, 1229, 1223, 1231, 1221, 0, 0, 0, 0, 0, 0, 0, 0, 0, 0
VIBE, 20327742, 0.4447972, 0.3825222, 0.3881247, 0, 0, 0
CTRL, 20327748, 0.001089607, 0.001256675, 0.006645701, 0.001613525, 0.0002927466
PRX, 20327779, 2, 0.54, 0, 0.41, 0, 1.67, 0, 2.58, 0, 0, 90, 0.41
IMU, 20347542, 0.002404875, -0.0003919317, 0.007690557, 0.1711715, 0.03422633, -9.779619, 0, 0, 36.34431, 1, 1, 1000, 1000
RFND, 20375227, 0.2, 25, 0, 0
IMU, 20387825, -0.004715092, 0.005287526, -0.00716837, -0.08323693, 0.02664606, -9.717108, 0, 0, 36.33359, 1, 1, 1000, 1000
MAG, 20424925, 208, 625, 260, 0, 0, 0, 0, 0, 0, 1, 20424917
RFND, 20424955, 0.2, 25, 0, 0
BARO, 20424987, -0.05644836, 988.0574, 34.95, 0.04052759, 20424, 0, 34.64
CTUN, 20425000, 0, 0, 0, 0.3202634, 0.06407399, 0.06407399, -0.05, 0, 0.19, 0, 0, 0
DU32, 20425020, 7, 33611992
ATT, 20427856, 0, -0.08, 0, -0.62, 359.87, 359.88, 0, 1
RATE, 20427865, 0.3915936, -0.06965934, 0.001918822, 2.793264, -0.266507, 0.006119372, 0.002142453, -0.4799204, 0.000316254, 354.2091, -5.37405, 0
NKF1, 20427873, -0.08, -0.62, 359.87, 0.01038441, -0.03166122, 0.008745904, 0, 0, 0, -0.06404708, 0.01, 0, 0
NKF2, 20427873, 1, 0, 0, 0, 0, 0, 0, 0, 0, 0, 0, 0, 0
