FMT, 128, 89, FMT, BBnNZ, Type,Length,Name,Format,Columns
FMT, 129, 31, PARM, QNf, TimeUS,Name,Value
FMT, 130, 46, GPS, QBIHBcLLefffB, TimeUS,Status,GMS,GWk,NSats,HDop,Lat,Lng,Alt,Spd,GCrs,VZ,U
FMT, 131, 46, GPS2, QBIHBcLLefffB, TimeUS,Status,GMS,GWk,NSats,HDop,Lat,Lng,Alt,Spd,GCrs,VZ,U
FMT, 132, 46, GPSB, QBIHBcLLefffB, TimeUS,Status,GMS,GWk,NSats,HDop,Lat,Lng,Alt,Spd,GCrs,VZ,U
FMT, 193, 24, GPA, QCCCCBI, TimeUS,VDop,HAcc,VAcc,SAcc,VV,SMS
FMT, 194, 24, GPA2, QCCCCBI, TimeUS,VDop,HAcc,VAcc,SAcc,VV,SMS
FMT, 195, 24, GPAB, QCCCCBI, TimeUS,VDop,HAcc,VAcc,SAcc,VV,SMS
FMT, 133, 53, IMU, QffffffIIfBBHH, TimeUS,GyrX,GyrY,GyrZ,AccX,AccY,AccZ,EG,EA,T,GH,AH,GHz,AHz
FMT, 134, 75, MSG, QZ, TimeUS,Message
FMT, 135, 39, RCIN, QHHHHHHHHHHHHHH, TimeUS,C1,C2,C3,C4,C5,C6,C7,C8,C9,C10,C11,C12,C13,C14
FMT, 136, 39, RCOU, QHHHHHHHHHHHHHH, TimeUS,C1,C2,C3,C4,C5,C6,C7,C8,C9,C10,C11,C12,C13,C14
FMT, 137, 15, RSSI, Qf, TimeUS,RXRSSI
FMT, 139, 37, BARO, QffcfIff, TimeUS,Alt,Press,Temp,CRt,SMS,Offset,GndTemp
FMT, 140, 22, POWR, QffHB, TimeUS,Vcc,VServo,Flags,Safety
FMT, 143, 45, CMD, QHHHfffffff, TimeUS,CTot,CNum,CId,Prm1,Prm2,Prm3,Prm4,Lat,Lng,Alt
FMT, 144, 20, RAD, QBBBBBHH, TimeUS,RSSI,RemRSSI,TxBuf,Noise,RemNoise,RxErrors,Fixed
FMT, 146, 43, CAM, QIHLLeeeccC, TimeUS,GPSTime,GPSWeek,Lat,Lng,Alt,RelAlt,GPSAlt,Roll,Pitch,Yaw
FMT, 232, 43, TRIG, QIHLLeeeccC, TimeUS,GPSTime,GPSWeek,Lat,Lng,Alt,RelAlt,GPSAlt,Roll,Pitch,Yaw
FMT, 162, 30, ARSP, QffcffB, TimeUS,Airspeed,DiffPress,Temp,RawPress,Offset,U
FMT, 164, 45, CURR, QfffcHHHHHHHHHH, TimeUS,Volt,Curr,CurrTot,Temp,V1,V2,V3,V4,V5,V6,V7,V8,V9,V10
FMT, 165, 45, CUR2, QfffcHHHHHHHHHH, TimeUS,Volt,Curr,CurrTot,Temp,V1,V2,V3,V4,V5,V6,V7,V8,V9,V10
FMT, 163, 27, ATT, QccccCCCC, TimeUS,DesRoll,Roll,DesPitch,Pitch,DesYaw,Yaw,ErrRP,ErrYaw
FMT, 166, 34, MAG, QhhhhhhhhhBI, TimeUS,MagX,MagY,MagZ,OfsX,OfsY,OfsZ,MOfsX,MOfsY,MOfsZ,Health,S
FMT, 169, 14, MODE, QMBB, TimeUS,Mode,ModeNum,Rsn
FMT, 196, 17, RFND, QCBCB, TimeUS,Dist1,Orient1,Dist2,Orient2
FMT, 223, 33, DMS, IIIIIBBBBBBBBBB, TimeMS,N,Dp,RT,RS,Er,Fa,Fmn,Fmx,Pa,Pmn,Pmx,Sa,Smn,Smx
FMT, 240, 41, BCN, QBBfffffff, TimeUS,Health,Cnt,D0,D1,D2,D3,PosX,PosY,PosZ
FMT, 138, 53, IMU2, QffffffIIfBBHH, TimeUS,GyrX,GyrY,GyrZ,AccX,AccY,AccZ,EG,EA,T,GH,AH,GHz,AHz
FMT, 147, 53, IMU3, QffffffIIfBBHH, TimeUS,GyrX,GyrY,GyrZ,AccX,AccY,AccZ,EG,EA,T,GH,AH,GHz,AHz
FMT, 141, 45, AHR2, QccCfLLffff, TimeUS,Roll,Pitch,Yaw,Alt,Lat,Lng,Q1,Q2,Q3,Q4
FMT, 180, 31, POS, QLLfff, TimeUS,Lat,Lng,Alt,RelHomeAlt,RelOriginAlt
FMT, 142, 45, SIM, QccCfLLffff, TimeUS,Roll,Pitch,Yaw,Alt,Lat,Lng,Q1,Q2,Q3,Q4
FMT, 198, 51, NKF1, QccCfffffffccc, TimeUS,Roll,Pitch,Yaw,VN,VE,VD,dPD,PN,PE,PD,GX,GY,GZ
FMT, 199, 35, NKF2, QbccccchhhhhhB, TimeUS,AZbias,GSX,GSY,GSZ,VWN,VWE,MN,ME,MD,MX,MY,MZ,MI
FMT, 200, 33, NKF3, Qcccccchhhcc, TimeUS,IVN,IVE,IVD,IPN,IPE,IPD,IMX,IMY,IMZ,IYAW,IVT
FMT, 201, 35, NKF4, QcccccfbbHBHHb, TimeUS,SV,SP,SH,SM,SVT,errRP,OFN,OFE,FS,TS,SS,GPS,PI
FMT, 202, 40, NKF5, QBhhhcccCCfff, TimeUS,NI,FIX,FIY,AFI,HAGL,offset,RI,rng,Herr,eAng,eVel,ePos
FMT, 203, 51, NKF6, QccCfffffffccc, TimeUS,Roll,Pitch,Yaw,VN,VE,VD,dPD,PN,PE,PD,GX,GY,GZ
FMT, 204, 35, NKF7, QbccccchhhhhhB, TimeUS,AZbias,GSX,GSY,GSZ,VWN,VWE,MN,ME,MD,MX,MY,MZ,MI
FMT, 205, 33, NKF8, Qcccccchhhcc, TimeUS,IVN,IVE,IVD,IPN,IPE,IPD,IMX,IMY,IMZ,IYAW,IVT
FMT, 206, 35, NKF9, QcccccfbbHBHHb, TimeUS,SV,SP,SH,SM,SVT,errRP,OFN,OFE,FS,TS,SS,GPS,PI
FMT, 207, 36, NKF0, QBccCCcccccccc, TimeUS,ID,rng,innov,SIV,TR,BPN,BPE,BPD,OFH,OFL,OFN,OFE,OFD
FMT, 208, 27, NKQ1, Qffff, TimeUS,Q1,Q2,Q3,Q4
FMT, 209, 27, NKQ2, Qffff, TimeUS,Q1,Q2,Q3,Q4
FMT, 210, 51, XKF1, QccCfffffffccc, TimeUS,Roll,Pitch,Yaw,VN,VE,VD,dPD,PN,PE,PD,GX,GY,GZ
FMT, 211, 34, XKF2, QccccchhhhhhB, TimeUS,AX,AY,AZ,VWN,VWE,MN,ME,MD,MX,MY,MZ,MI
FMT, 212, 33, XKF3, Qcccccchhhcc, TimeUS,IVN,IVE,IVD,IPN,IPE,IPD,IMX,IMY,IMZ,IYAW,IVT
FMT, 213, 35, XKF4, QcccccfbbHBHHb, TimeUS,SV,SP,SH,SM,SVT,errRP,OFN,OFE,FS,TS,SS,GPS,PI
FMT, 214, 40, XKF5, QBhhhcccCCfff, TimeUS,NI,FIX,FIY,AFI,HAGL,offset,RI,rng,Herr,eAng,eVel,ePos
FMT, 215, 51, XKF6, QccCfffffffccc, TimeUS,Roll,Pitch,Yaw,VN,VE,VD,dPD,PN,PE,PD,GX,GY,GZ
FMT, 216, 34, XKF7, QccccchhhhhhB, TimeUS,AX,AY,AZ,VWN,VWE,MN,ME,MD,MX,MY,MZ,MI
FMT, 217, 33, XKF8, Qcccccchhhcc, TimeUS,IVN,IVE,IVD,IPN,IPE,IPD,IMX,IMY,IMZ,IYAW,IVT
FMT, 218, 35, XKF9, QcccccfbbHBHHb, TimeUS,SV,SP,SH,SM,SVT,errRP,OFN,OFE,FS,TS,SS,GPS,PI
FMT, 219, 36, XKF0, QBccCCcccccccc, TimeUS,ID,rng,innov,SIV,TR,BPN,BPE,BPD,OFH,OFL,OFN,OFE,OFD
FMT, 220, 27, XKQ1, Qffff, TimeUS,Q1,Q2,Q3,Q4
FMT, 221, 27, XKQ2, Qffff, TimeUS,Q1,Q2,Q3,Q4
FMT, 222, 35, XKFD, Qffffff, TimeUS,IX,IY,IZ,IVX,IVY,IVZ
FMT, 148, 34, TERR, QBLLHffHH, TimeUS,Status,Lat,Lng,Spacing,TerrH,CHeight,Pending,Loaded
FMT, 149, 18, UBX1, QBHBBH, TimeUS,Instance,noisePerMS,jamInd,aPower,agcCnt
FMT, 150, 16, UBX2, QBbBbB, TimeUS,Instance,ofsI,magI,ofsQ,magQ
FMT, 151, 18, UBY1, QBHBBH, TimeUS,Instance,noisePerMS,jamInd,aPower,agcCnt
FMT, 152, 16, UBY2, QBbBbB, TimeUS,Instance,ofsI,magI,ofsQ,magQ
FMT, 170, 42, GRAW, QIHBBddfBbB, TimeUS,WkMS,Week,numSV,sv,cpMes,prMes,doMes,mesQI,cno,lli
FMT, 171, 24, GRXH, QdHbBB, TimeUS,rcvTime,week,leapS,numMeas,recStat
FMT, 172, 41, GRXS, QddfBBBHBBBBB, TimeUS,prMes,cpMes,doMes,gnss,sv,freq,lock,cno,prD,cpD,doD,trk
FMT, 173, 63, SBFE, QIHBBdddfffff, TimeUS,TOW,WN,Mode,Err,Lat,Lng,Height,Undul,Vn,Ve,Vu,COG
FMT, 153, 19, ESC1, Qcccc, TimeUS,RPM,Volt,Curr,Temp
FMT, 154, 19, ESC2, Qcccc, TimeUS,RPM,Volt,Curr,Temp
FMT, 155, 19, ESC3, Qcccc, TimeUS,RPM,Volt,Curr,Temp
FMT, 156, 19, ESC4, Qcccc, TimeUS,RPM,Volt,Curr,Temp
FMT, 157, 19, ESC5, Qcccc, TimeUS,RPM,Volt,Curr,Temp
FMT, 158, 19, ESC6, Qcccc, TimeUS,RPM,Volt,Curr,Temp
FMT, 159, 19, ESC7, Qcccc, TimeUS,RPM,Volt,Curr,Temp
FMT, 160, 19, ESC8, Qcccc, TimeUS,RPM,Volt,Curr,Temp
FMT, 167, 34, MAG2, QhhhhhhhhhBI, TimeUS,MagX,MagY,MagZ,OfsX,OfsY,OfsZ,MOfsX,MOfsY,MOfsZ,Health,S
FMT, 168, 34, MAG3, QhhhhhhhhhBI, TimeUS,MagX,MagY,MagZ,OfsX,OfsY,OfsZ,MOfsX,MOfsY,MOfsZ,Health,S
FMT, 174, 31, ACC1, QQfff, TimeUS,SampleUS,AccX,AccY,AccZ
FMT, 175, 31, ACC2, QQfff, TimeUS,SampleUS,AccX,AccY,AccZ
FMT, 176, 31, ACC3, QQfff, TimeUS,SampleUS,AccX,AccY,AccZ
FMT, 177, 31, GYR1, QQfff, TimeUS,SampleUS,GyrX,GyrY,GyrZ
FMT, 178, 31, GYR2, QQfff, TimeUS,SampleUS,GyrX,GyrY,GyrZ
FMT, 179, 31, GYR3, QQfff, TimeUS,SampleUS,GyrX,GyrY,GyrZ
FMT, 181, 35, PIDR, Qffffff, TimeUS,Des,P,I,D,FF,AFF
FMT, 182, 35, PIDP, Qffffff, TimeUS,Des,P,I,D,FF,AFF
FMT, 183, 35, PIDY, Qffffff, TimeUS,Des,P,I,D,FF,AFF
FMT, 184, 35, PIDA, Qffffff, TimeUS,Des,P,I,D,FF,AFF
FMT, 185, 35, PIDS, Qffffff, TimeUS,Des,P,I,D,FF,AFF
FMT, 186, 35, PIDL, Qffffff, TimeUS,Des,P,I,D,FF,AFF
FMT, 161, 37, BAR2, QffcfIff, TimeUS,Alt,Press,Temp,CRt,SMS,Offset,GndTemp
FMT, 197, 37, BAR3, QffcfIff, TimeUS,Alt,Press,Temp,CRt,SMS,Offset,GndTemp
FMT, 187, 35, VIBE, QfffIII, TimeUS,VibeX,VibeY,VibeZ,Clip0,Clip1,Clip2
FMT, 188, 47, IMT, Qfffffffff, TimeUS,DelT,DelvT,DelaT,DelAX,DelAY,DelAZ,DelVX,DelVY,DelVZ
FMT, 189, 47, IMT2, Qfffffffff, TimeUS,DelT,DelvT,DelaT,DelAX,DelAY,DelAZ,DelVX,DelVY,DelVZ
FMT, 190, 47, IMT3, Qfffffffff, TimeUS,DelT,DelvT,DelaT,DelAX,DelAY,DelAZ,DelVX,DelVY,DelVZ
FMT, 191, 24, ORGN, QBLLe, TimeUS,Type,Lat,Lng,Alt
FMT, 192, 19, RPM, Qff, TimeUS,rpm1,rpm2
FMT, 233, 47, GMB1, Iffffffffff, TimeMS,dt,dax,day,daz,dvx,dvy,dvz,jx,jy,jz
FMT, 234, 44, GMB2, IBfffffffff, TimeMS,es,ex,ey,ez,rx,ry,rz,tx,ty,tz
FMT, 235, 13, GMB3, Ihhh, TimeMS,rl_torque_cmd,el_torque_cmd,az_torque_cmd
FMT, 236, 59, RATE, Qffffffffffff, TimeUS,RDes,R,ROut,PDes,P,POut,YDes,Y,YOut,ADes,A,AOut
FMT, 237, 23, RALY, QBBLLh, TimeUS,Tot,Seq,Lat,Lng,Alt
FMT, 238, 43, VISO, Qffffffff, TimeUS,dt,AngDX,AngDY,AngDZ,PosDX,PosDY,PosDZ,conf
FMT, 224, 23, SBPH, QIII, TimeUS,CrcError,LastInject,IARhyp
FMT, 229, 80, SBR1, QHHBZ, TimeUS,msg_type,sender_id,msg_len,d1
FMT, 230, 205, SBR2, QHZZZ, TimeUS,msg_type,d2,d3,d4
FMT, 25, 41, ATUN, QBBfffffff, TimeUS,Axis,TuneStep,Targ,Min,Max,RP,RD,SP,ddt
FMT, 26, 19, ATDE, Qff, TimeUS,Angle,Rate
FMT, 31, 22, PTUN, QBfHHH, TimeUS,Param,TunVal,CtrlIn,TunLo,TunHi
FMT, 12, 28, OF, QBffff, TimeUS,Qual,flowX,flowY,bodyX,bodyY
FMT, 5, 51, NTUN, Qffffffffff, TimeUS,DPosX,DPosY,PosX,PosY,DVelX,DVelY,VelX,VelY,DAccX,DAccY
FMT, 4, 51, CTUN, Qffffffeccfhh, TimeUS,ThI,ABst,ThO,ThH,DAlt,Alt,BAlt,DSAlt,SAlt,TAlt,DCRt,CRt
FMT, 6, 32, PM, QHHIhBHII, TimeUS,NLon,NLoop,MaxT,PMT,I2CErr,INSErr,LogDrop,Mem
FMT, 30, 27, MOTB, Qffff, TimeUS,LiftMax,BatVolt,BatRes,ThLimit
FMT, 13, 12, EV, QB, TimeUS,Id
FMT, 20, 14, D16, QBh, TimeUS,Id,Value
FMT, 21, 14, DU16, QBH, TimeUS,Id,Value
FMT, 22, 16, D32, QBi, TimeUS,Id,Value
FMT, 23, 16, DU32, QBI, TimeUS,Id,Value
FMT, 24, 16, DFLT, QBf, TimeUS,Id,Value
FMT, 19, 13, ERR, QBB, TimeUS,Subsys,ECode
FMT, 32, 19, HELI, Qff, TimeUS,DRRPM,ERRPM
FMT, 33, 29, PL, QBBffff, TimeUS,Heal,TAcq,pX,pY,vX,vY
FMT, 34, 36, GUID, QBffffff, TimeUS,Type,pX,pY,pZ,vX,vY,vZ
FMT, 35, 32, THRO, QBffffbbbb, TimeUS,Stage,Vel,VelZ,Acc,AccEfZ,Throw,AttOk,HgtOk,PosOk
FMT, 36, 56, PRX, QBfffffffffff, TimeUS,Health,D0,D45,D90,D135,D180,D225,D270,D315,DUp,CAn,CDis
MODE, 64798889, 100, 100, 2
EV, 64810072, 15
FMT, 254, 47, NKT1, QIffffffff, TimeUS,Cnt,IMUMin,IMUMax,EKFMin,EKFMax,AngMin,AngMax,VelMin,VelM
FMT, 253, 31, CTRL, Qfffff, TimeUS,RMSRollP,RMSRollD,RMSPitchP,RMSPitchD,RMSYaw
MSG, 64940471, APM:Copter V3.5.7 (870dd8f0)
MSG, 64940475, New mission
MSG, 64940486, Frame: QUAD
MODE, 64940490, Autonomous, 100, 2
RFND, 64942356, 0.2, 25, 0, 0
ATT, 64944914, 0, 0.42, 0, -0.46, 95.97, 95.98, 0, 1
RATE, 64944926, -1.892114, -0.03061414, -0.004030559, 2.07524, 0.0008491612, 0.005226207, -0.009341117, 0.1063025, -0.00019692, 521.3739, 0.7152557, 0
NKF1, 64944933, 0.42, -0.46, 95.98, 0.006413127, -0.01850121, 0.01287343, 0, 0, 0, -0.05355182, 0.01, -0.02, -0.06
NKF2, 64944933, 5, 0, 0, 0, 0, 0, 0, 0, 0, 0, 0, 0, 0
NKF3, 64944933, 0, 0, 0, 0, -0.01, 0.01, 0, 0, 0, 0, 0
NKF4, 64944933, 0, 0, 0, 0, 0, 1.966451E-05, 0, 0, 0, 19, 229, 0, 0
NKF5, 64944933, 0, 0, 0, 0, 0.18, 0.13, 0, 0.19, 0.5, 2.203338E-05, 0.00132159, 0.002589281
NKQ1, 64944933, 0.6692323, -0.002550645, 0.005860609, 0.7430257
AHR2, 64944979, 0.48, -0.49, 92.6, -0.49, 0, 0, 0.6908128, 0.006003154, 7.355634E-05, 0.7230088
MOTB, 64944987, 1, 1, 0, 1
RCIN, 64944991, 0, 0, 0, 0, 0, 0, 0, 0, 0, 0, 0, 0, 0, 0
RCOU, 64944997, 1101, 1101, 1101, 1101, 0, 0, 0, 0, 0, 0, 0, 0, 0, 0
VIBE, 64945006, 0.02239649, 0.02105442, 0.03497106, 0, 0, 0
CTRL, 64945012, 0.004466842, 0.0001743972, 0.004868591, 0.0001733178, 0.0001647322
PRX, 64945043, 2, 0.61, 0, 0.55, 0, 1.52, 0, 2.4, 0, 0, 90, 0.55
IMU, 64965004, 0.0001177273, -0.001003609, -0.0003991936, 0.1091683, -0.05508517, -9.75223, 0, 0, 39.29411, 1, 1, 1000, 1000
RFND, 64992362, 0.2, 25, 0, 0
IMU, 65004938, -6.328904E-05, -0.0003024464, -0.0002846401, 0.1032219, -0.0578607, -9.766296, 0, 0, 39.29378, 1, 1, 1000, 1000
MAG, 65032391, 264, 650, 187, 0, 0, 0, 0, 0, 0, 1, 65032383
BARO, 65032464, -0.4973266, 988.1587, 38.13, -0.1779461, 65032, 0, 35
CTUN, 65032478, 0, 0, 0, 0.3178602, 0.05329169, 0.05329169, -0.49, 0, 0.19, 0, 0, -1
DU32, 65032514, 7, 50357752
RFND, 65042375, 0.2, 25, 0, 0
ATT, 65044908, 0, 0.42, 0, -0.46, 95.97, 95.98, 0, 1
RATE, 65044919, -1.892574, -0.02992905, -0.004314305, 2.076729, 0.02334451, 0.004874135, -0.008603465, 0.0892216, -0.000181813, 531.2102, -1.378059, 0
NKF1, 65044926, 0.42, -0.46, 95.98, 0.006807829, -0.01894163, 0.0131163, 0, 0, 0, -0.05321046, 0.01, -0.02, -0.06
NKF2, 65044926, 5, 0, 0, 0, 0, 0, 0, 0, 0, 0, 0, 0, 0
NKF3, 65044926, 0, 0, 0, 0, -0.01, 0.01, 0, 0, 0, 0, 0
NKF4, 65044926, 0, 0, 0, 0, 0, 1.322746E-05, 0, 0, 0, 19, 229, 0, 0
NKF5, 65044926, 0, 0, 0, 0, 0.18, 0.13, 0, 0.19, 0.5, 7.045934E-06, 0.001515349, 0.002829149
NKQ1, 65044926, 0.6692042, -0.002549136, 0.005858875, 0.7430512
AHR2, 65044970, 0.48, -0.49, 92.6, -0.49, 0, 0, 0.6908286, 0.006008043, 7.086717E-05, 0.7229936
MOTB, 65044978, 1, 1, 0, 1
RCIN, 65044982, 0, 0, 0, 0, 0, 0, 0, 0, 0, 0, 0, 0, 0, 0
RCOU, 65044988, 1101, 1101, 1101, 1101, 0, 0, 0, 0, 0, 0, 0, 0, 0, 0
VIBE, 65044997, 0.02154252, 0.0205592, 0.04001559, 0, 0, 0
CTRL, 65045003, 0.004462252, 0.0001603829, 0.004879333, 0.0001651629, 0.0001692446
PRX, 65045035, 2, 0.61, 0, 0.55, 0, 1.52, 0, 2.4, 0, 0, 90, 0.55
IMU, 65045043, -0.0002137188, -6.393784E-05, 0.0003681789, 0.1094749, -0.05262, -9.738979, 0, 0, 39.29284, 1, 1, 1000, 1000
IMU, 65084911, 0.000584953, -0.0004994632, -0.001489427, 0.1051057, -0.04967288, -9.74428, 0, 0, 39.2913, 1, 1, 1000, 1000
RFND, 65092337, 0.2, 25, 0, 0
IMU, 65124899, -0.001648461, -4.655885E-08, 7.38268E-05, 0.1145598, -0.07028542, -9.770878, 0, 0, 39.28967, 1, 1, 1000, 1000
MAG, 65132393, 265, 653, 179, 0, 0, 0, 0, 0, 0, 1, 65132385
BARO, 65132463, -0.5086295, 988.1599, 38.13, -0.1391794, 65132, 0, 35
CTUN, 65132477, 0, 0, 0, 0.3178602, 0.05285901, 0.05285901, -0.5, 0, 0.19, 0, 0, -1
RFND, 65142353, 0.2, 25, 0, 0
ATT, 65144949, 0, 0.42, 0, -0.45, 95.98, 95.99, 0, 1
RATE, 65144959, -1.89119, 0.0008801172, -0.004743264, 2.066522, 0.05945841, 0.004776593, -0.008588009, 0.08253192, -0.0002224757, 524.8068, -1.419926, 0
NKF1, 65144966, 0.42, -0.45, 95.99, 0.007352782, -0.01965388, 0.01295819, 0, 0, 0, -0.05276182, 0.01, -0.02, -0.06
NKF2, 65144966, 5, 0, 0, 0, 0, 0, 0, 0, 0, 0, 0, 0, 0
NKF3, 65144966, 0, 0, 0, 0, -0.01, 0.01, 0, 0, 0, 0, 0
NKF4, 65144966, 0, 0, 0, 0, 0, 8.778117E-06, 0, 0, 0, 19, 229, 0, 0
NKF5, 65144966, 0, 0, 0, 0, 0.18, 0.13, 0, 0.19, 0.5, 1.547448E-05, 0.001761284, 0.003462111
NKQ1, 65144966, 0.6691635, -0.002565333, 0.005869846, 0.7430877
AHR2, 65145010, 0.48, -0.49, 92.6, -0.5, 0, 0, 0.6908324, 0.005996495, 8.135142E-05, 0.7229902
MOTB, 65145018, 1, 1, 0, 1
RCIN, 65145022, 0, 0, 0, 0, 0, 0, 0, 0, 0, 0, 0, 0, 0, 0
RCOU, 65145028, 1101, 1101, 1101, 1101, 0, 0, 0, 0, 0, 0, 0, 0, 0, 0
VIBE, 65145037, 0.02296758, 0.02085607, 0.03543472, 0, 0, 0
CTRL, 65145043, 0.004455433, 0.0001875435, 0.004866881, 0.0001540524, 0.0001778477
PRX, 65145075, 2, 0.61, 0, 0.55, 0, 2.97, 0, 2.4, 0, 0, 90, 0.55
IMU, 65164919, -0.0001489471, -0.001044239, 0.0009381365, 0.1020471, -0.05840502, -9.742962, 0, 0, 39.28715, 1, 1, 1000, 1000
RFND, 65192311, 0.2, 25, 0, 0
IMU, 65204998, 0.00158753, 0.0008223374, 0.0002535403, 0.1158686, -0.04928956, -9.759811, 0, 0, 39.28433, 1, 1, 1000, 1000
MAG, 65232350, 266, 650, 179, 0, 0, 0, 0, 0, 0, 1, 65232341
BARO, 65232397, -0.5594925, 988.1655, 38.13, -0.0628301, 65232, 0, 35
CTUN, 65232410, 0, 0, 0, 0.3178602, 0.05269714, 0.05269714, -0.55, 0, 0.19, 0, 0, -1
RFND, 65242391, 0.2, 25, 0, 0
ATT, 65244957, 0, 0.42, 0, -0.45, 95.99, 96, 0, 1
RATE, 65244969, -1.890925, -0.05296566, -0.003976645, 2.062928, -0.05443779, 0.005213966, -0.007204859, 0.06669683, -0.0002981299, 512.7547, -0.4737854, 0
NKF1, 65244976, 0.42, -0.45, 96, 0.007592747, -0.02019064, 0.01266061, 0, 0, 0, -0.05263002, 0.01, -0.02, -0.06
NKF2, 65244976, 5, 0, 0, 0, 0, 0, 0, 0, 0, 0, 0, 0, 0
NKF3, 65244976, 0, 0, 0, 0, -0.01, 0.01, 0, 0, 0, 0, 0
NKF4, 65244976, 0, 0, 0, 0, 0, 5.944067E-06, 0, 0, 0, 19, 229, 0, 0
NKF5, 65244976, 0, 0, 0, 0, 0.18, 0.13, 0, 0.19, 0.5, 2.622804E-05, 0.001799824, 0.003488349
NKQ1, 65244976, 0.669105, -0.002572638, 0.005873583, 0.7431402
AHR2, 65245021, 0.48, -0.49, 92.6, -0.55, 0, 0, 0.690819, 0.00599628, 8.249858E-05, 0.723003
MOTB, 65245029, 1, 1, 0, 1
RCIN, 65245034, 0, 0, 0, 0, 0, 0, 0, 0, 0, 0, 0, 0, 0, 0
RCOU, 65245040, 1101, 1101, 1101, 1101, 0, 0, 0, 0, 0, 0, 0, 0, 0, 0
VIBE, 65245048, 0.02253816, 0.02103721, 0.03255637, 0, 0, 0
CTRL, 65245055, 0.004458472, 0.0001815274, 0.00485186, 0.0001622594, 0.0002178051
PRX, 65245086, 2, 0.61, 0, 0.55, 0, 3.54, 0, 2.39, 0, 0, 90, 0.55
IMU, 65245093, -0.0006150598, -0.001422597, -2.774424E-05, 0.106784, -0.05184165, -9.747919, 0, 0, 39.28157, 1, 1, 1000, 1000
IMU, 65284937, 0.0006554782, 0.0001094571, -0.0007580967, 0.1027533, -0.05358049, -9.753522, 0, 0, 39.27929, 1, 1, 1000, 1000
RFND, 65292382, 0.2, 25, 0, 0
IMU, 65324951, -0.001284328, -0.001780992, 0.0002186627, 0.1039203, -0.04716009, -9.741158, 0, 0, 39.27753, 1, 1, 1000, 1000
MAG, 65332355, 267, 651, 177, 0, 0, 0, 0, 0, 0, 1, 65332347
BARO, 65332400, -0.5820982, 988.1675, 38.13, -0.1020459, 65332, 0, 35
CTUN, 65332413, 0, 0, 0, 0.3178602, 0.05229438, 0.05229438, -0.58, 0, 0.19, 0, 0, -1
RFND, 65342399, 0.2, 25, 0, 0
ATT, 65344904, 0, 0.41, 0, -0.45, 96, 96, 0, 1
RATE, 65344914, -1.884076, 0.01304982, -0.004642474, 2.061506, -0.02935757, 0.004826419, -0.008649388, 0.07484534, -0.0002297383, 528.3112, -0.9273529, 0
NKF1, 65344922, 0.41, -0.45, 96, 0.007587973, -0.02112833, 0.01304472, 0, 0, 0, -0.0522569, 0.01, -0.02, -0.06
NKF2, 65344922, 5, 0, 0, 0, 0, 0, 0, 0, 0, 0, 0, 0, 0
NKF3, 65344922, 0, 0, 0, 0, -0.02, 0.01, 0, 0, 0, 0, 0
NKF4, 65344922, 0, 0, 0, 0, 0, 4.053822E-06, 0, 0, 0, 19, 229, 0, 0
NKF5, 65344922, 0, 0, 0, 0, 0.18, 0.13, 0, 0.19, 0.5, 3.363077E-05, 0.001828916, 0.003539577
NKQ1, 65344922, 0.6690699, -0.002584423, 0.005865601, 0.7431719
AHR2, 65344966, 0.48, -0.49, 92.6, -0.58, 0, 0, 0.6908282, 0.005992145, 7.097135E-05, 0.7229941
MOTB, 65344973, 1, 1, 0, 1
RCIN, 65344978, 0, 0, 0, 0, 0, 0, 0, 0, 0, 0, 0, 0, 0, 0
RCOU, 65344984, 1101, 1101, 1101, 1101, 0, 0, 0, 0, 0, 0, 0, 0, 0, 0
VIBE, 65344993, 0.0199201, 0.02220128, 0.0344911, 0, 0, 0
CTRL, 65345000, 0.004438299, 0.0001848146, 0.004853416, 0.0001691576, 0.0002193741
PRX, 65345032, 2, 0.61, 0, 0.55, 0, 3.58, 0, 2.39, 0, 0, 90, 0.55
IMU, 65364953, -9.007233E-05, 0.0007213311, -0.0002924139, 0.09196833, -0.04683338, -9.743077, 0, 0, 39.27682, 1, 1, 1000, 1000
RFND, 65392339, 0.2, 25, 0, 0
IMU, 65404949, -0.0005671776, 9.322094E-05, 7.061733E-05, 0.1080994, -0.04802503, -9.735046, 0, 0, 39.27813, 1, 1, 1000, 1000
MAG, 65432395, 262, 657, 180, 0, 0, 0, 0, 0, 0, 1, 65432387
BARO, 65432472, -0.5312353, 988.1625, 38.13, -0.2048617, 65432, 0, 35
CTUN, 65432486, 0, 0, 0, 0.3178602, 0.05209401, 0.05209401, -0.53, 0, 0.19, 0, 0, -1
RFND, 65442317, 0.2, 25, 0, 0
ATT, 65444964, 0, 0.41, 0, -0.45, 96, 96.01, 0, 1
RATE, 65444974, -1.872291, -0.02270526, -0.004101082, 2.051069, 0.01288951, 0.004716151, -0.007926951, 0.05508082, -0.00017846, 545.3072, 0.6982803, 0
NKF1, 65444981, 0.41, -0.45, 96.01, 0.00773059, -0.02206613, 0.01346438, 0, 0, 0, -0.05198224, 0.01, -0.02, -0.06
NKF2, 65444981, 5, 0, 0, 0, 0, 0, 0, 0, 0, 0, 0, 0, 0
NKF3, 65444981, 0, 0, 0, 0, -0.02, 0.01, 0, 0, 0, 0, 0
NKF4, 65444981, 0, 0, 0, 0, 0, 2.813E-06, 0, 0, 0, 19, 229, 0, 0
NKF5, 65444981, 0, 0, 0, 0, 0.18, 0.13, 0, 0.19, 0.5, 3.833145E-05, 0.001867776, 0.003702181
NKQ1, 65444981, 0.6690388, -0.002612762, 0.005861646, 0.7431998
AHR2, 65445025, 0.47, -0.48, 92.6, -0.53, 0, 0, 0.6908414, 0.005968772, 6.133581E-05, 0.7229817
MOTB, 65445034, 1, 1, 0, 1
RCIN, 65445038, 0, 0, 0, 0, 0, 0, 0, 0, 0, 0, 0, 0, 0, 0
RCOU, 65445044, 1101, 1101, 1101, 1101, 0, 0, 0, 0, 0, 0, 0, 0, 0, 0
VIBE, 65445053, 0.01943648, 0.02577902, 0.0308036, 0, 0, 0
CTRL, 65445059, 0.004420505, 0.0001745301, 0.004840504, 0.0001710495, 0.0002185704
PRX, 65445089, 2, 0.61, 0, 0.55, 0, 3.59, 0, 2.38, 0, 0, 90, 0.55
IMU, 65445097, -8.64446E-05, -0.0002482295, -0.0002323031, 0.1074759, -0.04655576, -9.759565, 0, 0, 39.28005, 1, 1, 1000, 1000
IMU, 65485000, 0.001496526, 1.886558E-05, -0.000749875, 0.1147158, -0.05283134, -9.754356, 0, 0, 39.28143, 1, 1, 1000, 1000
RFND, 65492313, 0.2, 25, 0, 0
IMU, 65524927, 0.000102978, -0.0007892638, -0.0004792869, 0.1189527, -0.06263373, -9.754923, 0, 0, 39.28147, 1, 1, 1000, 1000
MAG, 65532312, 263, 652, 182, 0, 0, 0, 0, 0, 0, 1, 65532304
BARO, 65532358, -0.5538411, 988.1647, 38.14, -0.1748415, 65532, 0, 35
CTUN, 65532430, 0, 0, 0, 0.3178602, 0.05169267, 0.05169267, -0.55, 0, 0.19, 0, 0, -1
RFND, 65542378, 0.2, 25, 0, 0
ATT, 65544948, 0, 0.41, 0, -0.45, 96.01, 96.01, 0, 1
RATE, 65544958, -1.884507, -0.0004740094, -0.004539121, 2.04375, -0.03077269, 0.005050283, -0.008372634, 0.06035497, -0.0001670987, 535.679, 1.207161, 0
NKF1, 65544965, 0.41, -0.45, 96.01, 0.007884772, -0.02263797, 0.01322664, 0, 0, 0, -0.05164654, 0.01, -0.02, -0.06
NKF2, 65544965, 5, 0, 0, 0, 0, 0, 0, 0, 0, 0, 0, 0, 0
NKF3, 65544965, 0, 0, 0, 0, -0.02, 0.01, 0, 0, 0, 0, 0
NKF4, 65544965, 0, 0, 0, 0, 0, 1.997373E-06, 0, 0, 0, 19, 229, 0, 0
NKF5, 65544965, 0, 0, 0, 0, 0.18, 0.13, 0, 0.19, 0.5, 4.012843E-05, 0.001822785, 0.003588867
NKQ1, 65544965, 0.6690055, -0.002608085, 0.005888742, 0.7432296
AHR2, 65545008, 0.48, -0.48, 92.6, -0.55, 0, 0, 0.6908523, 0.005978682, 8.115933E-05, 0.7229712
MOTB, 65545016, 1, 1, 0, 1
RCIN, 65545020, 0, 0, 0, 0, 0, 0, 0, 0, 0, 0, 0, 0, 0, 0
RCOU, 65545026, 1101, 1101, 1101, 1101, 0, 0, 0, 0, 0, 0, 0, 0, 0, 0
VIBE, 65545035, 0.02041041, 0.02213553, 0.03615951, 0, 0, 0
CTRL, 65545041, 0.004439208, 0.0001724004, 0.004820577, 0.0001764739, 0.0002069385
PRX, 65545073, 2, 0.61, 0, 0.55, 0, 3.59, 0, 2.4, 0, 0, 90, 0.55
IMU, 65564919, 6.658133E-05, -0.0006614001, -0.0009278642, 0.09831056, -0.0456715, -9.742455, 0, 0, 39.28234, 1, 1, 1000, 1000
RFND, 65592857, 0.2, 25, 0, 0
IMU, 65604999, 0.0004396543, -0.0004140663, 8.673506E-05, 0.09901169, -0.04643151, -9.745703, 0, 0, 39.28229, 1, 1, 1000, 1000
MAG, 65632403, 262, 653, 179, 0, 0, 0, 0, 0, 0, 1, 65632395
BARO, 65632474, -0.6329612, 988.1736, 38.14, -0.05474837, 65632, 0, 35
CTUN, 65632488, 0, 0, 0, 0.3178602, 0.05145332, 0.05145332, -0.63, 0, 0.19, 0, 0, -1
RFND, 65642394, 0.2, 25, 0, 0
ATT, 65644957, 0, 0.41, 0, -0.45, 96.01, 96.02, 0, 1
RATE, 65644967, -1.874402, -0.06666159, -0.004161864, 2.043339, 0.03324158, 0.004602511, -0.009202437, 0.1058365, -0.0001666695, 498.5862, 1.626492, 0
NKF1, 65644974, 0.41, -0.45, 96.02, 0.007648272, -0.02400105, 0.01231077, 0, 0, 0, -0.05136488, 0.01, -0.02, -0.06
NKF2, 65644974, 5, 0, 0, 0, 0, 0, 0, 0, 0, 0, 0, 0, 0
NKF3, 65644974, 0, 0, 0, 0, -0.02, 0.01, 0, 0, 0, 0, 0
NKF4, 65644974, 0, 0, 0, 0, 0, 1.471636E-06, 0, 0, 0, 19, 229, 0, 0
NKF5, 65644974, 0, 0, 0, 0, 0.18, 0.13, 0, 0.19, 0.5, 4.085391E-05, 0.0018238, 0.003665507
NKQ1, 65644974, 0.6689779, -0.002621896, 0.005875558, 0.7432545
AHR2, 65645018, 0.47, -0.48, 92.59, -0.63, 0, 0, 0.6908694, 0.005968221, 6.280505E-05, 0.722955
MOTB, 65645025, 1, 1, 0, 1
RCIN, 65645030, 0, 0, 0, 0, 0, 0, 0, 0, 0, 0, 0, 0, 0, 0
RCOU, 65645036, 1101, 1101, 1101, 1101, 0, 0, 0, 0, 0, 0, 0, 0, 0, 0
VIBE, 65645044, 0.02098844, 0.02184097, 0.03502995, 0, 0, 0
CTRL, 65645050, 0.004424945, 0.0001611086, 0.004826174, 0.0001543187, 0.0001884788
PRX, 65645082, 2, 0.61, 0, 0.55, 0, 3.59, 0, 2.4, 0, 0, 90, 0.55
IMU, 65645090, -0.0008532918, 0.0001064747, 0.0006522514, 0.1043779, -0.04635416, -9.768814, 0, 0, 39.2821, 1, 1, 1000, 1000
IMU, 65684897, 0.0005568585, 0.0006131229, 0.0005351135, 0.09380009, -0.05156884, -9.752491, 0, 0, 39.28276, 1, 1, 1000, 1000
RFND, 65692345, 0.2, 25, 0, 0
IMU, 65724957, 4.744525E-05, 0.0002544278, -0.001164172, 0.1077882, -0.05570357, -9.751736, 0, 0, 39.2844, 1, 1, 1000, 1000
MAG, 65732373, 265, 653, 178, 0, 0, 0, 0, 0, 0, 1, 65732365
BARO, 65732419, -0.6386126, 988.1738, 38.14, -0.08830373, 65732, 0, 35
CTUN, 65732459, 0, 0, 0, 0.3178602, 0.05132783, 0.05132783, -0.63, 0, 0.19, 0, 0, -1
RFND, 65742913, 0.2, 25, 0, 0
ATT, 65744959, 0, 0.41, 0, -0.45, 96.02, 96.03, 0, 1
RATE, 65744969, -1.873252, -0.04972862, -0.00426271, 2.036629, -0.0554523, 0.00528872, -0.00666666, 0.02824416, -0.0002301592, 469.1715, -0.3986359, 0
NKF1, 65744977, 0.41, -0.45, 96.03, 0.008098796, -0.02536789, 0.01158448, 0, 0, 0, -0.05129847, 0.01, -0.02, -0.06
NKF2, 65744977, 5, 0, 0, 0, 0, 0, 0, 0, 0, 0, 0, 0, 0
NKF3, 65744977, 0, 0, 0, 0, -0.03, 0.01, 0, 0, 0, 0, 0
NKF4, 65744977, 0, 0, 0, 0, 0, 1.149456E-06, 0, 0, 0, 19, 229, 0, 0
NKF5, 65744977, 0, 0, 0, 0, 0.18, 0.13, 0, 0.19, 0.5, 4.011616E-05, 0.001736783, 0.003456056
NKQ1, 65744977, 0.6689318, -0.00263535, 0.005880806, 0.7432959
AHR2, 65745020, 0.47, -0.48, 92.59, -0.63, 0, 0, 0.6908681, 0.005958235, 6.355266E-05, 0.7229564
MOTB, 65745028, 1, 1, 0, 1
RCIN, 65745032, 0, 0, 0, 0, 0, 0, 0, 0, 0, 0, 0, 0, 0, 0
RCOU, 65745038, 1101, 1101, 1101, 1101, 0, 0, 0, 0, 0, 0, 0, 0, 0, 0
VIBE, 65745047, 0.02029346, 0.02120233, 0.03223138, 0, 0, 0
CTRL, 65745053, 0.00442024, 0.0001601216, 0.004798495, 0.0001525751, 0.0002134121
PRX, 65745084, 2, 0.61, 0, 0.55, 0, 3.59, 0, 2.4, 0, 0, 90, 0.55
IMU, 65764976, -0.0002005313, -0.00215807, -0.0007959566, 0.1044924, -0.06135889, -9.747959, 0, 0, 39.2866, 1, 1, 1000, 1000
RFND, 65792352, 0.2, 25, 0, 0
IMU, 65804921, -0.0009001321, -0.0002051772, -0.000815023, 0.1082094, -0.04804581, -9.768964, 0, 0, 39.28825, 1, 1, 1000, 1000
MAG, 65832396, 261, 647, 182, 0, 0, 0, 0, 0, 0, 1, 65832388
BARO, 65832465, -0.6555669, 988.176, 38.14, -0.2596129, 65832, 0, 35
CTUN, 65832479, 0, 0, 0, 0.3178602, 0.05124036, 0.05124036, -0.65, 0, 0.19, 0, 0, -1
RFND, 65842358, 0.2, 25, 0, 0
ATT, 65844917, 0, 0.41, 0, -0.45, 96.02, 96.03, 0, 1
RATE, 65844927, -1.857507, -0.03559814, -0.004351824, 2.033524, -0.02353314, 0.00475362, -0.00883342, 0.006685134, -0.000148317, 443.9311, -1.217651, 0
NKF1, 65844936, 0.41, -0.45, 96.03, 0.008342387, -0.02615687, 0.01096126, 0, 0, 0, -0.05118094, 0.01, -0.02, -0.06
NKF2, 65844936, 5, 0, 0, 0, 0, 0, 0, 0, 0, 0, 0, 0, 0
NKF3, 65844936, 0, 0, 0, 0, -0.03, 0.01, 0, 0, 0, 0, 0
NKF4, 65844936, 0, 0, 0, 0, 0, 9.518688E-07, 0, 0, 0, 19, 229, 0, 0
NKF5, 65844936, 0, 0, 0, 0, 0.18, 0.13, 0, 0.19, 0.5, 3.933287E-05, 0.001727651, 0.003500986
NKQ1, 65844936, 0.6689077, -0.00266006, 0.005861612, 0.7433177
AHR2, 65844980, 0.47, -0.48, 92.59, -0.65, 0, 0, 0.6908879, 0.005940777, 3.78824E-05, 0.7229375
MOTB, 65844987, 1, 1, 0, 1
RCIN, 65844991, 0, 0, 0, 0, 0, 0, 0, 0, 0, 0, 0, 0, 0, 0
RCOU, 65844998, 1101, 1101, 1101, 1101, 0, 0, 0, 0, 0, 0, 0, 0, 0, 0
VIBE, 65845006, 0.01965719, 0.01974266, 0.03439441, 0, 0, 0
CTRL, 65845013, 0.004384781, 0.0001687317, 0.004806063, 0.0001839824, 0.0002042017
PRX, 65845046, 2, 0.61, 0, 0.55, 0, 1.53, 0, 2.4, 0, 0, 90, 0.55
IMU, 65845053, -0.0003108713, -0.0008848223, -0.001079281, 0.1050959, -0.04680771, -9.740297, 0, 0, 39.28928, 1, 1, 1000, 1000
IMU, 65884929, 0.0007479598, -9.76764E-05, -0.001586228, 0.107131, -0.06141121, -9.749019, 0, 0, 39.29063, 1, 1, 1000, 1000
RFND, 65892330, 0.2, 25, 0, 0
IMU, 65924957, -0.0002804173, -0.001224005, -0.0008774591, 0.1083703, -0.0551183, -9.731157, 0, 0, 39.29289, 1, 1, 1000, 1000
MAG, 65932481, 265, 657, 179, 0, 0, 0, 0, 0, 0, 1, 65932472
BARO, 65932539, -0.6329612, 988.1735, 38.15, -0.3037648, 65932, 0, 35
CTUN, 65932552, 0, 0, 0, 0.3178602, 0.05133559, 0.05133559, -0.63, 0, 0.19, 0, 0, -1
RFND, 65942415, 0.2, 25, 0, 0
ATT, 65944945, 0, 0.41, 0, -0.45, 96.02, 96.03, 0, 1
RATE, 65944955, -1.847737, -0.05296499, -0.004058389, 2.04239, -0.05867046, 0.005010727, -0.01007824, 0.08923805, -0.0001226494, 461.5872, -2.363014, 0
NKF1, 65944962, 0.41, -0.45, 96.03, 0.009195273, -0.02736164, 0.01139722, 0, 0, 0, -0.05130456, 0.01, -0.02, -0.06
NKF2, 65944962, 5, 0, 0, 0, 0, 0, 0, 0, 0, 0, 0, 0, 0
NKF3, 65944962, 0, 0, 0, 0.01, -0.03, 0.01, 0, 0, 0, 0, 0
NKF4, 65944962, 0, 0, 0, 0, 0, 8.639677E-07, 0, 0, 0, 19, 229, 0, 0
NKF5, 65944962, 0, 0, 0, 0, 0.18, 0.13, 0, 0.19, 0.5, 3.786582E-05, 0.001614596, 0.003227579
NKQ1, 65944962, 0.6688815, -0.002659565, 0.00583765, 0.7433414
AHR2, 65945007, 0.47, -0.49, 92.59, -0.63, 0, 0, 0.6909057, 0.00594947, 6.244824E-06, 0.7229205
MOTB, 65945015, 1, 1, 0, 1
RCIN, 65945019, 0, 0, 0, 0, 0, 0, 0, 0, 0, 0, 0, 0, 0, 0
RCOU, 65945025, 1101, 1101, 1101, 1101, 0, 0, 0, 0, 0, 0, 0, 0, 0, 0
VIBE, 65945034, 0.01887392, 0.01965645, 0.03326355, 0, 0, 0
CTRL, 65945040, 0.004368146, 0.0001528059, 0.004814557, 0.000170764, 0.0001827305
PRX, 65945073, 2, 0.61, 0, 0.55, 0, 2.97, 0, 2.4, 0, 0, 90, 0.55
IMU, 65964917, -0.0009090065, -0.0008352958, 0.0003420534, 0.1075688, -0.0528014, -9.727852, 0, 0, 39.29506, 1, 1, 1000, 1000
RFND, 65992473, 0.2, 25, 0, 0
IMU, 66004942, -0.0003960133, -0.0001851667, -0.0006999684, 0.1084273, -0.06537397, -9.763498, 0, 0, 39.29659, 1, 1, 1000, 1000
MAG, 66032392, 268, 659, 175, 0, 0, 0, 0, 0, 0, 1, 66032384
BARO, 66032462, -0.6838241, 988.1791, 38.15, -0.1819057, 66032, 0, 35
CTUN, 66032478, 0, 0, 0, 0.3178602, 0.05118514, 0.05118514, -0.68, 0, 0.19, 0, 0, -1
DU32, 66032516, 7, 50357752
RFND, 66042376, 0.2, 25, 0, 0
ATT, 66044932, 0, 0.4, 0, -0.45, 96.03, 96.04, 0, 1
RATE, 66044942, -1.832989, 0.005666942, -0.004283467, 2.036258, 0.01308024, 0.004822332, -0.008572048, 0.1041244, -0.0001709226, 445.1567, -0.3185272, 0
NKF1, 66044950, 0.4, -0.45, 96.04, 0.009932126, -0.02809869, 0.01099152, 0, 0, 0, -0.05113227, 0.01, -0.02, -0.06
NKF2, 66044950, 5, 0, 0, 0, 0, 0, 0, 0, 0, 0, 0, 0, 0
NKF3, 66044950, 0, 0, 0, 0.01, -0.03, 0.01, 0, 0, 0, 0, 0
NKF4, 66044950, 0, 0, 0, 0, 0, 8.161227E-07, 0, 0, 0, 19, 229, 0, 0
NKF5, 66044950, 0, 0, 0, 0, 0.18, 0.13, 0, 0.19, 0.5, 3.717792E-05, 0.001611313, 0.003279514
NKQ1, 66044950, 0.6688467, -0.00268693, 0.005824518, 0.7433727
AHR2, 66044994, 0.46, -0.49, 92.59, -0.68, 0, 0, 0.6909149, 0.005928162, -1.090226E-05, 0.7229119
MOTB, 66045002, 1, 1, 0, 1
RCIN, 66045006, 0, 0, 0, 0, 0, 0, 0, 0, 0, 0, 0, 0, 0, 0
RCOU, 66045012, 1101, 1101, 1101, 1101, 0, 0, 0, 0, 0, 0, 0, 0, 0, 0
VIBE, 66045021, 0.02216653, 0.022072, 0.03553589, 0, 0, 0
CTRL, 66045027, 0.004326516, 0.0001526383, 0.004808007, 0.0001537637, 0.0001779797
PRX, 66045058, 2, 0.61, 0, 0.55, 0, 3.41, 0, 2.4, 0, 0, 90, 0.55
IMU, 66045066, 0.0004095268, -0.0002460726, 0.0006206256, 0.09720277, -0.06087951, -9.749264, 0, 0, 39.29868, 1, 1, 1000, 1000
IMU, 66085006, 0.0004474156, -0.0002725215, -0.0006379262, 0.09728669, -0.05376389, -9.770285, 0, 0, 39.30045, 1, 1, 1000, 1000
RFND, 66092329, 0.2, 25, 0, 0
IMU, 66124993, 0.0003030409, -0.0008127993, 0.0009811939, 0.09858593, -0.05144693, -9.729896, 0, 0, 39.30137, 1, 1, 1000, 1000
MAG, 66132954, 264, 651, 182, 0, 0, 0, 0, 0, 0, 1, 66132945
BARO, 66133000, -0.6555669, 988.1761, 38.15, -0.08653761, 66132, 0, 35
CTUN, 66133013, 0, 0, 0, 0.3178602, 0.05140452, 0.05140452, -0.65, 0, 0.19, 0, 0, -1
RFND, 66142403, 0.2, 25, 0, 0
ATT, 66144982, 0, 0.4, 0, -0.45, 96.03, 96.04, 0, 1
RATE, 66144994, -1.839198, 0.002304675, -0.004350373, 2.024804, 0.07218516, 0.004442744, -0.01018563, 0.0340019, -0.0001785586, 414.5135, 1.690865, 0
NKF1, 66145001, 0.4, -0.45, 96.04, 0.01054275, -0.02956495, 0.0102349, 0, 0, 0, -0.05139182, 0.01, -0.02, -0.06
NKF2, 66145001, 5, 0, 0, 0, 0, 0, 0, 0, 0, 0, 0, 0, 0
NKF3, 66145001, 0, 0, 0, 0.01, -0.04, 0.01, 0, 0, 0, 0, 0
NKF4, 66145001, 0, 0, 0, 0, 0, 8.495322E-07, 0, 0, 0, 19, 229, 0, 0
NKF5, 66145001, 0, 0, 0, 0, 0.18, 0.13, 0, 0.19, 0.5, 3.569121E-05, 0.001482709, 0.002958806
NKQ1, 66145001, 0.6688155, -0.002695082, 0.005846769, 0.7434006
AHR2, 66145106, 0.46, -0.49, 92.58, -0.65, 0, 0, 0.6909287, 0.005926841, 7.446632E-06, 0.7228987
MOTB, 66145114, 1, 1, 0, 1
RCIN, 66145118, 0, 0, 0, 0, 0, 0, 0, 0, 0, 0, 0, 0, 0, 0
RCOU, 66145124, 1101, 1101, 1101, 1101, 0, 0, 0, 0, 0, 0, 0, 0, 0, 0
VIBE, 66145132, 0.02232967, 0.02041092, 0.03756863, 0, 0, 0
CTRL, 66145139, 0.004337142, 0.0001347718, 0.004789527, 0.0001568975, 0.0001780875
PRX, 66145170, 2, 0.61, 0, 0.55, 0, 3.58, 0, 2.4, 0, 0, 90, 0.55
IMU, 66164937, 0.0004817822, -0.0003353296, -0.000886459, 0.1028214, -0.0460244, -9.746891, 0, 0, 39.30164, 1, 1, 1000, 1000
RFND, 66192314, 0.2, 25, 0, 0
IMU, 66204937, 0.001934011, -0.0008595832, -0.001142513, 0.105558, -0.04975461, -9.738125, 0, 0, 39.30157, 1, 1, 1000, 1000
MAG, 66232398, 263, 650, 179, 0, 0, 0, 0, 0, 0, 1, 66232390
BARO, 66232470, -0.6103554, 988.1711, 38.15, -0.05828045, 66232, 0, 35
CTUN, 66232483, 0, 0, 0, 0.3178602, 0.05139928, 0.05139928, -0.61, 0, 0.19, 0, 0, -1
RFND, 66242307, 0.2, 25, 0, 0
ATT, 66244925, 0, 0.41, 0, -0.44, 96.04, 96.05, 0, 1
RATE, 66244935, -1.847937, -0.01085326, -0.00431689, 2.022727, 0.02269172, 0.004574375, -0.007680687, 0.07605553, -0.0002219925, 422.3249, -0.9427071, 0
NKF1, 66244943, 0.41, -0.44, 96.05, 0.01037138, -0.03063503, 0.01042778, 0, 0, 0, -0.05141386, 0.01, -0.02, -0.06
NKF2, 66244943, 5, 0, 0, 0, 0, 0, 0, 0, 0, 0, 0, 0, 0
NKF3, 66244943, 0, 0, 0, 0.01, -0.04, 0.01, 0, 0, 0, 0, 0
NKF4, 66244943, 0, 0, 0, 0, 0, 8.900105E-07, 0, 0, 0, 19, 229, 0, 0
NKF5, 66244943, 0, 0, 0, 0, 0.18, 0.13, 0, 0.19, 0.5, 3.447789E-05, 0.001413021, 0.002851115
NKQ1, 66244943, 0.6687735, -0.002687878, 0.005862774, 0.7434382
AHR2, 66244987, 0.47, -0.49, 92.58, -0.61, 0, 0, 0.6909316, 0.005942561, 1.81144E-05, 0.7228957
MOTB, 66244993, 1, 1, 0, 1
RCIN, 66244997, 0, 0, 0, 0, 0, 0, 0, 0, 0, 0, 0, 0, 0, 0
RCOU, 66245004, 1101, 1101, 1101, 1101, 0, 0, 0, 0, 0, 0, 0, 0, 0, 0
VIBE, 66245012, 0.0220651, 0.02468532, 0.03507823, 0, 0, 0
CTRL, 66245019, 0.004352035, 0.0001569079, 0.004783488, 0.0001412672, 0.0001897772
PRX, 66245050, 2, 0.61, 0, 0.55, 0, 1.53, 0, 2.4, 0, 0, 90, 0.55
IMU, 66245058, 0.0001212514, -7.837753E-05, 0.0001304829, 0.1014522, -0.0646297, -9.742909, 0, 0, 39.30278, 1, 1, 1000, 1000
IMU, 66284927, 0.0006975732, 0.000237222, -0.000419567, 0.1056547, -0.05514492, -9.740447, 0, 0, 39.30378, 1, 1, 1000, 1000
RFND, 66292316, 0.2, 25, 0, 0
IMU, 66324880, 0.0002420697, -0.0007500421, -0.0002837573, 0.1097532, -0.05529287, -9.758439, 0, 0, 39.30454, 1, 1, 1000, 1000
MAG, 66332318, 265, 654, 180, 0, 0, 0, 0, 0, 0, 1, 66332259
BARO, 66332362, -0.6273097, 988.1728, 38.15, 0.024725, 66332, 0, 35
CTUN, 66332375, 0, 0, 0, 0.3178602, 0.05165505, 0.05165505, -0.62, 0, 0.19, 0, 0, -1
RFND, 66342283, 0.2, 25, 0, 0
ATT, 66344875, 0, 0.41, 0, -0.44, 96.05, 96.06, 0, 1
RATE, 66344885, -1.844926, -0.0331183, -0.004244631, 2.023513, -0.04323145, 0.004948332, -0.008187819, 0.1257231, -0.0002617531, 402.1171, -0.5339622, 0
NKF1, 66344892, 0.41, -0.44, 96.06, 0.01085377, -0.03145809, 0.009928816, 0, 0, 0, -0.05162909, 0.01, -0.02, -0.06
NKF2, 66344892, 5, 0, 0, 0, 0, 0, 0, 0, 0, 0, 0, 0, 0
NKF3, 66344892, 0, 0, 0, 0.01, -0.04, 0.01, 0, 0, 0, 0, 0
NKF4, 66344892, 0, 0, 0, 0, 0, 9.841245E-07, 0, 0, 0, 19, 229, 0, 0
NKF5, 66344892, 0, 0, 0, 0, 0.18, 0.13, 0, 0.19, 0.5, 3.442424E-05, 0.001355593, 0.002691384
NKQ1, 66344892, 0.668724, -0.002690344, 0.005858262, 0.7434828
AHR2, 66344936, 0.47, -0.49, 92.58, -0.62, 0, 0, 0.6909268, 0.005948604, 8.323144E-06, 0.7229002
MOTB, 66344944, 1, 1, 0, 1
RCIN, 66344948, 0, 0, 0, 0, 0, 0, 0, 0, 0, 0, 0, 0, 0, 0
RCOU, 66344954, 1101, 1101, 1101, 1101, 0, 0, 0, 0, 0, 0, 0, 0, 0, 0
VIBE, 66344963, 0.02026963, 0.02142203, 0.03592407, 0, 0, 0
CTRL, 66344970, 0.004348641, 0.0001538745, 0.004773598, 0.000133478, 0.0002006813
PRX, 66345002, 2, 0.61, 0, 0.55, 0, 1.53, 0, 2.39, 0, 0, 90, 0.55
IMU, 66364927, 0.0003012068, -0.0002864239, 0.0004534093, 0.108253, -0.0485757, -9.759061, 0, 0, 39.30641, 1, 1, 1000, 1000
RFND, 66392354, 0.2, 25, 0, 0
IMU, 66404933, 0.0005035648, -0.0006860087, 0.0007202688, 0.09937461, -0.0521658, -9.739674, 0, 0, 39.30735, 1, 1, 1000, 1000
MAG, 66432872, 264, 650, 181, 0, 0, 0, 0, 0, 0, 1, 66432861
BARO, 66432921, -0.6555669, 988.1761, 38.15, 0.1218591, 66432, 0, 35
CTUN, 66432937, 0, 0, 0, 0.3178602, 0.05177892, 0.05177892, -0.65, 0, 0.19, 0, 0, -1
RFND, 66442369, 0.2, 25, 0, 0
ATT, 66444936, 0, 0.41, 0, -0.44, 96.06, 96.06, 0, 1
RATE, 66444945, -1.846339, -0.04013935, -0.004117026, 2.016344, 0.01195566, 0.004681273, -0.006143827, 0.04396595, -0.0002270698, 411.0547, -1.523876, 0
NKF1, 66444953, 0.41, -0.44, 96.06, 0.01142301, -0.03284372, 0.0101495, 0, 0, 0, -0.05177614, 0.01, -0.02, -0.06
NKF2, 66444953, 5, 0, 0, 0, 0, 0, 0, 0, 0, 0, 0, 0, 0
NKF3, 66444953, 0, 0, 0, 0.01, -0.05, 0.01, 0, 0, 0, 0, 0
NKF4, 66444953, 0, 0, 0, 0, 0, 1.08726E-06, 0, 0, 0, 19, 229, 0, 0
NKF5, 66444953, 0, 0, 0, 0, 0.18, 0.13, 0, 0.19, 0.5, 3.306024E-05, 0.001257139, 0.002491894
NKQ1, 66444953, 0.6686822, -0.002701286, 0.005867745, 0.7435203
AHR2, 66444997, 0.47, -0.49, 92.58, -0.65, 0, 0, 0.6909299, 0.005944471, 1.356486E-05, 0.7228974
MOTB, 66445004, 1, 1, 0, 1
RCIN, 66445008, 0, 0, 0, 0, 0, 0, 0, 0, 0, 0, 0, 0, 0, 0
RCOU, 66445014, 1101, 1101, 1101, 1101, 0, 0, 0, 0, 0, 0, 0, 0, 0, 0
VIBE, 66445023, 0.02134474, 0.02256733, 0.03812782, 0, 0, 0
CTRL, 66445030, 0.004347329, 0.0001370386, 0.004762653, 0.0001338444, 0.0002313367
PRX, 66445061, 2, 0.61, 0, 0.55, 0, 2.97, 0, 2.4, 0, 0, 90, 0.55
IMU, 66445068, -0.0003897928, -0.0002658816, -0.0004299717, 0.1113313, -0.04830411, -9.737032, 0, 0, 39.30709, 1, 1, 1000, 1000
IMU, 66484890, -0.0004724216, -0.000844028, -0.0008899008, 0.1101396, -0.05963599, -9.725559, 0, 0, 39.30598, 1, 1, 1000, 1000
RFND, 66492374, 0.2, 25, 0, 0
IMU, 66524959, -7.150699E-05, -0.0001586165, -0.001148893, 0.1047778, -0.06366082, -9.758901, 0, 0, 39.30617, 1, 1, 1000, 1000
MAG, 66532739, 261, 649, 180, 0, 0, 0, 0, 0, 0, 1, 66532731
BARO, 66532785, -0.5877497, 988.1685, 38.15, 0.09360194, 66532, 0, 35
CTUN, 66532798, 0, 0, 0, 0.3178602, 0.0519073, 0.0519073, -0.58, 0, 0.19, 0, 0, -1
RFND, 66542337, 0.2, 25, 0, 0
ATT, 66544958, 0, 0.4, 0, -0.44, 96.06, 96.07, 0, 1
RATE, 66544967, -1.837211, 0.03746078, -0.004518777, 2.012882, 0.0234929, 0.004619673, -0.005375355, 0.05165346, -0.0001451244, 449.4326, -1.899815, 0
NKF1, 66544975, 0.4, -0.44, 96.07, 0.01284465, -0.03423322, 0.0110971, 0, 0, 0, -0.05184812, 0.01, -0.02, -0.06
NKF2, 66544975, 5, 0, 0, 0, 0, 0, 0, 0, 0, 0, 0, 0, 0
NKF3, 66544975, 0, 0, 0, 0.01, -0.05, 0.01, 0, 0, 0, 0, 0
NKF4, 66544975, 0, 0, 0, 0, 0, 1.215354E-06, 0, 0, 0, 19, 229, 0, 0
NKF5, 66544975, 0, 0, 0, 0, 0.18, 0.13, 0, 0.19, 0.5, 3.341618E-05, 0.001243305, 0.002444733
NKQ1, 66544975, 0.6686638, -0.002716679, 0.005859172, 0.7435369
AHR2, 66545020, 0.46, -0.49, 92.58, -0.58, 0, 0, 0.6909554, 0.005934331, 1.022027E-06, 0.7228731
MOTB, 66545027, 1, 1, 0, 1
RCIN, 66545031, 0, 0, 0, 0, 0, 0, 0, 0, 0, 0, 0, 0, 0, 0
RCOU, 66545037, 1101, 1101, 1101, 1101, 0, 0, 0, 0, 0, 0, 0, 0, 0, 0
VIBE, 66545046, 0.02032219, 0.02171368, 0.03953874, 0, 0, 0
CTRL, 66545053, 0.004325551, 0.000131054, 0.004757582, 0.0001348323, 0.0002131992
PRX, 66545084, 2, 0.61, 0, 0.55, 0, 3.54, 0, 2.4, 0, 0, 90, 0.55
IMU, 66564900, 0.0003575863, -0.001776503, -0.0005700001, 0.1118418, -0.05826083, -9.741674, 0, 0, 39.30549, 1, 1, 1000, 1000
RFND, 66592301, 0.2, 25, 0, 0
IMU, 66604882, -0.0005834657, -0.0006226906, -0.0009082726, 0.1061647, -0.05487686, -9.749706, 0, 0, 39.30395, 1, 1, 1000, 1000
MAG, 66632311, 267, 646, 183, 0, 0, 0, 0, 0, 0, 1, 66632302
BARO, 66632355, -0.5934011, 988.1692, 38.14, 0.04238583, 66632, 0, 35
CTUN, 66632368, 0, 0, 0, 0.3178602, 0.05196558, 0.05196558, -0.59, 0, 0.19, 0, 0, -1
RFND, 66642290, 0.2, 25, 0, 0
ATT, 66644892, 0, 0.4, 0, -0.44, 96.06, 96.07, 0, 1
RATE, 66644900, -1.844191, 0.01451784, -0.004176682, 2.010442, -0.02501999, 0.00493329, -0.007511523, 0.01647183, -8.117509E-05, 425.6605, 0.2173424, 0
NKF1, 66644908, 0.4, -0.44, 96.07, 0.01346007, -0.03505129, 0.01051014, 0, 0, 0, -0.05195684, 0.01, -0.02, -0.06
NKF2, 66644908, 5, 0, 0, 0, 0, 0, 0, 0, 0, 0, 0, 0, 0
NKF3, 66644908, 0, 0, 0, 0.01, -0.05, 0.01, 0, 0, 0, 0, 0
NKF4, 66644908, 0, 0, 0, 0, 0, 1.371829E-06, 0, 0, 0, 19, 229, 0, 0
NKF5, 66644908, 0, 0, 0, 0, 0.18, 0.13, 0, 0.19, 0.5, 3.213749E-05, 0.001117671, 0.002157824
NKQ1, 66644908, 0.6686534, -0.002710602, 0.005871651, 0.7435462
AHR2, 66644952, 0.47, -0.49, 92.57, -0.59, 0, 0, 0.6909889, 0.00594927, 9.870695E-06, 0.722841
MOTB, 66644960, 1, 1, 0, 1
RCIN, 66644964, 0, 0, 0, 0, 0, 0, 0, 0, 0, 0, 0, 0, 0, 0
RCOU, 66644970, 1101, 1101, 1101, 1101, 0, 0, 0, 0, 0, 0, 0, 0, 0, 0
VIBE, 66644978, 0.02041706, 0.02058022, 0.04107596, 0, 0, 0
CTRL, 66644985, 0.004348961, 0.0001556372, 0.00475011, 0.0001580433, 0.0001846539
PRX, 66645017, 2, 0.61, 0, 0.55, 0, 3.58, 0, 2.4, 0, 0, 90, 0.55
IMU, 66645024, 0.000564848, -0.0009122613, -0.0009125298, 0.1059931, -0.05716606, -9.754328, 0, 0, 39.30248, 1, 1, 1000, 1000
IMU, 66684824, -0.0001727066, -0.001023478, 0.0005197509, 0.1051323, -0.06414805, -9.774254, 0, 0, 39.3009, 1, 1, 1000, 1000
RFND, 66692303, 0.2, 25, 0, 0
IMU, 66724824, -0.001269796, -0.0005397211, -0.001010357, 0.1065009, -0.05642755, -9.753884, 0, 0, 39.29856, 1, 1, 1000, 1000
MAG, 66732391, 259, 645, 178, 0, 0, 0, 0, 0, 0, 1, 66732321
BARO, 66732460, -0.6273097, 988.1725, 38.14, 0.09183595, 66732, 0, 35
CTUN, 66732475, 0, 0, 0, 0.3178602, 0.05204185, 0.05204185, -0.62, 0, 0.19, 0, 0, -1
RFND, 66742344, 0.2, 25, 0, 0
ATT, 66744918, 0, 0.4, 0, -0.44, 96.07, 96.07, 0, 1
RATE, 66744929, -1.828494, -0.03351842, -0.004460166, 2.005053, 0.03118819, 0.004545962, -0.009816562, 0.1111295, -0.0001504227, 397.5607, -0.5464554, 0
NKF1, 66744936, 0.4, -0.44, 96.07, 0.01431932, -0.03619462, 0.009816314, 0, 0, 0, -0.05199962, 0.01, -0.02, -0.06
NKF2, 66744936, 5, 0, 0, 0, 0, 0, 0, 0, 0, 0, 0, 0, 0
NKF3, 66744936, 0, 0, 0, 0.01, -0.05, 0.01, 0, 0, 0, 0, 0
NKF4, 66744936, 0, 0, 0, 0, 0, 1.52172E-06, 0, 0, 0, 19, 229, 0, 0
NKF5, 66744936, 0, 0, 0, 0, 0.18, 0.13, 0, 0.19, 0.5, 3.274041E-05, 0.001145571, 0.002236983
NKQ1, 66744936, 0.6686162, -0.002740935, 0.005857783, 0.7435797
AHR2, 66744981, 0.46, -0.49, 92.57, -0.62, 0, 0, 0.6909961, 0.005928589, -5.794517E-06, 0.7228343
MOTB, 66744989, 1, 1, 0, 1
RCIN, 66744994, 0, 0, 0, 0, 0, 0, 0, 0, 0, 0, 0, 0, 0, 0
RCOU, 66744999, 1101, 1101, 1101, 1101, 0, 0, 0, 0, 0, 0, 0, 0, 0, 0
VIBE, 66745008, 0.02023551, 0.01964405, 0.04070584, 0, 0, 0
CTRL, 66745014, 0.004310188, 0.0001639609, 0.004738512, 0.0001420383, 0.0001673241
PRX, 66745046, 2, 0.61, 0, 0.55, 0, 3.59, 0, 2.4, 0, 0, 90, 0.55
IMU, 66765002, 0.0005389535, 0.0002695347, 3.569687E-05, 0.09768064, -0.05425536, -9.746597, 0, 0, 39.29515, 1, 1, 1000, 1000
RFND, 66792314, 0.2, 25, 0, 0
EV, 66799681, 57
IMU, 66804919, 0.001124393, 0.0001188202, -0.0002750844, 0.1007268, -0.06022914, -9.775333, 0, 0, 39.29147, 1, 1, 1000, 1000
MAG, 66832587, 270, 654, 180, 0, 0, 0, 0, 0, 0, 1, 66832579
BARO, 66832689, -0.6725212, 988.1776, 38.14, 0.07770734, 66832, 0, 35
CTUN, 66832704, 0, 0, 0, 0.3178602, 0.05233501, 0.05233501, -0.67, 0, 0.19, 0, 0, 0
RFND, 66842301, 0.2, 25, 0, 0
ATT, 66845068, 0, 0.4, 0, -0.44, 96.07, 96.08, 0, 1
RATE, 66845078, -1.833832, 0.01526273, -0.004387272, 1.996217, -0.0248214, 0.004819843, -0.007280817, 0.01168028, -0.0001493345, 372.3161, -0.08153915, 0
NKF1, 66845086, 0.4, -0.44, 96.08, 0.01483301, -0.03709707, 0.00919299, 0, 0, 0, -0.05232874, 0.01, -0.02, -0.06
NKF2, 66845086, 5, 0, 0, 0, 0, 0, 0, 0, 0, 0, 0, 0, 0
NKF3, 66845086, 0, 0, 0, 0.01, -0.06, 0.01, 0, 0, 0, 0, 0
NKF4, 66845086, 0, 0, 0, 0, 0, 1.733481E-06, 0, 0, 0, 19, 229, 0, 0
NKF5, 66845086, 0, 0, 0, 0, 0.18, 0.13, 0, 0.19, 0.5, 3.132771E-05, 0.001000955, 0.001870542
NKQ1, 66845086, 0.668588, -0.002746374, 0.005874807, 0.7436048
AHR2, 66845131, 0.47, -0.49, 92.57, -0.67, 0, 0, 0.6910129, 0.00593286, 8.006731E-06, 0.7228181
MOTB, 66845138, 1, 1, 0, 1
RCIN, 66845143, 0, 0, 0, 0, 0, 0, 0, 0, 0, 0, 0, 0, 0, 0
RCOU, 66845149, 1111, 1111, 1111, 1111, 0, 0, 0, 0, 0, 0, 0, 0, 0, 0
VIBE, 66845158, 0.02176165, 0.02136872, 0.03828534, 0, 0, 0
CTRL, 66845164, 0.004318663, 0.000166909, 0.004717295, 0.000127992, 0.000173408
PRX, 66845197, 2, 0.61, 0, 0.55, 0, 3.59, 0, 2.39, 0, 0, 90, 0.55
IMU, 66845205, 0.0005778888, -0.0009088266, -0.0009963443, 0.121751, -0.05544005, -9.751138, 0, 0, 39.2886, 1, 1, 1000, 1000
IMU, 66884802, 0.0008164719, -0.0014201, -0.001318759, 0.1131976, -0.06281192, -9.740499, 0, 0, 39.28645, 1, 1, 1000, 1000
RFND, 66892872, 0.2, 25, 0, 0
IMU, 66924823, 0.0003827304, -0.00037249, -0.0002007727, 0.1091052, -0.04423962, -9.748626, 0, 0, 39.28436, 1, 1, 1000, 1000
MAG, 66932468, 266, 651, 179, 0, 0, 0, 0, 0, 0, 1, 66932431
BARO, 66932513, -0.6668698, 988.1771, 38.14, -0.09536803, 66932, 0, 35
CTUN, 66932526, 0, 0, 0, 0.3178602, 0.05239351, 0.05239351, -0.66, 0, 0.19, 0, 0, 0
RFND, 66942292, 0.2, 25, 0, 0
ATT, 66944837, 0, 0.4, 0, -0.44, 96.07, 96.08, 0, 1
RATE, 66944845, -1.836014, -0.02874928, -0.004137618, 1.996199, -0.01778056, 0.004871251, -0.007219361, 0.06544004, -0.0001589641, 388.2843, -1.733589, 0
NKF1, 66944853, 0.4, -0.44, 96.08, 0.01541797, -0.03792105, 0.009587266, 0, 0, 0, -0.05242324, 0.01, -0.02, -0.06
NKF2, 66944853, 5, 0, 0, 0, 0, 0, 0, 0, 0, 0, 0, 0, 0
NKF3, 66944853, 0, 0, 0, 0.02, -0.06, 0.01, 0, 0, 0, 0, 0
NKF4, 66944853, 0, 0, 0, 0, 0, 1.900751E-06, 0, 0, 0, 19, 229, 0, 0
NKF5, 66944853, 0, 0, 0, 0, 0.18, 0.13, 0, 0.19, 0.5, 2.965397E-05, 0.0009157332, 0.0017626
NKQ1, 66944853, 0.6685665, -0.002743235, 0.005879, 0.7436241
AHR2, 66944895, 0.47, -0.49, 92.57, -0.66, 0, 0, 0.6910357, 0.005944644, 8.404718E-06, 0.7227961
MOTB, 66944903, 1, 1, 0, 1
RCIN, 66944907, 0, 0, 0, 0, 0, 0, 0, 0, 0, 0, 0, 0, 0, 0
RCOU, 66944913, 1135, 1135, 1135, 1135, 0, 0, 0, 0, 0, 0, 0, 0, 0, 0
VIBE, 66944921, 0.01866245, 0.02269175, 0.03859808, 0, 0, 0
CTRL, 66944928, 0.004325078, 0.0001487025, 0.004710886, 0.0001401626, 0.0001597787
PRX, 66944959, 2, 0.61, 0, 0.55, 0, 3.59, 0, 2.39, 0, 0, 90, 0.55
IMU, 66964795, 6.350775E-05, -0.0004372829, -0.001179477, 0.1172529, -0.05340068, -9.758147, 0, 0, 39.28301, 1, 1, 1000, 1000
RFND, 66992262, 0.2, 25, 0, 0
IMU, 67004881, 0.001423954, 0.0001036611, 0.0001869853, 0.1088157, -0.05196689, -9.751997, 0, 0, 39.2822, 1, 1, 1000, 1000
PM, 67030082, 122, 4000, 26249, 10, 0, 0, 27, 262144
MAG, 67032462, 262, 651, 173, 0, 0, 0, 0, 0, 0, 1, 67032426
BARO, 67032521, -0.6386126, 988.1738, 38.14, -0.2172272, 67032, 0, 35
CTUN, 67032534, 0, 0, 0, 0.3178602, 0.05275352, 0.05275352, -0.63, 0, 0.19, 0, 0, 0
DU32, 67032554, 7, 33580536
RFND, 67042236, 0.2, 25, 0, 0
ATT, 67045205, 0, 0.41, 0, -0.43, 96.08, 96.09, 0, 1
RATE, 67045214, -1.846323, 0.03443933, -0.004599277, 1.978699, 0.02034052, 0.004692286, -0.007142437, -0.01132439, -0.0002214302, 379.2938, -0.2026558, 0
NKF1, 67045221, 0.41, -0.43, 96.09, 0.01566918, -0.03868387, 0.009365278, 0, 0, 0, -0.05273874, 0.01, -0.02, -0.06
NKF2, 67045221, 5, 0, 0, 0, 0, 0, 0, 0, 0, 0, 0, 0, 0
NKF3, 67045221, 0, 0, 0, 0.02, -0.06, 0.01, 0, 0, 0, 0, 0
NKF4, 67045221, 0, 0, 0, 0, 0, 2.162482E-06, 0, 0, 0, 19, 229, 0, 0
NKF5, 67045221, 0, 0, 0, 0, 0.18, 0.13, 0, 0.19, 0.5, 3.050337E-05, 0.0009050182, 0.001644662
NKQ1, 67045221, 0.6685357, -0.002756052, 0.005914866, 0.7436514
AHR2, 67045265, 0.47, -0.48, 92.56, -0.63, 0, 0, 0.6910497, 0.005937818, 4.162281E-05, 0.7227829
MOTB, 67045272, 1, 1, 0, 1
RCIN, 67045276, 0, 0, 0, 0, 0, 0, 0, 0, 0, 0, 0, 0, 0, 0
RCOU, 67045282, 1159, 1159, 1159, 1159, 0, 0, 0, 0, 0, 0, 0, 0, 0, 0
VIBE, 67045291, 0.01853874, 0.02153444, 0.04110071, 0, 0, 0
CTRL, 67045297, 0.004341663, 0.0001551539, 0.004674968, 0.0001565328, 0.0001671913
PRX, 67045328, 2, 0.61, 0, 0.55, 0, 3.59, 0, 2.39, 0, 0, 90, 0.55
IMU, 67045336, 0.0009120692, -0.0001197815, -0.001395908, 0.1073201, -0.05661918, -9.750166, 0, 0, 39.28207, 1, 1, 1000, 1000
IMU, 67085098, 0.001342779, -2.118866E-05, 0.000846498, 0.1084924, -0.06407241, -9.770837, 0, 0, 39.28192, 1, 1, 1000, 1000
RFND, 67092312, 0.2, 25, 0, 0
IMU, 67124930, -0.0001947529, -2.456128E-05, -0.0007546562, 0.10951, -0.05332618, -9.749577, 0, 0, 39.28164, 1, 1, 1000, 1000
MAG, 67132355, 264, 655, 177, 0, 0, 0, 0, 0, 0, 1, 67132347
BARO, 67132402, -0.5934011, 988.1688, 38.14, -0.1200931, 67132, 0, 35
CTUN, 67132414, 0, 0, 0, 0.3178602, 0.05289895, 0.05289895, -0.59, 0, 0.19, 0, 0, 0
RFND, 67142344, 0.2, 25, 0, 0
ATT, 67144959, 0, 0.41, 0, -0.43, 96.09, 96.09, 0, 1
RATE, 67144970, -1.855791, 0.03864129, -0.004685175, 1.977862, -0.05103215, 0.00489999, -0.007188595, 0.1071535, -0.0002095081, 333.2966, 0.2833366, 0
NKF1, 67144978, 0.41, -0.43, 96.09, 0.01633448, -0.03948867, 0.008229545, 0, 0, 0, -0.05293734, 0.01, -0.02, -0.06
NKF2, 67144978, 5, 0, 0, 0, 0, 0, 0, 0, 0, 0, 0, 0, 0
NKF3, 67144978, 0, 0, 0, 0.02, -0.07, 0.01, 0, 0, 0, 0, 0
NKF4, 67144978, 0, 0, 0, 0, 0, 2.391921E-06, 0, 0, 0, 19, 229, 0, 0
NKF5, 67144978, 0, 0, 0, 0, 0.18, 0.13, 0, 0.19, 0.5, 2.855495E-05, 0.0007673944, 0.001361333
NKQ1, 67144978, 0.6684884, -0.002744185, 0.005931869, 0.7436939
AHR2, 67145023, 0.47, -0.48, 92.56, -0.59, 0, 0, 0.691047, 0.005953114, 5.569059E-05, 0.7227854
MOTB, 67145030, 1, 1, 0, 1
RCIN, 67145035, 0, 0, 0, 0, 0, 0, 0, 0, 0, 0, 0, 0, 0, 0
RCOU, 67145040, 1183, 1183, 1183, 1183, 0, 0, 0, 0, 0, 0, 0, 0, 0, 0
VIBE, 67145050, 0.02046245, 0.02031433, 0.03802843, 0, 0, 0
CTRL, 67145056, 0.004365243, 0.0001476046, 0.00467106, 0.0001540222, 0.0001789495
PRX, 67145087, 2, 0.61, 0, 0.55, 0, 3.59, 0, 2.4, 0, 0, 90, 0.55
IMU, 67164977, 0.0002997356, -0.0004207263, 0.0002863918, 0.1182691, -0.06469516, -9.756045, 0, 0, 39.28282, 1, 1, 1000, 1000
RFND, 67192370, 0.2, 25, 0, 0
IMU, 67204970, 0.001242029, 0.0001136669, 0.0002630365, 0.09513015, -0.05520982, -9.749004, 0, 0, 39.28506, 1, 1, 1000, 1000
MAG, 67232353, 265, 651, 180, 0, 0, 0, 0, 0, 0, 1, 67232345
BARO, 67232399, -0.6273097, 988.173, 38.15, 0.08477157, 67232, 0, 35
CTUN, 67232412, 0, 0, 0, 0.3178602, 0.05326407, 0.05326407, -0.62, 0, 0.19, 0, 0, 0
RFND, 67242361, 0.2, 25, 0, 0
ATT, 67244952, 0, 0.41, 0, -0.43, 96.09, 96.1, 0, 1
RATE, 67244962, -1.856801, -0.02773309, -0.004203734, 1.972905, -0.04589916, 0.005211615, -0.007111711, 0.07946494, -0.0002503319, 325.9532, -1.648235, 0
NKF1, 67244969, 0.41, -0.43, 96.1, 0.01667894, -0.04042941, 0.008048226, 0, 0, 0, -0.05326232, 0.01, -0.02, -0.06
NKF2, 67244969, 5, 0, 0, 0, 0, 0, 0, 0, 0, 0, 0, 0, 0
NKF3, 67244969, 0, 0, 0, 0.02, -0.07, 0.01, 0, 0, 0, 0, 0
NKF4, 67244969, 0, 0, 0, 0, 0, 2.673242E-06, 0, 0, 0, 19, 229, 0, 0
NKF5, 67244969, 0, 0, 0, 0, 0.18, 0.13, 0, 0.19, 0.5, 2.967138E-05, 0.0008241163, 0.001478017
NKQ1, 67244969, 0.6684415, -0.002752644, 0.005938961, 0.743736
AHR2, 67245014, 0.47, -0.48, 92.57, -0.62, 0, 0, 0.6910449, 0.005947415, 6.055629E-05, 0.7227874
MOTB, 67245021, 1, 1, 0, 1
RCIN, 67245025, 0, 0, 0, 0, 0, 0, 0, 0, 0, 0, 0, 0, 0, 0
RCOU, 67245031, 1207, 1207, 1207, 1207, 0, 0, 0, 0, 0, 0, 0, 0, 0, 0
VIBE, 67245041, 0.02322299, 0.02198278, 0.0413514, 0, 0, 0
CTRL, 67245047, 0.004372785, 0.0001550017, 0.004649606, 0.0001561209, 0.0002009569
PRX, 67245078, 2, 0.61, 0, 0.55, 0, 3.59, 0, 2.39, 0, 0, 90, 0.55
IMU, 67245086, -0.000173057, -0.001275821, 0.0001886657, 0.1045937, -0.05277182, -9.735747, 0, 0, 39.28782, 1, 1, 1000, 1000
IMU, 67284917, 0.001140745, -0.0005166507, -0.0002955007, 0.1069523, -0.05909142, -9.733743, 0, 0, 39.29136, 1, 1, 1000, 1000
RFND, 67292332, 0.2, 25, 0, 0
IMU, 67324968, -4.04383E-05, -0.0005154402, 0.0003417026, 0.1138346, -0.05405231, -9.747967, 0, 0, 39.29575, 1, 1, 1000, 1000
MAG, 67332377, 263, 648, 178, 0, 0, 0, 0, 0, 0, 1, 67332369
BARO, 67332423, -0.6216583, 988.1719, 38.15, 0.1730753, 67332, 0, 35
CTUN, 67332469, 0, 0, 0, 0.3178602, 0.0535699, 0.0535699, -0.62, 0, 0.19, 0, 0, 0
RFND, 67342372, 0.2, 25, 0, 0
ATT, 67344935, 0, 0.41, 0, -0.44, 96.1, 96.11, 0, 1
RATE, 67344946, -1.856893, -0.02439247, -0.004434548, 1.982828, -0.007722831, 0.004612719, -0.007188635, 0.05330178, -0.0002516344, 344.1051, -1.98288, 0
NKF1, 67344954, 0.41, -0.44, 96.11, 0.01719753, -0.04095094, 0.008496422, 0, 0, 0, -0.05359153, 0.01, -0.02, -0.06
NKF2, 67344954, 5, 0, 0, 0, 0, 0, 0, 0, 0, 0, 0, 0, 0
NKF3, 67344954, 0, 0, 0, 0.02, -0.08, 0.01, 0, 0, 0, 0, 0
NKF4, 67344954, 0, 0, 0, 0, 0, 2.976464E-06, 0, 0, 0, 19, 229, 0, 0
NKF5, 67344954, 0, 0, 0, 0, 0.18, 0.13, 0, 0.19, 0.5, 2.728287E-05, 0.0006477765, 0.001016981
NKQ1, 67344954, 0.6684003, -0.002737954, 0.005925566, 0.743773
AHR2, 67344997, 0.47, -0.49, 92.56, -0.62, 0, 0, 0.6910485, 0.005963816, 4.425392E-05, 0.7227838
MOTB, 67345004, 1, 1, 0, 1
RCIN, 67345008, 0, 0, 0, 0, 0, 0, 0, 0, 0, 0, 0, 0, 0, 0
RCOU, 67345015, 1236, 1221, 1229, 1229, 0, 0, 0, 0, 0, 0, 0, 0, 0, 0
VIBE, 67345024, 0.02393237, 0.02180825, 0.03646722, 0, 0, 0
CTRL, 67345031, 0.004370611, 0.0001458216, 0.004679858, 0.0001593133, 0.0002131154
PRX, 67345063, 2, 0.61, 0, 0.55, 0, 3.59, 0, 2.4, 0, 0, 90, 0.55
IMU, 67365049, 0.0003189585, 0.0003095315, -0.0004679174, 0.1104119, -0.05318514, -9.748151, 0, 0, 39.29944, 1, 1, 1000, 1000
RFND, 67392341, 0.2, 25, 0, 0
IMU, 67404913, 0.001433472, 0.0007422226, -0.0004351856, 0.1124756, -0.05937954, -9.74661, 0, 0, 39.30258, 1, 1, 1000, 1000
MAG, 67432403, 265, 651, 179, 0, 0, 0, 0, 0, 0, 1, 67432395
BARO, 67432486, -0.6273097, 988.1728, 38.15, 0.08830372, 67432, 0, 35
CTUN, 67432500, 0, 0, 0, 0.3178602, 0.05379625, 0.05379625, -0.62, 0, 0.19, 0, 0, 0
RFND, 67442370, 0.2, 25, 0, 0
ATT, 67444934, 0, 0.41, 0, -0.43, 96.11, 96.11, 0, 1
RATE, 67444945, -1.85113, -0.006803763, -0.004340418, 1.966172, 0.01545753, 0.00477733, -0.007111623, 0.0384115, -0.0002420688, 295.7615, 0.8358002, 0
NKF1, 67444952, 0.41, -0.43, 96.11, 0.01764559, -0.04165827, 0.007302754, 0, 0, 0, -0.05379967, 0.01, -0.02, -0.06
NKF2, 67444952, 5, 0, 0, 0, 0, 0, 0, 0, 0, 0, 0, 0, 0
NKF3, 67444952, 0, 0, 0, 0.02, -0.08, 0.01, 0, 0, 0, 0, 0
NKF4, 67444952, 0, 0, 0, 0, 0, 3.261558E-06, 0, 0, 0, 19, 229, 0, 0
NKF5, 67444952, 0, 0, 0, 0, 0.18, 0.13, 0, 0.19, 0.5, 2.877504E-05, 0.0007769878, 0.001414771
NKQ1, 67444952, 0.668358, -0.002770353, 0.005938362, 0.7438109
AHR2, 67444995, 0.47, -0.48, 92.56, -0.62, 0, 0, 0.6910507, 0.005934866, 5.478026E-05, 0.722782
MOTB, 67445002, 1, 1, 0, 1
RCIN, 67445007, 0, 0, 0, 0, 0, 0, 0, 0, 0, 0, 0, 0, 0, 0
RCOU, 67445013, 1236, 1221, 1229, 1229, 0, 0, 0, 0, 0, 0, 0, 0, 0, 0
VIBE, 67445022, 0.02344204, 0.01978633, 0.03660624, 0, 0, 0
CTRL, 67445028, 0.004361036, 0.0001563992, 0.004644504, 0.0001977047, 0.0002200302
PRX, 67445060, 2, 0.61, 0, 0.55, 0, 3.59, 0, 2.4, 0, 0, 90, 0.55
IMU, 67445068, 0.0001921929, -0.000204841, -0.0005277717, 0.1097176, -0.05132596, -9.760525, 0, 0, 39.30589, 1, 1, 1000, 1000
IMU, 67484976, 0.0003454179, -0.0005622171, -0.001147639, 0.09278362, -0.05230937, -9.716822, 0, 0, 39.30877, 1, 1, 1000, 1000
RFND, 67492368, 0.2, 25, 0, 0
IMU, 67524970, 0.0009905169, -0.00173747, -0.0007481648, 0.1118583, -0.05657796, -9.74562, 0, 0, 39.31108, 1, 1, 1000, 1000
MAG, 67532356, 263, 650, 178, 0, 0, 0, 0, 0, 0, 1, 67532348
BARO, 67532402, -0.5877497, 988.1683, 38.16, -0.005298294, 67532, 0, 35
CTUN, 67532415, 0, 0, 0, 0.3178602, 0.05416499, 0.05416499, -0.58, 0, 0.19, 0, 0, 0
RFND, 67542369, 0.2, 25, 0, 0
ATT, 67545007, 0, 0.41, 0, -0.43, 96.11, 96.11, 0, 1
RATE, 67545017, -1.851821, 0.01967298, -0.004315526, 1.965523, -0.00139286, 0.00442121, -0.00705015, -0.02434509, -8.842842E-05, 329.2554, -1.30949, 0
NKF1, 67545024, 0.41, -0.43, 96.11, 0.01845397, -0.04255498, 0.008129763, 0, 0, 0, -0.05417685, 0.01, -0.02, -0.06
NKF2, 67545024, 5, 0, 0, 0, 0, 0, 0, 0, 0, 0, 0, 0, 0
NKF3, 67545024, 0, 0, 0, 0.02, -0.08, 0.01, 0, 0, 0, 0, 0
NKF4, 67545024, 0, 0, 0, 0, 0, 3.635216E-06, 0, 0, 0, 19, 229, 0, 0
NKF5, 67545024, 0, 0, 0, 0, 0.18, 0.13, 0, 0.19, 0.5, 2.602259E-05, 0.0005579424, 0.0007831891
NKQ1, 67545024, 0.6683528, -0.002770669, 0.0059389, 0.7438155
AHR2, 67545070, 0.47, -0.48, 92.56, -0.58, 0, 0, 0.6910898, 0.005938298, 5.120295E-05, 0.7227445
MOTB, 67545078, 1, 1, 0, 1
RCIN, 67545082, 0, 0, 0, 0, 0, 0, 0, 0, 0, 0, 0, 0, 0, 0
RCOU, 67545088, 1236, 1221, 1229, 1228, 0, 0, 0, 0, 0, 0, 0, 0, 0, 0
VIBE, 67545097, 0.02119971, 0.02146361, 0.03738199, 0, 0, 0
CTRL, 67545104, 0.004361392, 0.0001591586, 0.004645108, 0.0001793281, 0.0001984436
PRX, 67545136, 2, 0.61, 0, 0.55, 0, 3.59, 0, 2.41, 0, 0, 90, 0.55
IMU, 67565132, -7.163051E-05, -0.001476929, 0.0002000992, 0.1144281, -0.04342593, -9.721334, 0, 0, 39.31102, 1, 1, 1000, 1000
RFND, 67592353, 0.2, 25, 0, 0
IMU, 67604965, -0.0003462347, -0.0002185873, 0.0008128577, 0.1007475, -0.06939503, -9.753481, 0, 0, 39.31133, 1, 1, 1000, 1000
MAG, 67632316, 261, 654, 183, 0, 0, 0, 0, 0, 0, 1, 67632308
BARO, 67632422, -0.6838241, 988.1788, 38.16, -0.007064324, 67632, 0, 35
CTUN, 67632460, 0, 0, 0, 0.3178602, 0.0542784, 0.0542784, -0.68, 0, 0.19, 0, 0, 0
RFND, 67642364, 0.2, 25, 0, 0
ATT, 67644968, 0, 0.41, 0, -0.43, 96.11, 96.12, 0, 1
RATE, 67644978, -1.849425, 0.007339461, -0.004270023, 1.971792, 0.02912889, 0.004092481, -0.007142397, 0.02278423, -0.0002214256, 345.4987, -0.9091377, 0
NKF1, 67644986, 0.41, -0.43, 96.12, 0.01927797, -0.04331641, 0.008530831, 0, 0, 0, -0.0542927, 0.01, -0.02, -0.06
NKF2, 67644986, 5, 0, 0, 0, 0, 0, 0, 0, 0, 0, 0, 0, 0
NKF3, 67644986, 0, 0, 0, 0.03, -0.09, 0.01, 0, 0, 0, 0, 0
NKF4, 67644986, 0, 0, 0, 0, 0, 3.947322E-06, 0, 0, 0, 19, 229, 0, 0
NKF5, 67644986, 0, 0, 0, 0, 0.18, 0.13, 0, 0.19, 0.5, 2.308838E-05, 0.0004076715, 0.0006553128
NKQ1, 67644986, 0.6683007, -0.002764171, 0.005928106, 0.7438626
AHR2, 67645029, 0.47, -0.48, 92.56, -0.68, 0, 0, 0.6910831, 0.005949444, 3.651969E-05, 0.7227508
MOTB, 67645037, 1, 1, 0, 1
RCIN, 67645041, 0, 0, 0, 0, 0, 0, 0, 0, 0, 0, 0, 0, 0, 0
RCOU, 67645048, 1235, 1221, 1228, 1229, 0, 0, 0, 0, 0, 0, 0, 0, 0, 0
VIBE, 67645057, 0.02000601, 0.02284744, 0.03739837, 0, 0, 0
CTRL, 67645063, 0.004353893, 0.0001676271, 0.004662876, 0.0002043155, 0.0001970383
PRX, 67645095, 2, 0.61, 0, 0.55, 0, 3.59, 0, 2.39, 0, 0, 90, 0.55
IMU, 67645103, 0.0004390269, 3.390849E-05, -0.000800624, 0.1182678, -0.06532302, -9.742867, 0, 0, 39.31095, 1, 1, 1000, 1000
IMU, 67684965, 0.001976067, 0.0005177431, -0.0008440386, 0.112682, -0.05432042, -9.753649, 0, 0, 39.31075, 1, 1, 1000, 1000
RFND, 67692362, 0.2, 25, 0, 0
IMU, 67724949, 0.001819347, 0.0007123529, -0.001143746, 0.1011503, -0.04970066, -9.747948, 0, 0, 39.31034, 1, 1, 1000, 1000
MAG, 67732338, 265, 653, 178, 0, 0, 0, 0, 0, 0, 1, 67732329
BARO, 67732383, -0.6499155, 988.1755, 38.16, -0.03532145, 67732, 0, 35
CTUN, 67732396, 0, 0, 0, 0.3178602, 0.05462091, 0.05462091, -0.64, 0, 0.19, 0, 0, 0
RFND, 67742338, 0.2, 25, 0, 0
ATT, 67744960, 0, 0.41, 0, -0.43, 96.12, 96.13, 0, 1
RATE, 67744971, -1.863928, -0.01436695, -0.004184243, 1.954067, 0.04958171, 0.004524203, -0.007188445, 0.05096843, -0.0001230393, 318.1557, 1.27573, 0
NKF1, 67744979, 0.41, -0.43, 96.13, 0.01946025, -0.04440996, 0.007855695, 0, 0, 0, -0.05462107, 0.01, -0.02, -0.06
NKF2, 67744979, 5, 0, 0, 0, 0, 0, 0, 0, 0, 0, 0, 0, 0
NKF3, 67744979, 0, 0, 0, 0.03, -0.09, 0.01, 0, 0, 0, 0, 0
NKF4, 67744979, 0, 0, 0, 0, 0, 4.386687E-06, 0, 0, 0, 19, 229, 0, 0
NKF5, 67744979, 0, 0, 0, 0, 0.18, 0.13, 0, 0.19, 0.5, 2.469543E-05, 0.0005166581, 0.0007476503
NKQ1, 67744979, 0.6682784, -0.002770117, 0.005972513, 0.7438822
AHR2, 67745026, 0.47, -0.48, 92.56, -0.64, 0, 0, 0.6911048, 0.005949374, 7.737396E-05, 0.7227301
MOTB, 67745033, 1, 1, 0, 1
RCIN, 67745038, 0, 0, 0, 0, 0, 0, 0, 0, 0, 0, 0, 0, 0, 0
RCOU, 67745044, 1236, 1221, 1229, 1228, 0, 0, 0, 0, 0, 0, 0, 0, 0, 0
VIBE, 67745053, 0.02300511, 0.02247396, 0.03596724, 0, 0, 0
CTRL, 67745058, 0.004387165, 0.0001739407, 0.004622705, 0.0001851641, 0.0001898401
PRX, 67745091, 2, 0.61, 0, 0.55, 0, 3.59, 0, 2.39, 0, 0, 90, 0.55
IMU, 67765535, 0.0001678037, -0.001180385, -0.0004545558, 0.09222794, -0.05646546, -9.734495, 0, 0, 39.30933, 1, 1, 1000, 1000
RFND, 67792349, 0.2, 25, 0, 0
IMU, 67804915, 0.001151521, 0.0009661391, -0.0004605243, 0.09691283, -0.04358159, -9.785839, 0, 0, 39.3086, 1, 1, 1000, 1000
MAG, 67832355, 265, 650, 180, 0, 0, 0, 0, 0, 0, 1, 67832347
BARO, 67832401, -0.604704, 988.1705, 38.16, -0.1165609, 67832, 0, 35
CTUN, 67832413, 0, 0, 0, 0.3178602, 0.05482345, 0.05482345, -0.6, 0, 0.19, 0, 0, 0
RFND, 67842371, 0.2, 25, 0, 0
ATT, 67845172, 0, 0.41, 0, -0.43, 96.12, 96.13, 0, 1
RATE, 67845183, -1.859754, -0.02313981, -0.004261444, 1.951956, -0.04048634, 0.004787361, -0.007126922, 0.03039875, -0.0001564106, 304.2486, -0.4658699, 0
NKF1, 67845190, 0.41, -0.43, 96.13, 0.01978754, -0.0460305, 0.00751231, 0, 0, 0, -0.05486401, 0.01, -0.02, -0.06
NKF2, 67845190, 5, 0, 0, 0, 0, 0, 0, 0, 0, 0, 0, 0, 0
NKF3, 67845190, 0, 0, 0, 0.03, -0.1, 0.01, 0, 0, 0, 0, 0
NKF4, 67845190, 0, 0, 0, 0, 0, 4.787105E-06, 0, 0, 0, 19, 229, 0, 0
NKF5, 67845190, 0, 0, 0, 0, 0.18, 0.13, 0, 0.19, 0.5, 2.140928E-05, 0.0002708151, 0.0002389227
NKQ1, 67845190, 0.6682514, -0.002780769, 0.005968651, 0.7439065
AHR2, 67845234, 0.47, -0.48, 92.55, -0.6, 0, 0, 0.6911218, 0.005943375, 6.962733E-05, 0.7227139
MOTB, 67845240, 1, 1, 0, 1
RCIN, 67845245, 0, 0, 0, 0, 0, 0, 0, 0, 0, 0, 0, 0, 0, 0
RCOU, 67845251, 1236, 1221, 1229, 1228, 0, 0, 0, 0, 0, 0, 0, 0, 0, 0
VIBE, 67845260, 0.02252369, 0.02137047, 0.03706487, 0, 0, 0
CTRL, 67845266, 0.00438229, 0.0001824502, 0.004608136, 0.0001994288, 0.0001790394
PRX, 67845297, 2, 0.61, 0, 0.55, 0, 3.59, 0, 2.4, 0, 0, 90, 0.55
