FMT, 128, 89, FMT, BBnNZ, Type,Length,Name,Format,Columns
FMT, 129, 31, PARM, QNf, TimeUS,Name,Value
FMT, 130, 46, GPS, QBIHBcLLefffB, TimeUS,Status,GMS,GWk,NSats,HDop,Lat,Lng,Alt,Spd,GCrs,VZ,U
FMT, 131, 46, GPS2, QBIHBcLLefffB, TimeUS,Status,GMS,GWk,NSats,HDop,Lat,Lng,Alt,Spd,GCrs,VZ,U
FMT, 132, 46, GPSB, QBIHBcLLefffB, TimeUS,Status,GMS,GWk,NSats,HDop,Lat,Lng,Alt,Spd,GCrs,VZ,U
FMT, 193, 24, GPA, QCCCCBI, TimeUS,VDop,HAcc,VAcc,SAcc,VV,SMS
FMT, 194, 24, GPA2, QCCCCBI, TimeUS,VDop,HAcc,VAcc,SAcc,VV,SMS
FMT, 195, 24, GPAB, QCCCCBI, TimeUS,VDop,HAcc,VAcc,SAcc,VV,SMS
FMT, 133, 53, IMU, QffffffIIfBBHH, TimeUS,GyrX,GyrY,GyrZ,AccX,AccY,AccZ,EG,EA,T,GH,AH,GHz,AHz
FMT, 134, 75, MSG, QZ, TimeUS,Message
FMT, 135, 39, RCIN, QHHHHHHHHHHHHHH, TimeUS,C1,C2,C3,C4,C5,C6,C7,C8,C9,C10,C11,C12,C13,C14
FMT, 136, 39, RCOU, QHHHHHHHHHHHHHH, TimeUS,C1,C2,C3,C4,C5,C6,C7,C8,C9,C10,C11,C12,C13,C14
FMT, 137, 15, RSSI, Qf, TimeUS,RXRSSI
FMT, 139, 37, BARO, QffcfIff, TimeUS,Alt,Press,Temp,CRt,SMS,Offset,GndTemp
FMT, 140, 22, POWR, QffHB, TimeUS,Vcc,VServo,Flags,Safety
FMT, 143, 45, CMD, QHHHfffffff, TimeUS,CTot,CNum,CId,Prm1,Prm2,Prm3,Prm4,Lat,Lng,Alt
FMT, 144, 20, RAD, QBBBBBHH, TimeUS,RSSI,RemRSSI,TxBuf,Noise,RemNoise,RxErrors,Fixed
FMT, 146, 43, CAM, QIHLLeeeccC, TimeUS,GPSTime,GPSWeek,Lat,Lng,Alt,RelAlt,GPSAlt,Roll,Pitch,Yaw
FMT, 232, 43, TRIG, QIHLLeeeccC, TimeUS,GPSTime,GPSWeek,Lat,Lng,Alt,RelAlt,GPSAlt,Roll,Pitch,Yaw
FMT, 162, 30, ARSP, QffcffB, TimeUS,Airspeed,DiffPress,Temp,RawPress,Offset,U
FMT, 164, 45, CURR, QfffcHHHHHHHHHH, TimeUS,Volt,Curr,CurrTot,Temp,V1,V2,V3,V4,V5,V6,V7,V8,V9,V10
FMT, 165, 45, CUR2, QfffcHHHHHHHHHH, TimeUS,Volt,Curr,CurrTot,Temp,V1,V2,V3,V4,V5,V6,V7,V8,V9,V10
FMT, 163, 27, ATT, QccccCCCC, TimeUS,DesRoll,Roll,DesPitch,Pitch,DesYaw,Yaw,ErrRP,ErrYaw
FMT, 166, 34, MAG, QhhhhhhhhhBI, TimeUS,MagX,MagY,MagZ,OfsX,OfsY,OfsZ,MOfsX,MOfsY,MOfsZ,Health,S
FMT, 169, 14, MODE, QMBB, TimeUS,Mode,ModeNum,Rsn
FMT, 196, 17, RFND, QCBCB, TimeUS,Dist1,Orient1,Dist2,Orient2
FMT, 223, 33, DMS, IIIIIBBBBBBBBBB, TimeMS,N,Dp,RT,RS,Er,Fa,Fmn,Fmx,Pa,Pmn,Pmx,Sa,Smn,Smx
FMT, 240, 41, BCN, QBBfffffff, TimeUS,Health,Cnt,D0,D1,D2,D3,PosX,PosY,PosZ
FMT, 138, 53, IMU2, QffffffIIfBBHH, TimeUS,GyrX,GyrY,GyrZ,AccX,AccY,AccZ,EG,EA,T,GH,AH,GHz,AHz
FMT, 147, 53, IMU3, QffffffIIfBBHH, TimeUS,GyrX,GyrY,GyrZ,AccX,AccY,AccZ,EG,EA,T,GH,AH,GHz,AHz
FMT, 141, 45, AHR2, QccCfLLffff, TimeUS,Roll,Pitch,Yaw,Alt,Lat,Lng,Q1,Q2,Q3,Q4
FMT, 180, 31, POS, QLLfff, TimeUS,Lat,Lng,Alt,RelHomeAlt,RelOriginAlt
FMT, 142, 45, SIM, QccCfLLffff, TimeUS,Roll,Pitch,Yaw,Alt,Lat,Lng,Q1,Q2,Q3,Q4
FMT, 198, 51, NKF1, QccCfffffffccc, TimeUS,Roll,Pitch,Yaw,VN,VE,VD,dPD,PN,PE,PD,GX,GY,GZ
FMT, 199, 35, NKF2, QbccccchhhhhhB, TimeUS,AZbias,GSX,GSY,GSZ,VWN,VWE,MN,ME,MD,MX,MY,MZ,MI
FMT, 200, 33, NKF3, Qcccccchhhcc, TimeUS,IVN,IVE,IVD,IPN,IPE,IPD,IMX,IMY,IMZ,IYAW,IVT
FMT, 201, 35, NKF4, QcccccfbbHBHHb, TimeUS,SV,SP,SH,SM,SVT,errRP,OFN,OFE,FS,TS,SS,GPS,PI
FMT, 202, 40, NKF5, QBhhhcccCCfff, TimeUS,NI,FIX,FIY,AFI,HAGL,offset,RI,rng,Herr,eAng,eVel,ePos
FMT, 203, 51, NKF6, QccCfffffffccc, TimeUS,Roll,Pitch,Yaw,VN,VE,VD,dPD,PN,PE,PD,GX,GY,GZ
FMT, 204, 35, NKF7, QbccccchhhhhhB, TimeUS,AZbias,GSX,GSY,GSZ,VWN,VWE,MN,ME,MD,MX,MY,MZ,MI
FMT, 205, 33, NKF8, Qcccccchhhcc, TimeUS,IVN,IVE,IVD,IPN,IPE,IPD,IMX,IMY,IMZ,IYAW,IVT
FMT, 206, 35, NKF9, QcccccfbbHBHHb, TimeUS,SV,SP,SH,SM,SVT,errRP,OFN,OFE,FS,TS,SS,GPS,PI
FMT, 207, 36, NKF0, QBccCCcccccccc, TimeUS,ID,rng,innov,SIV,TR,BPN,BPE,BPD,OFH,OFL,OFN,OFE,OFD
FMT, 208, 27, NKQ1, Qffff, TimeUS,Q1,Q2,Q3,Q4
FMT, 209, 27, NKQ2, Qffff, TimeUS,Q1,Q2,Q3,Q4
FMT, 210, 51, XKF1, QccCfffffffccc, TimeUS,Roll,Pitch,Yaw,VN,VE,VD,dPD,PN,PE,PD,GX,GY,GZ
FMT, 211, 34, XKF2, QccccchhhhhhB, TimeUS,AX,AY,AZ,VWN,VWE,MN,ME,MD,MX,MY,MZ,MI
FMT, 212, 33, XKF3, Qcccccchhhcc, TimeUS,IVN,IVE,IVD,IPN,IPE,IPD,IMX,IMY,IMZ,IYAW,IVT
FMT, 213, 35, XKF4, QcccccfbbHBHHb, TimeUS,SV,SP,SH,SM,SVT,errRP,OFN,OFE,FS,TS,SS,GPS,PI
FMT, 214, 40, XKF5, QBhhhcccCCfff, TimeUS,NI,FIX,FIY,AFI,HAGL,offset,RI,rng,Herr,eAng,eVel,ePos
FMT, 215, 51, XKF6, QccCfffffffccc, TimeUS,Roll,Pitch,Yaw,VN,VE,VD,dPD,PN,PE,PD,GX,GY,GZ
FMT, 216, 34, XKF7, QccccchhhhhhB, TimeUS,AX,AY,AZ,VWN,VWE,MN,ME,MD,MX,MY,MZ,MI
FMT, 217, 33, XKF8, Qcccccchhhcc, TimeUS,IVN,IVE,IVD,IPN,IPE,IPD,IMX,IMY,IMZ,IYAW,IVT
FMT, 218, 35, XKF9, QcccccfbbHBHHb, TimeUS,SV,SP,SH,SM,SVT,errRP,OFN,OFE,FS,TS,SS,GPS,PI
FMT, 219, 36, XKF0, QBccCCcccccccc, TimeUS,ID,rng,innov,SIV,TR,BPN,BPE,BPD,OFH,OFL,OFN,OFE,OFD
FMT, 220, 27, XKQ1, Qffff, TimeUS,Q1,Q2,Q3,Q4
FMT, 221, 27, XKQ2, Qffff, TimeUS,Q1,Q2,Q3,Q4
FMT, 222, 35, XKFD, Qffffff, TimeUS,IX,IY,IZ,IVX,IVY,IVZ
FMT, 148, 34, TERR, QBLLHffHH, TimeUS,Status,Lat,Lng,Spacing,TerrH,CHeight,Pending,Loaded
FMT, 149, 18, UBX1, QBHBBH, TimeUS,Instance,noisePerMS,jamInd,aPower,agcCnt
FMT, 150, 16, UBX2, QBbBbB, TimeUS,Instance,ofsI,magI,ofsQ,magQ
FMT, 151, 18, UBY1, QBHBBH, TimeUS,Instance,noisePerMS,jamInd,aPower,agcCnt
FMT, 152, 16, UBY2, QBbBbB, TimeUS,Instance,ofsI,magI,ofsQ,magQ
FMT, 170, 42, GRAW, QIHBBddfBbB, TimeUS,WkMS,Week,numSV,sv,cpMes,prMes,doMes,mesQI,cno,lli
FMT, 171, 24, GRXH, QdHbBB, TimeUS,rcvTime,week,leapS,numMeas,recStat
FMT, 172, 41, GRXS, QddfBBBHBBBBB, TimeUS,prMes,cpMes,doMes,gnss,sv,freq,lock,cno,prD,cpD,doD,trk
FMT, 173, 63, SBFE, QIHBBdddfffff, TimeUS,TOW,WN,Mode,Err,Lat,Lng,Height,Undul,Vn,Ve,Vu,COG
FMT, 153, 19, ESC1, Qcccc, TimeUS,RPM,Volt,Curr,Temp
FMT, 154, 19, ESC2, Qcccc, TimeUS,RPM,Volt,Curr,Temp
FMT, 155, 19, ESC3, Qcccc, TimeUS,RPM,Volt,Curr,Temp
FMT, 156, 19, ESC4, Qcccc, TimeUS,RPM,Volt,Curr,Temp
FMT, 157, 19, ESC5, Qcccc, TimeUS,RPM,Volt,Curr,Temp
FMT, 158, 19, ESC6, Qcccc, TimeUS,RPM,Volt,Curr,Temp
FMT, 159, 19, ESC7, Qcccc, TimeUS,RPM,Volt,Curr,Temp
FMT, 160, 19, ESC8, Qcccc, TimeUS,RPM,Volt,Curr,Temp
FMT, 167, 34, MAG2, QhhhhhhhhhBI, TimeUS,MagX,MagY,MagZ,OfsX,OfsY,OfsZ,MOfsX,MOfsY,MOfsZ,Health,S
FMT, 168, 34, MAG3, QhhhhhhhhhBI, TimeUS,MagX,MagY,MagZ,OfsX,OfsY,OfsZ,MOfsX,MOfsY,MOfsZ,Health,S
FMT, 174, 31, ACC1, QQfff, TimeUS,SampleUS,AccX,AccY,AccZ
FMT, 175, 31, ACC2, QQfff, TimeUS,SampleUS,AccX,AccY,AccZ
FMT, 176, 31, ACC3, QQfff, TimeUS,SampleUS,AccX,AccY,AccZ
FMT, 177, 31, GYR1, QQfff, TimeUS,SampleUS,GyrX,GyrY,GyrZ
FMT, 178, 31, GYR2, QQfff, TimeUS,SampleUS,GyrX,GyrY,GyrZ
FMT, 179, 31, GYR3, QQfff, TimeUS,SampleUS,GyrX,GyrY,GyrZ
FMT, 181, 35, PIDR, Qffffff, TimeUS,Des,P,I,D,FF,AFF
FMT, 182, 35, PIDP, Qffffff, TimeUS,Des,P,I,D,FF,AFF
FMT, 183, 35, PIDY, Qffffff, TimeUS,Des,P,I,D,FF,AFF
FMT, 184, 35, PIDA, Qffffff, TimeUS,Des,P,I,D,FF,AFF
FMT, 185, 35, PIDS, Qffffff, TimeUS,Des,P,I,D,FF,AFF
FMT, 186, 35, PIDL, Qffffff, TimeUS,Des,P,I,D,FF,AFF
FMT, 161, 37, BAR2, QffcfIff, TimeUS,Alt,Press,Temp,CRt,SMS,Offset,GndTemp
FMT, 197, 37, BAR3, QffcfIff, TimeUS,Alt,Press,Temp,CRt,SMS,Offset,GndTemp
FMT, 187, 35, VIBE, QfffIII, TimeUS,VibeX,VibeY,VibeZ,Clip0,Clip1,Clip2
FMT, 188, 47, IMT, Qfffffffff, TimeUS,DelT,DelvT,DelaT,DelAX,DelAY,DelAZ,DelVX,DelVY,DelVZ
FMT, 189, 47, IMT2, Qfffffffff, TimeUS,DelT,DelvT,DelaT,DelAX,DelAY,DelAZ,DelVX,DelVY,DelVZ
FMT, 190, 47, IMT3, Qfffffffff, TimeUS,DelT,DelvT,DelaT,DelAX,DelAY,DelAZ,DelVX,DelVY,DelVZ
FMT, 191, 24, ORGN, QBLLe, TimeUS,Type,Lat,Lng,Alt
FMT, 192, 19, RPM, Qff, TimeUS,rpm1,rpm2
FMT, 233, 47, GMB1, Iffffffffff, TimeMS,dt,dax,day,daz,dvx,dvy,dvz,jx,jy,jz
FMT, 234, 44, GMB2, IBfffffffff, TimeMS,es,ex,ey,ez,rx,ry,rz,tx,ty,tz
FMT, 235, 13, GMB3, Ihhh, TimeMS,rl_torque_cmd,el_torque_cmd,az_torque_cmd
FMT, 236, 59, RATE, Qffffffffffff, TimeUS,RDes,R,ROut,PDes,P,POut,YDes,Y,YOut,ADes,A,AOut
FMT, 237, 23, RALY, QBBLLh, TimeUS,Tot,Seq,Lat,Lng,Alt
FMT, 238, 43, VISO, Qffffffff, TimeUS,dt,AngDX,AngDY,AngDZ,PosDX,PosDY,PosDZ,conf
FMT, 224, 23, SBPH, QIII, TimeUS,CrcError,LastInject,IARhyp
FMT, 229, 80, SBR1, QHHBZ, TimeUS,msg_type,sender_id,msg_len,d1
FMT, 230, 205, SBR2, QHZZZ, TimeUS,msg_type,d2,d3,d4
FMT, 25, 41, ATUN, QBBfffffff, TimeUS,Axis,TuneStep,Targ,Min,Max,RP,RD,SP,ddt
FMT, 26, 19, ATDE, Qff, TimeUS,Angle,Rate
FMT, 31, 22, PTUN, QBfHHH, TimeUS,Param,TunVal,CtrlIn,TunLo,TunHi
FMT, 12, 28, OF, QBffff, TimeUS,Qual,flowX,flowY,bodyX,bodyY
FMT, 5, 51, NTUN, Qffffffffff, TimeUS,DPosX,DPosY,PosX,PosY,DVelX,DVelY,VelX,VelY,DAccX,DAccY
FMT, 4, 51, CTUN, Qffffffeccfhh, TimeUS,ThI,ABst,ThO,ThH,DAlt,Alt,BAlt,DSAlt,SAlt,TAlt,DCRt,CRt
FMT, 6, 32, PM, QHHIhBHII, TimeUS,NLon,NLoop,MaxT,PMT,I2CErr,INSErr,LogDrop,Mem
FMT, 30, 27, MOTB, Qffff, TimeUS,LiftMax,BatVolt,BatRes,ThLimit
FMT, 13, 12, EV, QB, TimeUS,Id
FMT, 20, 14, D16, QBh, TimeUS,Id,Value
FMT, 21, 14, DU16, QBH, TimeUS,Id,Value
FMT, 22, 16, D32, QBi, TimeUS,Id,Value
FMT, 23, 16, DU32, QBI, TimeUS,Id,Value
FMT, 24, 16, DFLT, QBf, TimeUS,Id,Value
FMT, 19, 13, ERR, QBB, TimeUS,Subsys,ECode
FMT, 32, 19, HELI, Qff, TimeUS,DRRPM,ERRPM
FMT, 33, 29, PL, QBBffff, TimeUS,Heal,TAcq,pX,pY,vX,vY
FMT, 34, 36, GUID, QBffffff, TimeUS,Type,pX,pY,pZ,vX,vY,vZ
FMT, 35, 32, THRO, QBffffbbbb, TimeUS,Stage,Vel,VelZ,Acc,AccEfZ,Throw,AttOk,HgtOk,PosOk
FMT, 36, 56, PRX, QBfffffffffff, TimeUS,Health,D0,D45,D90,D135,D180,D225,D270,D315,DUp,CAn,CDis
MODE, 49534657, 100, 100, 2
FMT, 254, 47, NKT1, QIffffffff, TimeUS,Cnt,IMUMin,IMUMax,EKFMin,EKFMax,AngMin,AngMax,VelMin,VelM
FMT, 253, 31, CTRL, Qfffff, TimeUS,RMSRollP,RMSRollD,RMSPitchP,RMSPitchD,RMSYaw
MSG, 49681038, APM:Copter V3.5.7 (870dd8f0)
MSG, 49681042, New mission
MSG, 49681053, Frame: QUAD
MODE, 49681057, Autonomous, 100, 2
IMU, 49700779, -0.0002200578, -0.0004089067, -0.001261386, 0.1187433, -0.08188651, -9.755729, 0, 0, 40.67244, 1, 1, 1000, 1000
RFND, 49710667, 0.2, 25, 0, 0
IMU, 49740836, -0.0001086563, 0.0007568762, -0.0001487212, 0.1217247, -0.06235949, -9.753123, 0, 0, 40.67318, 1, 1, 1000, 1000
MAG, 49760701, 236, 661, 188, 0, 0, 0, 0, 0, 0, 1, 49760693
RFND, 49760735, 0.2, 25, 0, 0
BARO, 49760773, 0.2684433, 988.1006, 39.53, -0.1152996, 49760, 0, 35
CTUN, 49760786, 0, 0, 0, 0.3086625, 0.07417475, 0.07417475, 0.26, 0, 0.19, 0, 0, 0
ATT, 49760937, 0, 0.54, 0, -0.49, 359.36, 359.38, 0, 1
RATE, 49760943, -2.437631, 0.05613602, -0.0061625, 2.249381, -0.02319436, 0.005425996, -0.01197071, -0.02277551, 2.497053E-05, -369.5283, 0.766468, 0
NKF1, 49760950, 0.54, -0.49, 359.37, 0.0136517, 0.01167075, -0.009124156, 0, 0, 0, -0.07417475, 0, 0, 0
NKF2, 49760950, 5, 0, 0, 0, 0, 0, 0, 0, 0, 0, 0, 0, 0
NKF3, 49760950, 0, 0, 0, 0, 0, 0, 0, 0, 0, 0, 0
NKF4, 49760950, 0, 0, 0, 0, 0, 2.002578E-05, 0, 0, 0, 19, 229, 0, 0
NKF5, 49760950, 0, 0, 0, 0, 0.2, 0.13, 0, 0.19, 0.5, 8.146383E-05, 0.0007023876, 0.001692837
NKQ1, 49760950, 0.9999633, 0.003731609, 0.005461378, -0.0054535
AHR2, 49760991, 0.52, -0.48, 359.35, 0.26, 0, 0, 0.999965, 0.004536614, -0.004240785, -0.005605626
MOTB, 49760998, 1, 1, 0, 1
RCIN, 49761002, 0, 0, 0, 0, 0, 0, 0, 0, 0, 0, 0, 0, 0, 0
RCOU, 49761008, 1101, 1101, 1101, 1101, 0, 0, 0, 0, 0, 0, 0, 0, 0, 0
VIBE, 49761017, 0.02234161, 0.02409169, 0.03443686, 0, 0, 0
CTRL, 49761024, 0.005756826, 0.0001642476, 0.005315332, 0.0001264021, 3.569093E-05
PRX, 49761053, 2, 0.58, 0, 3.59, 0, 3.59, 0, 2.39, 0, 0, 0, 0.58
IMU, 49780811, -0.0001667946, 0.0002390315, -0.001097784, 0.1008912, -0.08047989, -9.743966, 0, 0, 40.67337, 1, 1, 1000, 1000
RFND, 49810671, 0.2, 25, 0, 0
IMU, 49820776, -0.0009551116, 0.001119651, -7.301939E-05, 0.1087045, -0.06706479, -9.754838, 0, 0, 40.67184, 1, 1, 1000, 1000
MAG, 49860665, 229, 660, 189, 0, 0, 0, 0, 0, 0, 1, 49860656
RFND, 49860700, 0.2, 25, 0, 0
BARO, 49860736, 0.2995263, 988.0973, 39.53, 0.1670684, 49860, 0, 35
CTUN, 49860749, 0, 0, 0, 0.3086625, 0.07469806, 0.07469806, 0.29, 0, 0.19, 0, 0, 0
DU32, 49860790, 7, 50389208
ATT, 49860987, 0, 0.54, 0, -0.49, 359.36, 359.38, 0, 1
RATE, 49860994, -2.433215, 0.06247676, -0.005942381, 2.23472, 0.01572195, 0.005184561, -0.01092226, -0.04589296, 6.3629E-05, -396.0442, 0.2566338, 0
NKF1, 49861001, 0.54, -0.49, 359.37, 0.01346992, 0.01147108, -0.009778869, 0, 0, 0, -0.07469806, 0, 0, 0
NKF2, 49861001, 5, 0, 0, 0, 0, 0, 0, 0, 0, 0, 0, 0, 0
NKF3, 49861001, 0, 0, 0, 0.01, 0, 0, 0, 0, 0, 0, 0
NKF4, 49861001, 0, 0, 0, 0, 0, 1.305852E-05, 0, 0, 0, 19, 229, 0, 0
NKF5, 49861001, 0, 0, 0, 0, 0.2, 0.13, 0, 0.19, 0.5, 6.664337E-05, 0.0008565823, 0.002112112
NKQ1, 49861001, 0.999963, 0.003724123, 0.005488258, -0.005483734
AHR2, 49861045, 0.52, -0.47, 359.35, 0.29, 0, 0, 0.999965, 0.004527251, -0.004207146, -0.005635863
MOTB, 49861053, 1, 1, 0, 1
RCIN, 49861057, 0, 0, 0, 0, 0, 0, 0, 0, 0, 0, 0, 0, 0, 0
RCOU, 49861062, 1101, 1101, 1101, 1101, 0, 0, 0, 0, 0, 0, 0, 0, 0, 0
VIBE, 49861071, 0.0233652, 0.02180139, 0.0345598, 0, 0, 0
CTRL, 49861077, 0.005750213, 0.0001795353, 0.005284107, 0.0001190408, 4.107457E-05
PRX, 49861107, 1, 0.58, 0, 3.59, 0, 3.59, 0, 2.39, 0, 0, 0, 0.58
IMU, 49861114, 0.0009736686, 0.0003264747, -0.0008007158, 0.108225, -0.07273488, -9.748512, 0, 0, 40.67066, 1, 1, 1000, 1000
IMU, 49900787, 0.0002416955, 0.0008481589, 0.0008395069, 0.1175057, -0.06392594, -9.751677, 0, 0, 40.67017, 1, 1, 1000, 1000
RFND, 49910687, 0.2, 25, 0, 0
IMU, 49940770, 0.0002467738, 0.001315408, 0.0007065957, 0.1092261, -0.06956768, -9.73663, 0, 0, 40.67015, 1, 1, 1000, 1000
MAG, 49960706, 229, 663, 187, 0, 0, 0, 0, 0, 0, 1, 49960697
RFND, 49960740, 0.2, 25, 0, 0
BARO, 49960777, 0.3164806, 988.0954, 39.53, 0.2911016, 49960, 0, 35
CTUN, 49960790, 0, 0, 0, 0.3086625, 0.07518715, 0.07518715, 0.31, 0, 0.19, 0, 0, 0
ATT, 49960893, 0, 0.53, 0, -0.49, 359.36, 359.38, 0, 1
RATE, 49960900, -2.427466, -0.06353503, -0.005366882, 2.20888, 0.09476399, 0.004753247, -0.01129428, 0.07977474, -9.534911E-05, -402.539, 0.8345604, 0
NKF1, 49960907, 0.53, -0.49, 359.37, 0.01371175, 0.01188428, -0.009939235, 0, 0, 0, -0.07518715, 0, 0, 0
NKF2, 49960907, 5, 0, 0, 0, 0, 0, 0, 0, 0, 0, 0, 0, 0
NKF3, 49960907, 0, 0, 0, 0.01, 0, 0, 0, 0, 0, 0, 0
NKF4, 49960907, 0, 0, 0, 0, 0, 8.74745E-06, 0, 0, 0, 19, 229, 0, 0
NKF5, 49960907, 0, 0, 0, 0, 0.2, 0.13, 0, 0.19, 0.5, 5.520158E-05, 0.0007931645, 0.001910667
NKQ1, 49960907, 0.999963, 0.003713701, 0.005542186, -0.005448963
AHR2, 49960976, 0.52, -0.47, 359.35, 0.31, 0, 0, 0.9999655, 0.004515172, -0.004146941, -0.005601058
MOTB, 49960984, 1, 1, 0, 1
RCIN, 49960988, 0, 0, 0, 0, 0, 0, 0, 0, 0, 0, 0, 0, 0, 0
RCOU, 49960994, 1101, 1101, 1101, 1101, 0, 0, 0, 0, 0, 0, 0, 0, 0, 0
VIBE, 49961003, 0.02358711, 0.02067797, 0.0340659, 0, 0, 0
CTRL, 49961009, 0.005740843, 0.0001761961, 0.005234137, 0.000119131, 4.510018E-05
PRX, 49961039, 1, 0.58, 0, 3.59, 0, 3.59, 0, 2.39, 0, 0, 0, 0.58
IMU, 49980775, -7.036286E-05, 0.0006873106, 0.0004176944, 0.1058854, -0.06162467, -9.745584, 0, 0, 40.67069, 1, 1, 1000, 1000
RFND, 50010785, 0.2, 25, 0, 0
IMU, 50020839, -3.786679E-05, -5.921827E-05, -1.724933E-05, 0.1010608, -0.07152756, -9.756402, 0, 0, 40.67068, 1, 1, 1000, 1000
MAG, 50060691, 229, 663, 189, 0, 0, 0, 0, 0, 0, 1, 50060682
RFND, 50060725, 0.2, 25, 0, 0
BARO, 50060763, 0.3306092, 988.0939, 39.53, 0.2432071, 50060, 0, 35
CTUN, 50060776, 0, 0, 0, 0.3086625, 0.07564413, 0.07564413, 0.33, 0, 0.19, 0, 0, 0
ATT, 50060881, 0, 0.53, 0, -0.49, 359.36, 359.38, 0, 1
RATE, 50060887, -2.421406, -0.02220848, -0.005699136, 2.210145, -0.04071361, 0.005280887, -0.01145138, 0.03252574, -5.039231E-05, -396.1422, -1.699543, 0
NKF1, 50060895, 0.53, -0.49, 359.37, 0.01300353, 0.01240768, -0.009781287, 0, 0, 0, -0.07564413, 0, 0, 0
NKF2, 50060895, 6, 0, 0, 0, 0, 0, 0, 0, 0, 0, 0, 0, 0
NKF3, 50060895, 0, 0, 0, 0.01, 0.01, 0, 0, 0, 0, 0, 0
NKF4, 50060895, 0, 0, 0, 0, 0, 5.908967E-06, 0, 0, 0, 19, 229, 0, 0
NKF5, 50060895, 0, 0, 0, 0, 0.2, 0.13, 0, 0.19, 0.5, 4.688167E-05, 0.0009469363, 0.002331062
NKQ1, 50060895, 0.999963, 0.003702658, 0.005537559, -0.005452463
AHR2, 50060936, 0.51, -0.47, 359.35, 0.33, 0, 0, 0.9999655, 0.004503252, -0.004153087, -0.005604386
MOTB, 50060943, 1, 1, 0, 1
RCIN, 50060948, 0, 0, 0, 0, 0, 0, 0, 0, 0, 0, 0, 0, 0, 0
RCOU, 50060953, 1101, 1101, 1101, 1101, 0, 0, 0, 0, 0, 0, 0, 0, 0, 0
VIBE, 50060962, 0.02080971, 0.02068708, 0.03762901, 0, 0, 0
CTRL, 50060968, 0.005728971, 0.0001777232, 0.005218134, 0.0001465042, 5.735099E-05
PRX, 50060998, 1, 0.58, 0, 3.59, 0, 3.59, 0, 2.39, 0, 0, 0, 0.58
IMU, 50061006, -0.0005047232, -0.0006583554, 0.0005679493, 0.09566687, -0.06762622, -9.728949, 0, 0, 40.67211, 1, 1, 1000, 1000
IMU, 50100801, -0.001118609, 0.0001190226, -0.0007125924, 0.113975, -0.05935399, -9.752799, 0, 0, 40.67326, 1, 1, 1000, 1000
RFND, 50110704, 0.2, 25, 0, 0
IMU, 50140762, 0.0001809187, 0.001397565, 0.0002807433, 0.1060304, -0.06316137, -9.744323, 0, 0, 40.67427, 1, 1, 1000, 1000
MAG, 50160740, 230, 657, 190, 0, 0, 0, 0, 0, 0, 1, 50160731
RFND, 50160773, 0.2, 25, 0, 0
BARO, 50160811, 0.251489, 988.1024, 39.53, 0.1670888, 50160, 0, 35
CTUN, 50160824, 0, 0, 0, 0.3086625, 0.07612491, 0.07612491, 0.25, 0, 0.19, 0, 0, 1
ATT, 50160929, 0, 0.53, 0, -0.48, 359.36, 359.38, 0, 1
RATE, 50160936, -2.415107, -0.02658184, -0.005723387, 2.199065, 0.01342754, 0.005198932, -0.01105923, 0.02886083, -8.475674E-05, -412.3199, 0.1516342, 0
NKF1, 50160943, 0.53, -0.48, 359.37, 0.01300521, 0.01293894, -0.01018074, 0, 0, 0, -0.07612491, 0, 0, 0
NKF2, 50160943, 6, 0, 0, 0, 0, 0, 0, 0, 0, 0, 0, 0, 0
NKF3, 50160943, 0, 0, 0, 0.01, 0.01, 0, 0, 0, 0, 0, 0
NKF4, 50160943, 0, 0, 0, 0, 0, 4.018326E-06, 0, 0, 0, 19, 229, 0, 0
NKF5, 50160943, 0, 0, 0, 0, 0.2, 0.13, 0, 0.19, 0.5, 4.126295E-05, 0.0009057141, 0.002138698
NKQ1, 50160943, 0.9999629, 0.003688982, 0.005560423, -0.005439344
AHR2, 50160986, 0.51, -0.47, 359.35, 0.25, 0, 0, 0.9999658, 0.004488055, -0.004131873, -0.005591076
MOTB, 50160993, 1, 1, 0, 1
RCIN, 50160998, 0, 0, 0, 0, 0, 0, 0, 0, 0, 0, 0, 0, 0, 0
RCOU, 50161004, 1101, 1101, 1101, 1101, 0, 0, 0, 0, 0, 0, 0, 0, 0, 0
VIBE, 50161012, 0.02120494, 0.02207386, 0.0367711, 0, 0, 0
CTRL, 50161019, 0.005703056, 0.0001854677, 0.005194358, 0.0001468161, 5.939875E-05
PRX, 50161049, 2, 0.58, 0, 3.59, 0, 3.59, 0, 2.38, 0, 0, 0, 0.58
IMU, 50180764, 0.0001184672, -0.0003875069, 0.0003352692, 0.1136036, -0.06421501, -9.768643, 0, 0, 40.67551, 1, 1, 1000, 1000
RFND, 50210702, 0.2, 25, 0, 0
IMU, 50220782, 0.0007252946, 0.0004228147, -0.001072789, 0.1085137, -0.07490176, -9.752145, 0, 0, 40.67706, 1, 1, 1000, 1000
MAG, 50260674, 235, 669, 181, 0, 0, 0, 0, 0, 0, 1, 50260665
RFND, 50260704, 0.2, 25, 0, 0
BARO, 50260743, 0.3164806, 988.0955, 39.53, 0.04241084, 50260, 0, 35
CTUN, 50260757, 0, 0, 0, 0.3086625, 0.0765627, 0.0765627, 0.31, 0, 0.19, 0, 0, 1
ATT, 50260863, 0, 0.53, 0, -0.48, 359.36, 359.38, 0, 1
RATE, 50260869, -2.423545, -0.02286813, -0.005521136, 2.200602, 0.0359292, 0.004956724, -0.01041445, -0.03983927, 8.492947E-06, -441.6102, 0.8777618, 0
NKF1, 50260876, 0.53, -0.48, 359.37, 0.01269492, 0.01291428, -0.01090396, 0, 0, 0, -0.0765627, 0, 0, 0
NKF2, 50260876, 6, 0, 0, 0, 0, 0, 0, 0, 0, 0, 0, 0, 0
NKF3, 50260876, 0, 0, 0, 0.01, 0.01, 0, 0, 0, 0, 0, 0
NKF4, 50260876, 0, 0, 0, 0, 0, 2.782533E-06, 0, 0, 0, 19, 229, 0, 0
NKF5, 50260876, 0, 0, 0, 0, 0.2, 0.13, 0, 0.19, 0.5, 3.802253E-05, 0.001014593, 0.002468603
NKQ1, 50260876, 0.9999629, 0.003704332, 0.005555997, -0.005458724
AHR2, 50260919, 0.51, -0.47, 359.35, 0.31, 0, 0, 0.9999655, 0.004499271, -0.004142321, -0.005610473
MOTB, 50260926, 1, 1, 0, 1
RCIN, 50260930, 0, 0, 0, 0, 0, 0, 0, 0, 0, 0, 0, 0, 0, 0
RCOU, 50260936, 1101, 1101, 1101, 1101, 0, 0, 0, 0, 0, 0, 0, 0, 0, 0
VIBE, 50260945, 0.02198839, 0.02184642, 0.03439865, 0, 0, 0
CTRL, 50260952, 0.005722002, 0.0001791883, 0.005192751, 0.0001388693, 5.717359E-05
PRX, 50260983, 2, 0.58, 0, 3.59, 0, 3.59, 0, 2.38, 0, 0, 0, 0.58
IMU, 50260991, -0.0005164839, 0.0006794213, -0.0006950582, 0.1071199, -0.06775604, -9.754477, 0, 0, 40.67843, 1, 1, 1000, 1000
IMU, 50300762, -0.0005477488, 0.0001011517, 0.000232636, 0.11433, -0.07515752, -9.749454, 0, 0, 40.67926, 1, 1, 1000, 1000
RFND, 50310659, 0.2, 25, 0, 0
IMU, 50340862, -0.0009186165, -0.0002505532, -0.0002127521, 0.09970964, -0.06651632, -9.756021, 0, 0, 40.67923, 1, 1, 1000, 1000
MAG, 50360660, 232, 660, 184, 0, 0, 0, 0, 0, 0, 1, 50360652
RFND, 50360690, 0.2, 25, 0, 0
BARO, 50360730, 0.4097293, 988.0853, 39.53, -0.03620452, 50360, 0, 35
CTUN, 50360745, 0, 0, 0, 0.3086625, 0.07714468, 0.07714468, 0.4, 0, 0.19, 0, 0, 1
ATT, 50360925, 0, 0.53, 0, -0.48, 359.36, 359.38, 0, 1
RATE, 50360932, -2.413738, -0.02616319, -0.005609575, 2.193348, 0.02050739, 0.005028896, -0.01021061, -0.009675514, -5.733619E-06, -460.9441, 0.9070396, 0
NKF1, 50360940, 0.53, -0.48, 359.37, 0.01297005, 0.01326213, -0.01138133, 0, 0, 0, -0.07714468, 0, 0, 0
NKF2, 50360940, 6, 0, 0, 0, 0, 0, 0, 0, 0, 0, 0, 0, 0
NKF3, 50360940, 0, 0, 0, 0.01, 0.01, 0, 0, 0, 0, 0, 0
NKF4, 50360940, 0, 0, 0, 0, 0, 1.945503E-06, 0, 0, 0, 19, 229, 0, 0
NKF5, 50360940, 0, 0, 0, 0, 0.2, 0.13, 0, 0.19, 0.5, 3.602303E-05, 0.0009499399, 0.002222187
NKQ1, 50360940, 0.9999628, 0.003687159, 0.00556956, -0.005463478
AHR2, 50360982, 0.51, -0.47, 359.35, 0.4, 0, 0, 0.9999657, 0.004478363, -0.004133983, -0.005614936
MOTB, 50360989, 1, 1, 0, 1
RCIN, 50360994, 0, 0, 0, 0, 0, 0, 0, 0, 0, 0, 0, 0, 0, 0
RCOU, 50361000, 1101, 1101, 1101, 1101, 0, 0, 0, 0, 0, 0, 0, 0, 0, 0
VIBE, 50361008, 0.02114261, 0.0193289, 0.03391368, 0, 0, 0
CTRL, 50361015, 0.005701825, 0.0001809251, 0.005178513, 0.0001418329, 4.693289E-05
PRX, 50361045, 1, 0.58, 0, 3.59, 0, 3.59, 0, 2.38, 0, 0, 0, 0.58
IMU, 50381005, -0.0006569169, -0.0004491961, 0.0001137887, 0.1118246, -0.07371003, -9.752644, 0, 0, 40.67908, 1, 1, 1000, 1000
RFND, 50410653, 0.2, 25, 0, 0
IMU, 50420727, 1.650789E-05, 0.001063343, 0.0003600451, 0.1137205, -0.06401628, -9.736812, 0, 0, 40.67915, 1, 1, 1000, 1000
MAG, 50460704, 229, 663, 187, 0, 0, 0, 0, 0, 0, 1, 50460696
RFND, 50460734, 0.2, 25, 0, 0
BARO, 50460773, 0.3249578, 988.0944, 39.53, 0.1024323, 50460, 0, 35
CTUN, 50460787, 0, 0, 0, 0.3086625, 0.07753962, 0.07753962, 0.32, 0, 0.19, 0, 0, 1
ATT, 50460893, 0, 0.53, 0, -0.48, 359.36, 359.38, 0, 1
RATE, 50460899, -2.410041, 0.01154963, -0.005637096, 2.19741, -0.03903318, 0.005578929, -0.009000918, -0.0001965552, 3.206985E-05, -458.2248, 0.1883507, 0
NKF1, 50460907, 0.53, -0.48, 359.37, 0.01345831, 0.01385689, -0.01131419, 0, 0, 0, -0.07753962, 0, 0, 0
NKF2, 50460907, 6, 0, 0, 0, 0, 0, 0, 0, 0, 0, 0, 0, 0
NKF3, 50460907, 0, 0, 0, 0.01, 0.01, 0, 0, 0, 0, 0, 0
NKF4, 50460907, 0, 0, 0, 0, 0, 1.421662E-06, 0, 0, 0, 19, 229, 0, 0
NKF5, 50460907, 0, 0, 0, 0, 0.2, 0.13, 0, 0.19, 0.5, 3.536672E-05, 0.001018119, 0.002475038
NKQ1, 50460907, 0.9999627, 0.003680065, 0.005561952, -0.005477148
AHR2, 50460977, 0.51, -0.47, 359.35, 0.32, 0, 0, 0.9999655, 0.004470489, -0.004143204, -0.005628415
MOTB, 50460984, 1, 1, 0, 1
RCIN, 50460988, 0, 0, 0, 0, 0, 0, 0, 0, 0, 0, 0, 0, 0, 0
RCOU, 50460994, 1101, 1101, 1101, 1101, 0, 0, 0, 0, 0, 0, 0, 0, 0, 0
VIBE, 50461002, 0.02073275, 0.01965197, 0.03332198, 0, 0, 0
CTRL, 50461009, 0.005693477, 0.0001569329, 0.005174058, 0.0001521385, 3.96415E-05
PRX, 50461039, 1, 0.58, 0, 3.59, 0, 3.59, 0, 2.38, 0, 0, 0, 0.58
IMU, 50461046, 8.406038E-05, -0.0006288527, -3.162552E-06, 0.1183777, -0.05934094, -9.747442, 0, 0, 40.67912, 1, 1, 1000, 1000
IMU, 50500843, 0.0008257488, -0.0009090967, -0.0002185006, 0.1185273, -0.06920779, -9.743605, 0, 0, 40.67931, 1, 1, 1000, 1000
RFND, 50510649, 0.2, 25, 0, 0
IMU, 50540723, -0.001108992, 0.0001403198, -0.0005701458, 0.107974, -0.0600693, -9.752743, 0, 0, 40.68078, 1, 1, 1000, 1000
MAG, 50560742, 228, 655, 189, 0, 0, 0, 0, 0, 0, 1, 50560733
RFND, 50560771, 0.2, 25, 0, 0
BARO, 50560811, 0.2147547, 988.1066, 39.53, 0.2083968, 50560, 0, 35
CTUN, 50560825, 0, 0, 0, 0.3086625, 0.07800861, 0.07800861, 0.21, 0, 0.19, 0, 0, 1
ATT, 50560926, 0, 0.53, 0, -0.48, 359.36, 359.38, 0, 1
RATE, 50560933, -2.414375, -0.01305302, -0.005934301, 2.20167, -0.0405735, 0.005348388, -0.01092239, 0.006748899, 1.497552E-05, -442.1387, -1.351261, 0
NKF1, 50560940, 0.53, -0.48, 359.37, 0.01380409, 0.01392217, -0.01091701, 0, 0, 0, -0.07800861, 0, 0, 0
NKF2, 50560940, 6, 0, 0, 0, 0, 0, 0, 0, 0, 0, 0, 0, 0
NKF3, 50560940, 0, 0, 0, 0.02, 0.01, 0, 0, 0, 0, 0, 0
NKF4, 50560940, 0, 0, 0, 0, 0, 1.080541E-06, 0, 0, 0, 19, 229, 0, 0
NKF5, 50560940, 0, 0, 0, 0, 0.2, 0.13, 0, 0.19, 0.5, 3.530462E-05, 0.00114302, 0.00287656
NKQ1, 50560940, 0.9999628, 0.00368773, 0.005554526, -0.005483965
AHR2, 50560983, 0.51, -0.47, 359.35, 0.21, 0, 0, 0.9999655, 0.004477394, -0.004151826, -0.005635189
MOTB, 50560990, 1, 1, 0, 1
RCIN, 50560994, 0, 0, 0, 0, 0, 0, 0, 0, 0, 0, 0, 0, 0, 0
RCOU, 50560999, 1101, 1101, 1101, 1101, 0, 0, 0, 0, 0, 0, 0, 0, 0, 0
VIBE, 50561008, 0.01967945, 0.02279259, 0.03518331, 0, 0, 0
CTRL, 50561015, 0.005692656, 0.000168378, 0.005186058, 0.0001791576, 3.368013E-05
PRX, 50561045, 1, 0.58, 0, 3.59, 0, 3.59, 0, 2.38, 0, 0, 0, 0.58
IMU, 50580757, 0.0002582592, 0.0002127391, -0.0003040562, 0.1123188, -0.0616719, -9.759428, 0, 0, 40.68256, 1, 1, 1000, 1000
RFND, 50610537, 0.2, 25, 0, 0
IMU, 50620607, 0.0002202252, 0.0001201353, -0.000848075, 0.1203285, -0.07503425, -9.745531, 0, 0, 40.68471, 1, 1, 1000, 1000
MAG, 50660496, 233, 657, 191, 0, 0, 0, 0, 0, 0, 1, 50660487
RFND, 50660524, 0.2, 25, 0, 0
BARO, 50660560, 0.2175804, 988.1061, 39.54, -0.06799384, 50660, 0, 35
CTUN, 50660573, 0, 0, 0, 0.3086625, 0.07840074, 0.07840074, 0.21, 0, 0.19, 0, 0, 1
ATT, 50660662, 0, 0.53, 0, -0.48, 359.35, 359.37, 0, 1
RATE, 50660667, -2.408037, -0.02110681, -0.005825613, 2.192382, 0.006800767, 0.004980549, -0.009095755, -0.08380289, 8.981513E-05, -484.1436, 2.524567, 0
NKF1, 50660674, 0.53, -0.48, 359.36, 0.01477355, 0.01388853, -0.01195416, 0, 0, 0, -0.07840074, 0, 0, 0
NKF2, 50660674, 6, 0, 0, 0, 0, 0, 0, 0, 0, 0, 0, 0, 0
NKF3, 50660674, 0, 0, 0, 0.02, 0.01, 0, 0, 0, 0, 0, 0
NKF4, 50660674, 0, 0, 0, 0, 0, 8.819655E-07, 0, 0, 0, 19, 229, 0, 0
NKF5, 50660674, 0, 0, 0, 0, 0.2, 0.13, 0, 0.19, 0.5, 3.531096E-05, 0.0009789785, 0.002387596
NKQ1, 50660674, 0.9999625, 0.003675048, 0.005570104, -0.0055268
AHR2, 50660715, 0.51, -0.47, 359.34, 0.21, 0, 0, 0.9999654, 0.004463124, -0.004134087, -0.005677816
MOTB, 50660723, 1, 1, 0, 1
RCIN, 50660727, 0, 0, 0, 0, 0, 0, 0, 0, 0, 0, 0, 0, 0, 0
RCOU, 50660733, 1101, 1101, 1101, 1101, 0, 0, 0, 0, 0, 0, 0, 0, 0, 0
VIBE, 50660742, 0.0203068, 0.02194026, 0.02970811, 0, 0, 0
CTRL, 50660748, 0.005681955, 0.0001798538, 0.005170688, 0.0001965743, 3.678122E-05
PRX, 50660779, 2, 0.58, 0, 3.59, 0, 3.59, 0, 2.38, 0, 0, 0, 0.58
IMU, 50660786, -0.0004860004, 0.000171139, -0.001462369, 0.1354692, -0.07429492, -9.770462, 0, 0, 40.68734, 1, 1, 1000, 1000
IMU, 50700613, -0.0002062542, -0.0004772384, 0.0002840684, 0.101216, -0.07279914, -9.742964, 0, 0, 40.69028, 1, 1, 1000, 1000
RFND, 50710516, 0.2, 25, 0, 0
IMU, 50740648, -0.0005125413, 0.0009699247, -0.0001530222, 0.1347201, -0.06654836, -9.727963, 0, 0, 40.69346, 1, 1, 1000, 1000
MAG, 50760526, 229, 655, 194, 0, 0, 0, 0, 0, 0, 1, 50760517
RFND, 50760551, 0.2, 25, 0, 0
BARO, 50760589, 0.2345347, 988.1044, 39.54, -0.4335713, 50760, 0, 35
CTUN, 50760602, 0, 0, 0, 0.3086625, 0.07883806, 0.07883806, 0.23, 0, 0.19, 0, 0, 1
ATT, 50760694, 0, 0.53, 0, -0.48, 359.35, 359.37, 0, 1
RATE, 50760701, -2.406108, 0.07646363, -0.0061383, 2.192691, -0.03924733, 0.005385899, -0.008675788, -0.0309787, 5.825898E-05, -460.0957, 0.1234055, 0
NKF1, 50760708, 0.53, -0.48, 359.36, 0.01544118, 0.01389001, -0.01136039, 0, 0, 0, -0.07883806, 0, 0, 0
NKF2, 50760708, 6, 0, 0, 0, 0, 0, 0, 0, 0, 0, 0, 0, 0
NKF3, 50760708, 0, 0, 0, 0.02, 0.01, 0, 0, 0, 0, 0, 0
NKF4, 50760708, 0, 0, 0, 0, 0, 7.671395E-07, 0, 0, 0, 19, 229, 0, 0
NKF5, 50760708, 0, 0, 0, 0, 0.2, 0.13, 0, 0.19, 0.5, 3.596489E-05, 0.001090392, 0.00275755
NKQ1, 50760708, 0.9999623, 0.003672746, 0.005569995, -0.005553503
AHR2, 50760750, 0.51, -0.47, 359.34, 0.23, 0, 0, 0.9999653, 0.00445975, -0.004131735, -0.005704403
MOTB, 50760757, 1, 1, 0, 1
RCIN, 50760761, 0, 0, 0, 0, 0, 0, 0, 0, 0, 0, 0, 0, 0, 0
RCOU, 50760767, 1101, 1101, 1101, 1101, 0, 0, 0, 0, 0, 0, 0, 0, 0, 0
VIBE, 50760775, 0.023316, 0.02289313, 0.03185994, 0, 0, 0
CTRL, 50760782, 0.00567542, 0.0001736403, 0.00516363, 0.0001966548, 6.440716E-05
PRX, 50760813, 2, 0.58, 0, 3.59, 0, 3.59, 0, 2.38, 0, 0, 0, 0.58
IMU, 50780624, -0.0006897811, -0.0004731598, -0.001116302, 0.1117992, -0.06900776, -9.748033, 0, 0, 40.69646, 1, 1, 1000, 1000
RFND, 50810524, 0.2, 25, 0, 0
IMU, 50820696, -0.0004424208, 0.0002660253, -0.001858119, 0.1170486, -0.05548619, -9.76294, 0, 0, 40.69834, 1, 1, 1000, 1000
MAG, 50860706, 230, 658, 187, 0, 0, 0, 0, 0, 0, 1, 50860697
RFND, 50860735, 0.2, 25, 0, 0
BARO, 50860774, 0.2599662, 988.1016, 39.54, -0.4044311, 50860, 0, 35
CTUN, 50860788, 0, 0, 0, 0.3086625, 0.079248, 0.079248, 0.25, 0, 0.19, 0, 0, 1
DU32, 50860827, 7, 50389208
ATT, 50861024, 0, 0.53, 0, -0.48, 359.35, 359.37, 0, 1
RATE, 50861030, -2.397305, -0.001659937, -0.005659909, 2.191481, 0.01133437, 0.005085377, -0.01001574, -0.04060289, 0.0001120524, -502.669, 0.7142067, 0
NKF1, 50861037, 0.53, -0.48, 359.36, 0.01579917, 0.01440412, -0.01241158, 0, 0, 0, -0.079248, 0, 0, 0
NKF2, 50861037, 6, 0, 0, 0, 0, 0, 0, 0, 0, 0, 0, 0, 0
NKF3, 50861037, 0, 0, 0, 0.02, 0.01, 0, 0, 0, 0, 0, 0
NKF4, 50861037, 0, 0, 0, 0, 0, 7.200589E-07, 0, 0, 0, 19, 229, 0, 0
NKF5, 50861037, 0, 0, 0, 0, 0.2, 0.13, 0, 0.19, 0.5, 3.61362E-05, 0.000918207, 0.002242616
NKQ1, 50861037, 0.9999622, 0.003654096, 0.005573663, -0.005599502
AHR2, 50861082, 0.51, -0.46, 359.33, 0.25, 0, 0, 0.9999651, 0.004443418, -0.004121299, -0.00575016
MOTB, 50861089, 1, 1, 0, 1
RCIN, 50861094, 0, 0, 0, 0, 0, 0, 0, 0, 0, 0, 0, 0, 0, 0
RCOU, 50861099, 1101, 1101, 1101, 1101, 0, 0, 0, 0, 0, 0, 0, 0, 0, 0
VIBE, 50861108, 0.02185673, 0.02367123, 0.03372456, 0, 0, 0
CTRL, 50861114, 0.005660452, 0.0001642027, 0.005170723, 0.000185256, 8.028837E-05
PRX, 50861145, 1, 0.58, 0, 3.59, 0, 3.59, 0, 2.38, 0, 0, 0, 0.58
IMU, 50861151, -0.0001469016, 0.0002503978, -0.000708387, 0.1083852, -0.06328285, -9.752585, 0, 0, 40.70009, 1, 1, 1000, 1000
IMU, 50900762, -0.0001909945, 0.0009487478, -0.0004146222, 0.1161959, -0.06921428, -9.747299, 0, 0, 40.70208, 1, 1, 1000, 1000
RFND, 50910747, 0.2, 25, 0, 0
IMU, 50940767, -0.0005677269, -0.001073589, -0.0002448732, 0.1254283, -0.06763626, -9.774782, 0, 0, 40.70392, 1, 1, 1000, 1000
MAG, 50960663, 228, 662, 183, 0, 0, 0, 0, 0, 0, 1, 50960655
RFND, 50960697, 0.2, 25, 0, 0
BARO, 50960734, 0.4097293, 988.0852, 39.54, -0.05033315, 50960, 0, 35
CTUN, 50960747, 0, 0, 0, 0.3086625, 0.07969355, 0.07969355, 0.4, 0, 0.19, 0, 0, 1
ATT, 50960901, 0, 0.53, 0, -0.49, 359.34, 359.36, 0, 1
RATE, 50960907, -2.401403, 0.09005067, -0.006037879, 2.210438, -0.07083084, 0.005426787, -0.009987263, 0.02934816, 1.740601E-05, -538.2336, 0.6464958, 0
NKF1, 50960915, 0.53, -0.49, 359.35, 0.01650122, 0.01456908, -0.01328972, 0, 0, 0, -0.07969355, 0, 0, 0
NKF2, 50960915, 6, 0, 0, 0, 0, 0, 0, 0, 0, 0, 0, 0, 0
NKF3, 50960915, 0, 0, 0, 0.02, 0.02, 0, 0, 0, 0, 0, 0
NKF4, 50960915, 0, 0, 0, 0, 0, 7.189865E-07, 0, 0, 0, 19, 229, 0, 0
NKF5, 50960915, 0, 0, 0, 0, 0.2, 0.13, 0, 0.19, 0.5, 3.688409E-05, 0.001017884, 0.002586558
NKQ1, 50960915, 0.9999622, 0.003663024, 0.005538106, -0.005606199
AHR2, 50960955, 0.51, -0.47, 359.33, 0.4, 0, 0, 0.9999649, 0.004454625, -0.004150334, -0.005756843
MOTB, 50960962, 1, 1, 0, 1
RCIN, 50960966, 0, 0, 0, 0, 0, 0, 0, 0, 0, 0, 0, 0, 0, 0
RCOU, 50960972, 1101, 1101, 1101, 1101, 0, 0, 0, 0, 0, 0, 0, 0, 0, 0
VIBE, 50960981, 0.02019413, 0.02181417, 0.03752785, 0, 0, 0
CTRL, 50960987, 0.005666295, 0.0001825095, 0.005196385, 0.0001771128, 8.06314E-05
PRX, 50961017, 1, 0.58, 0, 3.59, 0, 3.59, 0, 2.38, 0, 0, 0, 0.58
IMU, 50980842, -0.0001346727, -0.0003121587, 0.0004467374, 0.1231062, -0.06592316, -9.76926, 0, 0, 40.70539, 1, 1, 1000, 1000
RFND, 51010515, 0.2, 25, 0, 0
IMU, 51020654, -8.242327E-05, -0.0001628427, 0.0006791305, 0.1183332, -0.07448176, -9.740279, 0, 0, 40.70654, 1, 1, 1000, 1000
MAG, 51060573, 224, 662, 188, 0, 0, 0, 0, 0, 0, 1, 51060564
RFND, 51060607, 0.2, 25, 0, 0
BARO, 51060644, 0.3701693, 988.0895, 39.55, 0.3240747, 51060, 0, 35
CTUN, 51060657, 0, 0, 0, 0.3086625, 0.08030233, 0.08030233, 0.37, 0, 0.19, 0, 0, 1
ATT, 51060753, 0, 0.53, 0, -0.49, 359.34, 359.36, 0, 1
RATE, 51060759, -2.394211, 0.01212663, -0.005809272, 2.216438, -0.04130642, 0.005424622, -0.01137456, -0.02715624, 1.723273E-05, -564.7794, 1.09129, 0
NKF1, 51060766, 0.53, -0.49, 359.35, 0.01702918, 0.0146429, -0.01394517, 0, 0, 0, -0.08030232, 0, 0, 0
NKF2, 51060766, 6, 0, 0, 0, 0, 0, 0, 0, 0, 0, 0, 0, 0
NKF3, 51060766, 0, 0, 0, 0.02, 0.02, 0, 0, 0, 0, 0, 0
NKF4, 51060766, 0, 0, 0, 0, 0, 7.436191E-07, 0, 0, 0, 19, 229, 0, 0
NKF5, 51060766, 0, 0, 0, 0, 0.2, 0.13, 0, 0.19, 0.5, 3.701847E-05, 0.0008427042, 0.002061723
NKQ1, 51060766, 0.9999624, 0.003649422, 0.005524281, -0.005612158
AHR2, 51060808, 0.51, -0.47, 359.33, 0.37, 0, 0, 0.9999649, 0.004438827, -0.004161189, -0.005762557
MOTB, 51060815, 1, 1, 0, 1
RCIN, 51060819, 0, 0, 0, 0, 0, 0, 0, 0, 0, 0, 0, 0, 0, 0
RCOU, 51060825, 1101, 1101, 1101, 1101, 0, 0, 0, 0, 0, 0, 0, 0, 0, 0
VIBE, 51060834, 0.02038917, 0.02014203, 0.03666909, 0, 0, 0
CTRL, 51060840, 0.005655835, 0.0001756612, 0.005219479, 0.0001873138, 6.714647E-05
PRX, 51060870, 1, 0.58, 0, 3.59, 0, 3.59, 0, 2.38, 0, 0, 0, 0.58
IMU, 51060877, 9.415575E-05, -0.0006685607, -0.0004737011, 0.1107609, -0.07121393, -9.756502, 0, 0, 40.70752, 1, 1, 1000, 1000
IMU, 51100638, 0.0008957854, 0.0005598577, -0.0005785277, 0.1023067, -0.06811573, -9.745989, 0, 0, 40.70847, 1, 1, 1000, 1000
RFND, 51110564, 0.2, 25, 0, 0
IMU, 51140568, 2.277422E-05, 0.0005139252, -0.0006363643, 0.1243736, -0.07761116, -9.744177, 0, 0, 40.70926, 1, 1, 1000, 1000
MAG, 51160658, 226, 659, 183, 0, 0, 0, 0, 0, 0, 1, 51160649
RFND, 51160692, 0.2, 25, 0, 0
BARO, 51160729, 0.3334349, 988.0934, 39.55, 0.5015652, 51160, 0, 35
CTUN, 51160742, 0, 0, 0, 0.3086625, 0.08076283, 0.08076283, 0.33, 0, 0.19, 0, 0, 1
ATT, 51160842, 0, 0.53, 0, -0.49, 359.34, 359.36, 0, 1
RATE, 51160848, -2.39277, -0.01655534, -0.005436963, 2.214415, -0.06681164, 0.005534342, -0.01054421, 0.02112634, 3.064288E-05, -593.7341, 0.7846832, 0
NKF1, 51160856, 0.53, -0.49, 359.35, 0.0172698, 0.01441718, -0.0146601, 0, 0, 0, -0.08076283, 0, 0, 0
NKF2, 51160856, 6, 0, 0, 0, 0, 0, 0, 0, 0, 0, 0, 0, 0
NKF3, 51160856, 0, 0, 0, 0.02, 0.02, -0.01, 0, 0, 0, 0, 0
NKF4, 51160856, 0, 0, 0, 0, 0, 8.084784E-07, 0, 0, 0, 19, 229, 0, 0
NKF5, 51160856, 0, 0, 0, 0, 0.2, 0.13, 0, 0.19, 0.5, 3.78316E-05, 0.0009369468, 0.002390848
NKQ1, 51160856, 0.9999622, 0.003646995, 0.005529555, -0.005633493
AHR2, 51160898, 0.51, -0.47, 359.33, 0.33, 0, 0, 0.9999648, 0.004434465, -0.004153073, -0.005783793
MOTB, 51160906, 1, 1, 0, 1
RCIN, 51160910, 0, 0, 0, 0, 0, 0, 0, 0, 0, 0, 0, 0, 0, 0
RCOU, 51160916, 1101, 1101, 1101, 1101, 0, 0, 0, 0, 0, 0, 0, 0, 0, 0
VIBE, 51160925, 0.02260015, 0.02069941, 0.03466721, 0, 0, 0
CTRL, 51160932, 0.005657747, 0.000185657, 0.005215421, 0.0001842406, 6.058813E-05
PRX, 51160962, 2, 0.58, 0, 3.59, 0, 3.59, 0, 2.38, 0, 0, 0, 0.58
IMU, 51180760, -0.0008974852, -0.0007304303, 0.000714599, 0.1023248, -0.08063775, -9.761959, 0, 0, 40.70936, 1, 1, 1000, 1000
RFND, 51210637, 0.2, 25, 0, 0
IMU, 51220742, 0.0003236526, 0.001530518, -0.000854409, 0.1135815, -0.07699915, -9.763339, 0, 0, 40.70976, 1, 1, 1000, 1000
MAG, 51260696, 227, 663, 186, 0, 0, 0, 0, 0, 0, 1, 51260687
RFND, 51260730, 0.2, 25, 0, 0
BARO, 51260768, 0.2882234, 988.0986, 39.55, 0.3178934, 51260, 0, 35
CTUN, 51260781, 0, 0, 0, 0.3086625, 0.08147349, 0.08147349, 0.28, 0, 0.19, 0, 0, 1
ATT, 51260884, 0, 0.52, 0, -0.48, 359.34, 359.36, 0, 1
RATE, 51260890, -2.383842, -0.06914148, -0.005239392, 2.204321, 0.02791177, 0.005052378, -0.01058862, 0.02155963, 1.266371E-05, -634.5018, 1.843166, 0
NKF1, 51260897, 0.52, -0.48, 359.35, 0.01724616, 0.01379583, -0.01566671, 0, 0, 0, -0.08147349, 0, 0, 0
NKF2, 51260897, 6, 0, 0, 0, 0, 0, 0, 0, 0, 0, 0, 0, 0
NKF3, 51260897, 0, 0, 0, 0.02, 0.02, -0.01, 0, 0, 0, 0, 0
NKF4, 51260897, 0, 0, 0, 0, 0, 8.696079E-07, 0, 0, 0, 19, 229, 0, 0
NKF5, 51260897, 0, 0, 0, 0, 0.21, 0.13, 0, 0.19, 0.5, 3.767221E-05, 0.0007627751, 0.001861871
NKQ1, 51260897, 0.9999622, 0.003630381, 0.00554869, -0.00563395
AHR2, 51260940, 0.5, -0.47, 359.33, 0.28, 0, 0, 0.999965, 0.004420593, -0.004130945, -0.005784043
MOTB, 51260948, 1, 1, 0, 1
RCIN, 51260952, 0, 0, 0, 0, 0, 0, 0, 0, 0, 0, 0, 0, 0, 0
RCOU, 51260958, 1101, 1101, 1101, 1101, 0, 0, 0, 0, 0, 0, 0, 0, 0, 0
VIBE, 51260966, 0.019992, 0.01930362, 0.03157459, 0, 0, 0
CTRL, 51260973, 0.005638323, 0.0001864806, 0.005202486, 0.0001857703, 5.204551E-05
PRX, 51261004, 2, 0.58, 0, 3.59, 0, 3.59, 0, 2.38, 0, 0, 0, 0.58
IMU, 51261011, -0.001324747, 0.0005397395, 0.0003765506, 0.1085553, -0.07189003, -9.763786, 0, 0, 40.71042, 1, 1, 1000, 1000
IMU, 51300753, 0.0004665742, 0.0002562678, -0.0007686003, 0.119691, -0.06315947, -9.76281, 0, 0, 40.7115, 1, 1, 1000, 1000
RFND, 51310709, 0.2, 25, 0, 0
IMU, 51340770, -0.0008341939, 0.0008206433, 0.0007396145, 0.1287021, -0.07321148, -9.750174, 0, 0, 40.71249, 1, 1, 1000, 1000
MAG, 51360564, 224, 659, 190, 0, 0, 0, 0, 0, 0, 1, 51360556
RFND, 51360596, 0.2, 25, 0, 0
BARO, 51360631, 0.1978004, 988.1085, 39.56, -0.09536804, 51360, 0, 35
CTUN, 51360643, 0, 0, 0, 0.3086625, 0.0820321, 0.0820321, 0.19, 0, 0.19, 0, 0, 1
ATT, 51360815, 0, 0.52, 0, -0.48, 359.34, 359.36, 0, 1
RATE, 51360822, -2.385366, 0.03658807, -0.005778902, 2.197263, 0.05998244, 0.00492746, -0.01041159, 0.003734019, -5.521496E-05, -675.795, 2.086735, 0
NKF1, 51360829, 0.52, -0.48, 359.35, 0.01889274, 0.01401269, -0.0166863, 0, 0, 0, -0.0820321, 0, 0, 0
NKF2, 51360829, 6, 0, 0, 0, 0, 0, 0, 0, 0, 0, 0, 0, 0
NKF3, 51360829, 0, 0, 0, 0.03, 0.02, -0.01, 0, 0, 0, 0, 0
NKF4, 51360829, 0, 0, 0, 0, 0, 9.812934E-07, 0, 0, 0, 19, 229, 0, 0
NKF5, 51360829, 0, 0, 0, 0, 0.21, 0.13, 0, 0.19, 0.5, 3.844186E-05, 0.0008512018, 0.002183538
NKQ1, 51360829, 0.9999622, 0.00363225, 0.005562852, -0.005635627
AHR2, 51360873, 0.5, -0.46, 359.33, 0.19, 0, 0, 0.999965, 0.004425181, -0.00411376, -0.005785693
MOTB, 51360880, 1, 1, 0, 1
RCIN, 51360884, 0, 0, 0, 0, 0, 0, 0, 0, 0, 0, 0, 0, 0, 0
RCOU, 51360890, 1101, 1101, 1101, 1101, 0, 0, 0, 0, 0, 0, 0, 0, 0, 0
VIBE, 51360898, 0.02084683, 0.01904473, 0.02990499, 0, 0, 0
CTRL, 51360905, 0.005634219, 0.0001917055, 0.005184624, 0.0001722887, 4.67186E-05
PRX, 51360958, 1, 0.58, 0, 3.59, 0, 3.59, 0, 2.38, 0, 0, 0, 0.58
IMU, 51380829, -0.0003507819, -3.728579E-05, 0.0003243702, 0.1366021, -0.07164669, -9.763481, 0, 0, 40.71307, 1, 1, 1000, 1000
RFND, 51410517, 0.2, 25, 0, 0
IMU, 51420618, 0.0002973786, -0.000743584, -0.001373885, 0.113928, -0.07054613, -9.764783, 0, 0, 40.71352, 1, 1, 1000, 1000
MAG, 51460536, 230, 660, 186, 0, 0, 0, 0, 0, 0, 1, 51460527
RFND, 51460569, 0.2, 25, 0, 0
BARO, 51460604, 0.2543148, 988.1022, 39.56, -0.3947177, 51460, 0, 35
CTUN, 51460617, 0, 0, 0, 0.3086625, 0.08285728, 0.08285728, 0.25, 0, 0.19, 0, 0, 1
ATT, 51460709, 0, 0.52, 0, -0.48, 359.34, 359.36, 0, 1
RATE, 51460715, -2.371053, -0.04577568, -0.005532254, 2.203722, -0.02112403, 0.005374369, -0.01050755, 0.001974459, -2.986467E-05, -712.6152, 1.060772, 0
NKF1, 51460722, 0.52, -0.48, 359.35, 0.01980706, 0.01397973, -0.01759544, 0, 0, 0, -0.08285729, 0, 0, 0
NKF2, 51460722, 6, 0, 0, 0, 0, 0, 0, 0, 0, 0, 0, 0, 0
NKF3, 51460722, 0, 0, 0, 0.03, 0.03, -0.01, 0, 0, 0, 0, 0
NKF4, 51460722, 0, 0, 0, 0, 0, 1.071301E-06, 0, 0, 0, 19, 229, 0, 0
NKF5, 51460722, 0, 0, 0, 0, 0.21, 0.13, 0, 0.19, 0.5, 3.92175E-05, 0.001068692, 0.002815629
NKQ1, 51460722, 0.9999622, 0.003604488, 0.005550372, -0.005632963
AHR2, 51460764, 0.5, -0.46, 359.33, 0.25, 0, 0, 0.9999651, 0.004401943, -0.004121322, -0.005782691
MOTB, 51460770, 1, 1, 0, 1
RCIN, 51460774, 0, 0, 0, 0, 0, 0, 0, 0, 0, 0, 0, 0, 0, 0
RCOU, 51460780, 1101, 1101, 1101, 1101, 0, 0, 0, 0, 0, 0, 0, 0, 0, 0
VIBE, 51460789, 0.01912057, 0.0177818, 0.03245495, 0, 0, 0
CTRL, 51460795, 0.005604443, 0.0001918397, 0.005187905, 0.0001640537, 4.902118E-05
PRX, 51460826, 1, 0.58, 0, 3.59, 0, 3.59, 0, 2.38, 0, 0, 0, 0.58
IMU, 51460833, -0.0009166866, -0.0003162386, 3.471946E-05, 0.1189654, -0.06691536, -9.756016, 0, 0, 40.71391, 1, 1, 1000, 1000
IMU, 51500731, 0.0004164285, 6.760073E-05, -0.0007795427, 0.1168383, -0.07527426, -9.761736, 0, 0, 40.71428, 1, 1, 1000, 1000
RFND, 51510741, 0.2, 25, 0, 0
EV, 51535606, 57
IMU, 51540777, -0.0003660582, 0.0006288376, -0.0005811836, 0.1056964, -0.0748059, -9.736387, 0, 0, 40.71472, 1, 1, 1000, 1000
MAG, 51560692, 231, 661, 184, 0, 0, 0, 0, 0, 0, 1, 51560683
RFND, 51560726, 0.2, 25, 0, 0
BARO, 51560764, 0.1384603, 988.1149, 39.57, -0.4415187, 51560, 0, 35
CTUN, 51560777, 0, 0, 0, 0.3086625, 0.0835465, 0.0835465, 0.13, 0, 0.19, 0, 0, 1
ATT, 51560880, 0, 0.52, 0, -0.48, 359.34, 359.36, 0, 1
RATE, 51560886, -2.37075, 0.01512364, -0.005764885, 2.200448, 0.03566648, 0.005092133, -0.01010869, 0.009710554, 4.232425E-05, -702.737, -0.8672714, 0
NKF1, 51560894, 0.52, -0.48, 359.35, 0.02007388, 0.01395804, -0.01735153, 0, 0, 0, -0.0835465, 0, 0, 0
NKF2, 51560894, 6, 0, 0, 0, 0, 0, 0, 0, 0, 0, 0, 0, 0
NKF3, 51560894, 0, 0, 0, 0.03, 0.03, -0.01, 0, 0, 0, 0, 0
NKF4, 51560894, 0, 0, 0, 0, 0, 1.212813E-06, 0, 0, 0, 19, 229, 0, 0
NKF5, 51560894, 0, 0, 0, 0, 0.21, 0.13, 0, 0.19, 0.5, 3.889321E-05, 0.0007709932, 0.001980068
NKQ1, 51560894, 0.999962, 0.003605314, 0.005555736, -0.005661776
AHR2, 51560937, 0.5, -0.46, 359.33, 0.13, 0, 0, 0.999965, 0.004406998, -0.004111154, -0.005811478
MOTB, 51560944, 1, 1, 0, 1
RCIN, 51560948, 0, 0, 0, 0, 0, 0, 0, 0, 0, 0, 0, 0, 0, 0
RCOU, 51560954, 1106, 1106, 1106, 1106, 0, 0, 0, 0, 0, 0, 0, 0, 0, 0
VIBE, 51560963, 0.02052104, 0.02236489, 0.03551816, 0, 0, 0
CTRL, 51560970, 0.0055951, 0.0001715677, 0.005194922, 0.000166251, 4.75238E-05
PRX, 51561000, 1, 0.58, 0, 3.59, 0, 3.59, 0, 2.38, 0, 0, 0, 0.58
IMU, 51580773, -0.0003894165, 0.0007295205, -3.049345E-05, 0.1131816, -0.06035647, -9.742083, 0, 0, 40.71508, 1, 1, 1000, 1000
RFND, 51610670, 0.2, 25, 0, 0
IMU, 51620930, -0.001131305, -9.122524E-05, -0.001317701, 0.1184631, -0.08746943, -9.747168, 0, 0, 40.71455, 1, 1, 1000, 1000
MAG, 51660706, 230, 657, 188, 0, 0, 0, 0, 0, 0, 1, 51660697
RFND, 51660737, 0.2, 25, 0, 0
BARO, 51660776, 0.1356345, 988.1153, 39.57, -0.3699927, 51660, 0, 35
CTUN, 51660790, 0, 0, 0, 0.3086625, 0.08418812, 0.08418812, 0.13, 0, 0.19, 0, 0, 1
ATT, 51660896, 0, 0.52, 0, -0.48, 359.34, 359.36, 0, 1
RATE, 51660902, -2.357252, 0.02133995, -0.005878366, 2.20413, -0.008768777, 0.005226535, -0.01006151, -0.0167031, 4.304005E-05, -703.3333, 0.7855415, 0
NKF1, 51660909, 0.52, -0.48, 359.35, 0.0203069, 0.01347967, -0.01736625, 0, 0, 0, -0.08418812, 0, 0, 0
NKF2, 51660909, 6, 0, 0, 0, 0, 0, 0, 0, 0, 0, 0, 0, 0
NKF3, 51660909, 0, 0, 0, 0.03, 0.03, -0.01, 0, 0, 0, 0, 0
NKF4, 51660909, 0, 0, 0, 0, 0, 1.35114E-06, 0, 0, 0, 19, 229, 0, 0
NKF5, 51660909, 0, 0, 0, 0, 0.21, 0.13, 0, 0.19, 0.5, 3.967466E-05, 0.0009660331, 0.00256523
NKQ1, 51660909, 0.9999621, 0.003577346, 0.005549565, -0.00568861
AHR2, 51660982, 0.5, -0.46, 359.32, 0.13, 0, 0, 0.9999649, 0.004381501, -0.004112838, -0.005837977
MOTB, 51660990, 1, 1, 0, 1
RCIN, 51660994, 0, 0, 0, 0, 0, 0, 0, 0, 0, 0, 0, 0, 0, 0
RCOU, 51661000, 1130, 1130, 1130, 1130, 0, 0, 0, 0, 0, 0, 0, 0, 0, 0
VIBE, 51661008, 0.02041715, 0.02358782, 0.03527701, 0, 0, 0
CTRL, 51661014, 0.005564909, 0.000159161, 0.005192032, 0.0001729437, 4.92658E-05
PRX, 51661044, 2, 0.58, 0, 3.59, 0, 3.59, 0, 2.38, 0, 0, 0, 0.58
IMU, 51661052, 0.0002547105, -0.0001006224, -0.0002912687, 0.1111383, -0.0635094, -9.75338, 0, 0, 40.71413, 1, 1, 1000, 1000
IMU, 51700830, 0.0007399183, 6.927854E-05, -0.0008304945, 0.113176, -0.08163747, -9.746614, 0, 0, 40.7137, 1, 1, 1000, 1000
RFND, 51710714, 0.2, 25, 0, 0
IMU, 51741226, -0.0001145783, 0.000142779, -0.0004562971, 0.1175988, -0.07924251, -9.761873, 0, 0, 40.7135, 1, 1, 1000, 1000
MAG, 51760693, 227, 656, 186, 0, 0, 0, 0, 0, 0, 1, 51760684
RFND, 51760724, 0.2, 25, 0, 0
BARO, 51760762, 0.1017259, 988.1189, 39.57, -0.355864, 51760, 0, 35
CTUN, 51760776, 0, 0, 0, 0.3086625, 0.08486416, 0.08486416, 0.1, 0, 0.19, 0, 0, 1
ATT, 51760879, 0, 0.52, 0, -0.49, 359.33, 359.35, 0, 1
RATE, 51760885, -2.358908, -0.01700636, -0.005445949, 2.20955, -0.04452733, 0.00535945, -0.01009467, 0.03291772, 5.735055E-05, -709.0802, -0.05474091, 0
NKF1, 51760892, 0.52, -0.49, 359.34, 0.02100335, 0.01336453, -0.01750815, 0, 0, 0, -0.08486416, 0, 0, 0
NKF2, 51760892, 6, 0, 0, 0, 0, 0, 0, 0, 0, 0, 0, 0, 0
NKF3, 51760892, 0, 0, 0, 0.03, 0.03, -0.01, 0, 0, 0, 0, 0
NKF4, 51760892, 0, 0, 0, 0, 0, 1.494805E-06, 0, 0, 0, 19, 229, 0, 0
NKF5, 51760892, 0, 0, 0, 0, 0.21, 0.13, 0, 0.19, 0.5, 3.925861E-05, 0.0006760709, 0.00174748
NKQ1, 51760892, 0.999962, 0.003581791, 0.005539514, -0.005713509
AHR2, 51760961, 0.5, -0.46, 359.32, 0.09999999, 0, 0, 0.9999647, 0.004388496, -0.004118497, -0.00586286
MOTB, 51760970, 1, 1, 0, 1
RCIN, 51760974, 0, 0, 0, 0, 0, 0, 0, 0, 0, 0, 0, 0, 0, 0
RCOU, 51760980, 1154, 1154, 1154, 1154, 0, 0, 0, 0, 0, 0, 0, 0, 0, 0
VIBE, 51760989, 0.01917095, 0.02226594, 0.03470123, 0, 0, 0
CTRL, 51760996, 0.005574897, 0.000158844, 0.005204173, 0.0001553295, 6.254218E-05
PRX, 51761026, 2, 0.58, 0, 3.59, 0, 3.59, 0, 2.38, 0, 0, 0, 0.58
IMU, 51780736, 9.041706E-05, -0.000773921, -0.0002274911, 0.1182143, -0.0688521, -9.75488, 0, 0, 40.71343, 1, 1, 1000, 1000
RFND, 51810626, 0.2, 25, 0, 0
IMU, 51820777, -0.001450791, -0.0001695666, 0.0003968721, 0.1032338, -0.06870634, -9.752028, 0, 0, 40.71338, 1, 1, 1000, 1000
MAG, 51860701, 226, 663, 187, 0, 0, 0, 0, 0, 0, 1, 51860693
RFND, 51860730, 0.2, 25, 0, 0
BARO, 51860770, 0.03673435, 988.1261, 39.58, -0.3841212, 51860, 0, 35
CTUN, 51860783, 0, 0, 0, 0.3086625, 0.08540823, 0.08540823, 0.03, 0, 0.19, 0, 0, 1
DU32, 51860824, 7, 33611992
ATT, 51861023, 0, 0.52, 0, -0.49, 359.33, 359.35, 0, 1
RATE, 51861030, -2.358823, 0.106555, -0.006269982, 2.20605, 0.06471008, 0.004801314, -0.01007714, -0.1758775, 0.0001265179, -710.0244, -0.8342743, 0
NKF1, 51861038, 0.52, -0.49, 359.34, 0.02137169, 0.01327933, -0.01753146, 0, 0, 0, -0.08540823, 0, 0, 0
NKF2, 51861038, 6, 0, 0, 0, 0, 0, 0, 0, 0, 0, 0, 0, 0
NKF3, 51861038, 0, 0, 0, 0.04, 0.03, -0.01, 0, 0, 0, 0, 0
NKF4, 51861038, 0, 0, 0, 0, 0, 1.665547E-06, 0, 0, 0, 19, 229, 0, 0
NKF5, 51861038, 0, 0, 0, 0, 0.21, 0.13, 0, 0.19, 0.5, 4.019222E-05, 0.0008832536, 0.002369285
NKQ1, 51861038, 0.9999617, 0.003577946, 0.005542905, -0.005752943
AHR2, 51861081, 0.5, -0.46, 359.32, 0.03, 0, 0, 0.9999645, 0.004388384, -0.004113046, -0.005902208
MOTB, 51861088, 1, 1, 0, 1
RCIN, 51861093, 0, 0, 0, 0, 0, 0, 0, 0, 0, 0, 0, 0, 0, 0
RCOU, 51861098, 1178, 1178, 1178, 1178, 0, 0, 0, 0, 0, 0, 0, 0, 0, 0
VIBE, 51861107, 0.05776696, 0.06355115, 0.03881469, 0, 0, 0
CTRL, 51861113, 0.005556109, 0.0001745227, 0.005206168, 0.0001624862, 5.687757E-05
PRX, 51861143, 1, 0.58, 0, 3.59, 0, 3.59, 0, 2.38, 0, 0, 0, 0.58
IMU, 51861150, 0.001742013, 0.001181792, -0.00306939, 0.1015996, -0.06546268, -9.737283, 0, 0, 40.71331, 1, 1, 1000, 1000
IMU, 51900768, 0.0003888971, -1.163113E-05, -0.006102651, 0.1229985, -0.08464752, -9.75236, 0, 0, 40.71329, 1, 1, 1000, 1000
RFND, 51910672, 0.2, 25, 0, 0
IMU, 51940850, -0.001345527, 0.001626019, 0.004721991, 0.1906058, -0.04678984, -9.683607, 0, 0, 40.71338, 1, 1, 1000, 1000
MAG, 51960719, 226, 663, 190, 0, 0, 0, 0, 0, 0, 1, 51960710
RFND, 51960750, 0.2, 25, 0, 0
BARO, 51960789, 0.06781727, 988.1227, 39.58, -0.3699927, 51960, 0, 35
CTUN, 51960802, 0, 0, 0, 0.3086625, 0.08608085, 0.08608085, 0.06, 0, 0.19, 0, 0, 1
ATT, 51960907, 0, 0.52, 0, -0.48, 359.32, 359.34, 0, 1
RATE, 51960914, -2.340419, -0.04477413, -0.005655953, 2.165962, 0.1482173, 0.005227804, -0.0098152, 0.2031728, -3.394382E-05, -661.4908, 2.984142, 0
NKF1, 51960921, 0.52, -0.48, 359.33, 0.0208331, 0.01182529, -0.01633311, 0, 0, 0, -0.08608085, 0, 0, 0
NKF2, 51960921, 6, 0, 0, 0, 0, 0, 0, 0, 0, 0, 0, 0, 0
NKF3, 51960921, 0, 0, 0, 0.04, 0.03, -0.01, 0, 0, 0, 0, 0
NKF4, 51960921, 0, 0, 0, 0, 0, 1.820351E-06, 0, 0, 0, 19, 229, 0, 0
NKF5, 51960921, 0, 0, 0, 0, 0.21, 0.13, 0, 0.19, 0.5, 3.96113E-05, 0.0006007719, 0.001545024
NKQ1, 51960921, 0.9999609, 0.003549638, 0.005627005, -0.005831832
AHR2, 51960965, 0.5, -0.45, 359.31, 0.06, 0, 0, 0.9999645, 0.004363479, -0.004026955, -0.005980862
MOTB, 51960972, 1, 1, 0, 1
RCIN, 51960976, 0, 0, 0, 0, 0, 0, 0, 0, 0, 0, 0, 0, 0, 0
RCOU, 51960982, 1202, 1202, 1202, 1202, 0, 0, 0, 0, 0, 0, 0, 0, 0, 0
VIBE, 51960990, 0.214178, 0.2123516, 0.2944829, 0, 0, 0
CTRL, 51960997, 0.005544163, 0.0003186261, 0.005117848, 0.0002984996, 0.000281916
PRX, 51961028, 1, 0.58, 0, 3.59, 0, 3.59, 0, 2.38, 0, 0, 0, 0.58
IMU, 51980948, 0.0005095681, 0.00444115, -0.01030707, 0.1454634, 0.00649411, -9.714349, 0, 0, 40.71336, 1, 1, 1000, 1000
RFND, 52010669, 0.2, 25, 0, 0
IMU, 52020739, -0.003118019, -0.0008541004, 0.00623226, 0.1072941, -0.07191757, -9.736042, 0, 0, 40.71325, 1, 1, 1000, 1000
MAG, 52060737, 228, 660, 193, 0, 0, 0, 0, 0, 0, 1, 52060728
RFND, 52060771, 0.2, 25, 0, 0
BARO, 52060808, 0.06781727, 988.1227, 39.58, -0.3011158, 52060, 0, 35
CTUN, 52060821, 0, 0, 0, 0.3086625, 0.08636199, 0.08636199, 0.06, 0, 0.19, 0, 0, 1
ATT, 52060924, 0, 0.51, 0, -0.46, 359.32, 359.34, 0, 1
RATE, 52060930, -2.343417, -0.2034053, -0.0038129, 2.072902, 0.3016198, 0.003304532, -0.00942474, -1.465644, -0.0005347886, -731.9932, 6.219578, 0
NKF1, 52060994, 0.51, -0.46, 359.33, 0.02272661, 0.01106533, -0.01807391, 0, 0, 0, -0.08636199, 0, 0, 0
NKF2, 52060994, 6, 0, 0, 0, 0, 0, 0, 0, 0, 0, 0, 0, 0
NKF3, 52060994, 0, 0, 0, 0.04, 0.03, -0.01, 0, 0, 0, 0, 0
NKF4, 52060994, 0, 0, 0, 0, 0, 2.034458E-06, 0, 0, 0, 19, 229, 0, 0
NKF5, 52060994, 0, 0, 0, 0, 0.21, 0.13, 0, 0.19, 0.5, 4.078096E-05, 0.0007999226, 0.002175853
NKQ1, 52060994, 0.9999601, 0.003531549, 0.005776957, -0.00583795
AHR2, 52061039, 0.5, -0.44, 359.31, 0.06, 0, 0, 0.9999651, 0.004346662, -0.00387915, -0.005986899
MOTB, 52061046, 1, 1, 0, 1
RCIN, 52061051, 0, 0, 0, 0, 0, 0, 0, 0, 0, 0, 0, 0, 0, 0
RCOU, 52061056, 1233, 1221, 1227, 1228, 0, 0, 0, 0, 0, 0, 0, 0, 0, 0
VIBE, 52061065, 0.4485952, 0.4622759, 0.4542826, 0, 0, 0
CTRL, 52061071, 0.00554069, 0.0005285633, 0.004998331, 0.0005351337, 0.0004223326
PRX, 52061102, 1, 0.58, 0, 3.59, 0, 3.59, 0, 2.38, 0, 0, 0, 0.58
IMU, 52061110, -0.003667759, 0.005316593, -0.02558006, 0.2055539, -0.1055945, -9.806372, 0, 0, 40.71322, 1, 1, 1000, 1000
IMU, 52100766, 0.002962235, -0.002839708, 0.003918722, 0.1259976, -0.06747716, -9.728552, 0, 0, 40.71317, 1, 1, 1000, 1000
RFND, 52110711, 0.2, 25, 0, 0
IMU, 52140753, 0.001337848, -0.004171268, 0.004574168, 0.07797717, -0.01925584, -9.712955, 0, 0, 40.71264, 1, 1, 1000, 1000
MAG, 52160825, 232, 660, 194, 0, 0, 0, 0, 0, 0, 1, 52160817
RFND, 52160859, 0.2, 25, 0, 0
BARO, 52160897, 0.03673435, 988.1261, 39.58, -0.1695432, 52160, 0, 35
CTUN, 52160909, 0, 0, 0, 0.3086625, 0.08685631, 0.08685631, 0.03, 0, 0.19, 0, 0, 1
ATT, 52161064, 0, 0.52, 0, -0.46, 359.32, 359.34, 0, 1
RATE, 52161071, -2.352865, -0.00807948, -0.005080646, 2.109658, 0.1747601, 0.003318105, -0.009605694, 0.8894521, -0.0003531621, -640.7758, 1.260471, 0
NKF1, 52161078, 0.52, -0.46, 359.33, 0.02105791, 0.01166869, -0.01582162, 0, 0, 0, -0.08685631, 0, 0, 0
NKF2, 52161078, 6, 0, 0, 0, 0, 0, 0, 0, 0, 0, 0, 0, 0
NKF3, 52161078, 0, 0, 0, 0.04, 0.03, -0.01, 0, 0, 0, 0, 0
NKF4, 52161078, 0, 0, 0, 0, 0, 2.198916E-06, 0, 0, 0, 19, 229, 0, 0
NKF5, 52161078, 0, 0, 0, 0, 0.21, 0.13, 0, 0.19, 0.5, 4.205779E-05, 0.001194881, 0.003230745
NKQ1, 52161078, 0.9999601, 0.003585702, 0.005747708, -0.005831547
AHR2, 52161118, 0.5, -0.44, 359.31, 0.03, 0, 0, 0.9999648, 0.004402218, -0.003910516, -0.005980931
MOTB, 52161125, 1, 1, 0, 1
RCIN, 52161130, 0, 0, 0, 0, 0, 0, 0, 0, 0, 0, 0, 0, 0, 0
RCOU, 52161135, 1235, 1221, 1227, 1230, 0, 0, 0, 0, 0, 0, 0, 0, 0, 0
VIBE, 52161145, 0.5047116, 0.4240311, 0.4093219, 0, 0, 0
CTRL, 52161151, 0.005578019, 0.0006126828, 0.004997426, 0.0007059008, 0.0004761262
PRX, 52161182, 2, 0.58, 0, 3.59, 0, 3.59, 0, 2.38, 0, 0, 0, 0.58
IMU, 52180781, -0.005085005, 0.001512874, -0.02218536, 0.1343045, -0.08359109, -9.797074, 0, 0, 40.712, 1, 1, 1000, 1000
RFND, 52210659, 0.2, 25, 0, 0
IMU, 52220756, -0.01039199, 1.04917E-05, 0.0001158437, 0.08555868, -0.1059513, -9.737078, 0, 0, 40.71162, 1, 1, 1000, 1000
MAG, 52260723, 233, 661, 193, 0, 0, 0, 0, 0, 0, 1, 52260714
RFND, 52260757, 0.2, 25, 0, 0
BARO, 52260795, 0.1017259, 988.1189, 39.57, -0.04326883, 52260, 0, 35
CTUN, 52260808, 0, 0, 0, 0.3086625, 0.08701042, 0.08701042, 0.1, 0, 0.19, 0, 0, 1
ATT, 52260915, 0, 0.51, 0, -0.46, 359.32, 359.34, 0, 1
RATE, 52260922, -2.322303, -0.02429773, -0.002513966, 2.100253, 0.1421875, 0.005009502, -0.009438993, 0.6930273, -0.0004431412, -625.908, -0.4226685, 0
NKF1, 52260929, 0.51, -0.46, 359.33, 0.02061594, 0.01019036, -0.01545452, 0, 0, 0, -0.08701042, 0, 0, 0
NKF2, 52260929, 6, 0, 0, 0, 0, 0, 0, 0, 0, 0, 0, 0, 0
NKF3, 52260929, 0, 0, 0, 0.04, 0.03, -0.01, 0, 0, 0, 0, 0
NKF4, 52260929, 0, 0, 0, 0, 0, 2.454019E-06, 0, 0, 0, 19, 229, 0, 0
NKF5, 52260929, 0, 0, 0, 0, 0.21, 0.13, 0, 0.19, 0.5, 4.127501E-05, 0.000720494, 0.001983484
NKQ1, 52260929, 0.9999601, 0.003523079, 0.005762986, -0.005851703
AHR2, 52260971, 0.49, -0.44, 359.31, 0.09999999, 0, 0, 0.999965, 0.004335338, -0.003900333, -0.006000371
MOTB, 52260978, 1, 1, 0, 1
RCIN, 52260982, 0, 0, 0, 0, 0, 0, 0, 0, 0, 0, 0, 0, 0, 0
RCOU, 52260988, 1234, 1221, 1230, 1226, 0, 0, 0, 0, 0, 0, 0, 0, 0, 0
VIBE, 52260996, 0.4245111, 0.3929431, 0.4565844, 0, 0, 0
CTRL, 52261004, 0.005618606, 0.001518094, 0.004944445, 0.0006520574, 0.0004270998
PRX, 52261035, 2, 0.58, 0, 3.59, 0, 3.59, 0, 2.38, 0, 0, 0, 0.58
IMU, 52261042, -0.0005417053, 0.002533924, 0.01209585, 0.02607214, -0.1759603, -9.741547, 0, 0, 40.71158, 1, 1, 1000, 1000
IMU, 52300786, 0.002382486, 0.009587301, 0.02158425, 0.08433523, -0.05469583, -9.754843, 0, 0, 40.71174, 1, 1, 1000, 1000
RFND, 52310669, 0.2, 25, 0, 0
IMU, 52341669, -0.007592527, 0.001250996, 0.009814679, 0.1118953, -0.004499433, -9.739415, 0, 0, 40.71154, 1, 1, 1000, 1000
MAG, 52360707, 227, 657, 191, 0, 0, 0, 0, 0, 0, 1, 52360699
RFND, 52360740, 0.2, 25, 0, 0
BARO, 52360779, 0.1017259, 988.1189, 39.57, 0.03267238, 52360, 0, 35
CTUN, 52360793, 0, 0, 0, 0.3086625, 0.08717827, 0.08717827, 0.1, 0, 0.19, 0, 0, 1
ATT, 52360972, 0, 0.52, 0, -0.45, 359.31, 359.33, 0, 1
RATE, 52360979, -2.349683, 0.7462574, -0.009946742, 2.032825, 0.2806038, 0.00358069, -0.009251865, -0.4952642, -6.880698E-05, -579.004, -2.137089, 0
NKF1, 52360986, 0.52, -0.45, 359.32, 0.02191621, 0.01057672, -0.0142964, 0, 0, 0, -0.08717827, 0, 0, 0
NKF2, 52360986, 6, 0, 0, 0, 0, 0, 0, 0, 0, 0, 0, 0, 0
NKF3, 52360986, 0, 0, 0, 0.05, 0.04, -0.01, 0, 0, 0, 0, 0
NKF4, 52360986, 0, 0, 0, 0, 0, 2.658022E-06, 0, 0, 0, 19, 229, 0, 0
NKF5, 52360986, 0, 0, 0, 0, 0.21, 0.13, 0, 0.19, 0.5, 4.293248E-05, 0.001090325, 0.002963697
NKQ1, 52360986, 0.999959, 0.003558489, 0.00587259, -0.005903741
AHR2, 52361029, 0.5, -0.43, 359.3, 0.09999999, 0, 0, 0.999965, 0.004366023, -0.003795936, -0.006052781
MOTB, 52361036, 1, 1, 0, 1
RCIN, 52361040, 0, 0, 0, 0, 0, 0, 0, 0, 0, 0, 0, 0, 0, 0
RCOU, 52361046, 1244, 1221, 1227, 1238, 0, 0, 0, 0, 0, 0, 0, 0, 0, 0
VIBE, 52361055, 0.3855524, 0.4265295, 0.3895439, 0, 0, 0
CTRL, 52361062, 0.00553392, 0.001792577, 0.004866877, 0.0008832591, 0.0003937334
PRX, 52361091, 1, 0.58, 0, 3.59, 0, 3.59, 0, 2.38, 0, 0, 0, 0.58
IMU, 52381078, -0.0128665, -0.005498014, 0.006176795, 0.08847818, -0.08862493, -9.749462, 0, 0, 40.71109, 1, 1, 1000, 1000
RFND, 52410684, 0.2, 25, 0, 0
IMU, 52420786, 0.001181331, -7.863611E-05, 0.002103545, 0.02391286, -0.1143006, -9.685793, 0, 0, 40.70727, 1, 1, 1000, 1000
MAG, 52460610, 237, 660, 191, 0, 0, 0, 0, 0, 0, 1, 52460602
RFND, 52460640, 0.2, 25, 0, 0
BARO, 52460677, 0.09042303, 988.1202, 39.56, 0.1121457, 52460, 0, 35
CTUN, 52460691, 0, 0, 0, 0.3086625, 0.08701933, 0.08701933, 0.09, 0, 0.19, 0, 0, 1
ATT, 52460789, 0, 0.51, 0, -0.44, 359.31, 359.33, 0, 1
RATE, 52460796, -2.316523, 0.4799348, -0.010172, 2.022074, 0.2444362, 0.003435775, -0.009068257, 0.1430703, -1.362104E-06, -462.6194, -0.4785538, 0
NKF1, 52460803, 0.51, -0.44, 359.32, 0.02257943, 0.01111713, -0.0114227, 0, 0, 0, -0.08701932, 0, 0, 0
NKF2, 52460803, 6, 0, 0, 0, 0, 0, 0, 0, 0, 0, 0, 0, 0
NKF3, 52460803, 0, 0, 0, 0.05, 0.04, -0.01, 0, 0, 0, 0, 0
NKF4, 52460803, 0, 0, 0, 0, 0, 2.917569E-06, 0, 0, 0, 19, 229, 0, 0
NKF5, 52460803, 0, 0, 0, 0, 0.21, 0.13, 0, 0.19, 0.5, 4.187381E-05, 0.000623803, 0.001714784
NKQ1, 52460803, 0.9999592, 0.003504165, 0.005904905, -0.005868848
AHR2, 52460845, 0.49, -0.42, 359.3, 0.09, 0, 0, 0.9999655, 0.0043235, -0.003757104, -0.006017388
MOTB, 52460853, 1, 1, 0, 1
RCIN, 52460857, 0, 0, 0, 0, 0, 0, 0, 0, 0, 0, 0, 0, 0, 0
RCOU, 52460863, 1244, 1221, 1227, 1238, 0, 0, 0, 0, 0, 0, 0, 0, 0, 0
VIBE, 52460871, 0.3778706, 0.42217, 0.4250928, 0, 0, 0
CTRL, 52460878, 0.005472295, 0.001940905, 0.004832687, 0.001161403, 0.0003264953
PRX, 52460908, 1, 0.58, 0, 3.59, 0, 3.59, 0, 2.38, 0, 0, 0, 0.58
IMU, 52460916, 0.00825908, 0.00431834, 0.002497284, 0.108223, -0.05850536, -9.74099, 0, 0, 40.70016, 1, 1, 1000, 1000
IMU, 52500591, 0.001982859, -0.002358849, 0.0003789377, 0.1342317, -0.03880049, -9.793682, 0, 0, 40.69068, 1, 1, 1000, 1000
RFND, 52510661, 0.2, 25, 0, 0
IMU, 52540778, -0.008702853, -0.008202457, 0.0003894463, 0.2112238, -0.07230263, -9.760678, 0, 0, 40.6788, 1, 1, 1000, 1000
MAG, 52560717, 230, 654, 193, 0, 0, 0, 0, 0, 0, 1, 52560708
RFND, 52560746, 0.2, 25, 0, 0
BARO, 52560784, 0.00282572, 988.1297, 39.54, 0.1094966, 52560, 0, 35
CTUN, 52560798, 0, 0, 0, 0.3086625, 0.08653006, 0.08653006, 0, 0, 0.19, 0, 0, 0
ATT, 52560899, 0, 0.5, 0, -0.44, 359.31, 359.33, 0, 1
RATE, 52560905, -2.294759, 0.386183, -0.009730111, 2.019433, 0.2092037, 0.002208066, -0.008979592, -0.1549115, -2.711302E-05, -356.9976, -4.936504, 0
NKF1, 52560913, 0.5, -0.44, 359.32, 0.02073292, 0.0115898, -0.008814756, 0, 0, 0, -0.08653006, 0, 0, 0
NKF2, 52560913, 6, 0, 0, 0, 0, 0, 0, 0, 0, 0, 0, 0, 0
NKF3, 52560913, 0, 0, 0, 0.05, 0.04, -0.01, 0, 0, 0, 0, 0
NKF4, 52560913, 0, 0, 0, 0, 0, 3.166776E-06, 0, 0, 0, 19, 229, 0, 0
NKF5, 52560913, 0, 0, 0, 0, 0.21, 0.13, 0, 0.19, 0.5, 4.373733E-05, 0.0009677776, 0.002675589
NKQ1, 52560913, 0.9999593, 0.003458675, 0.005904085, -0.005888609
AHR2, 52560956, 0.49, -0.42, 359.3, 0, 0, 0, 0.9999655, 0.004290315, -0.003750919, -0.006036708
MOTB, 52560963, 1, 1, 0, 1
RCIN, 52560967, 0, 0, 0, 0, 0, 0, 0, 0, 0, 0, 0, 0, 0, 0
RCOU, 52560973, 1241, 1221, 1225, 1238, 0, 0, 0, 0, 0, 0, 0, 0, 0, 0
VIBE, 52560982, 0.3981949, 0.3971271, 0.3848347, 0, 0, 0
CTRL, 52560988, 0.005409922, 0.001897033, 0.004840845, 0.001376142, 0.0002698674
PRX, 52561019, 1, 0.58, 0, 3.59, 0, 3.59, 0, 2.38, 0, 0, 0, 0.58
IMU, 52580804, -9.78565E-06, 0.006227336, 0.0009574753, 0.1722242, -0.107713, -9.70067, 0, 0, 40.6642, 1, 1, 1000, 1000
RFND, 52610730, 0.2, 25, 0, 0
IMU, 52620900, 0.005584426, 0.003426685, -0.00920246, -0.03991668, -0.02774988, -9.643124, 0, 0, 40.64648, 1, 1, 1000, 1000
MAG, 52660651, 237, 657, 194, 0, 0, 0, 0, 0, 0, 1, 52660642
RFND, 52660681, 0.2, 25, 0, 0
BARO, 52660720, -0.05086295, 988.1358, 39.5, -0.09713411, 52660, 0, 35
CTUN, 52660734, 0, 0, 0, 0.3086625, 0.08580375, 0.08580375, -0.05, 0, 0.19, 0, 0, 0
ATT, 52660836, 0, 0.5, 0, -0.45, 359.32, 359.34, 0, 1
RATE, 52660842, -2.267257, -0.02913988, -0.005677614, 2.032779, -0.101926, 0.003882802, -0.008925606, 0.04681987, 9.407632E-05, -161.4179, -7.002544, 0
NKF1, 52660849, 0.5, -0.45, 359.33, 0.02411576, 0.009961505, -0.003985628, 0, 0, 0, -0.08580375, 0, 0, 0
NKF2, 52660849, 6, 0, 0, 0, 0, 0, 0, 0, 0, 0, 0, 0, 0
NKF3, 52660849, 0, 0, 0, 0.05, 0.04, -0.01, 0, 0, 0, 0, 0
NKF4, 52660849, 0, 0, 0, 0, 0, 3.432496E-06, 0, 0, 0, 19, 229, 0, 0
NKF5, 52660849, 0, 0, 0, 0, 0.21, 0.13, 0, 0.19, 0.5, 4.256135E-05, 0.0005131571, 0.001454995
NKQ1, 52660849, 0.9999598, 0.003407516, 0.005882582, -0.005844037
AHR2, 52660892, 0.48, -0.42, 359.31, -0.05, 0, 0, 0.999966, 0.004236694, -0.003756178, -0.005991604
MOTB, 52660899, 1, 1, 0, 1
RCIN, 52660903, 0, 0, 0, 0, 0, 0, 0, 0, 0, 0, 0, 0, 0, 0
RCOU, 52660908, 1237, 1221, 1227, 1230, 0, 0, 0, 0, 0, 0, 0, 0, 0, 0
VIBE, 52660917, 0.4954073, 0.417621, 0.4200538, 0, 0, 0
CTRL, 52660924, 0.005424286, 0.001693272, 0.004856976, 0.001444742, 0.00022748
PRX, 52660954, 2, 0.58, 0, 3.59, 0, 3.59, 0, 2.38, 0, 0, 0, 0.58
