FMT, 128, 89, FMT, BBnNZ, Type,Length,Name,Format,Columns
FMT, 129, 31, PARM, QNf, TimeUS,Name,Value
FMT, 130, 46, GPS, QBIHBcLLefffB, TimeUS,Status,GMS,GWk,NSats,HDop,Lat,Lng,Alt,Spd,GCrs,VZ,U
FMT, 131, 46, GPS2, QBIHBcLLefffB, TimeUS,Status,GMS,GWk,NSats,HDop,Lat,Lng,Alt,Spd,GCrs,VZ,U
FMT, 132, 46, GPSB, QBIHBcLLefffB, TimeUS,Status,GMS,GWk,NSats,HDop,Lat,Lng,Alt,Spd,GCrs,VZ,U
FMT, 193, 24, GPA, QCCCCBI, TimeUS,VDop,HAcc,VAcc,SAcc,VV,SMS
FMT, 194, 24, GPA2, QCCCCBI, TimeUS,VDop,HAcc,VAcc,SAcc,VV,SMS
FMT, 195, 24, GPAB, QCCCCBI, TimeUS,VDop,HAcc,VAcc,SAcc,VV,SMS
FMT, 133, 53, IMU, QffffffIIfBBHH, TimeUS,GyrX,GyrY,GyrZ,AccX,AccY,AccZ,EG,EA,T,GH,AH,GHz,AHz
FMT, 134, 75, MSG, QZ, TimeUS,Message
FMT, 135, 39, RCIN, QHHHHHHHHHHHHHH, TimeUS,C1,C2,C3,C4,C5,C6,C7,C8,C9,C10,C11,C12,C13,C14
FMT, 136, 39, RCOU, QHHHHHHHHHHHHHH, TimeUS,C1,C2,C3,C4,C5,C6,C7,C8,C9,C10,C11,C12,C13,C14
FMT, 137, 15, RSSI, Qf, TimeUS,RXRSSI
FMT, 139, 37, BARO, QffcfIff, TimeUS,Alt,Press,Temp,CRt,SMS,Offset,GndTemp
FMT, 140, 22, POWR, QffHB, TimeUS,Vcc,VServo,Flags,Safety
FMT, 143, 45, CMD, QHHHfffffff, TimeUS,CTot,CNum,CId,Prm1,Prm2,Prm3,Prm4,Lat,Lng,Alt
FMT, 144, 20, RAD, QBBBBBHH, TimeUS,RSSI,RemRSSI,TxBuf,Noise,RemNoise,RxErrors,Fixed
FMT, 146, 43, CAM, QIHLLeeeccC, TimeUS,GPSTime,GPSWeek,Lat,Lng,Alt,RelAlt,GPSAlt,Roll,Pitch,Yaw
FMT, 232, 43, TRIG, QIHLLeeeccC, TimeUS,GPSTime,GPSWeek,Lat,Lng,Alt,RelAlt,GPSAlt,Roll,Pitch,Yaw
FMT, 162, 30, ARSP, QffcffB, TimeUS,Airspeed,DiffPress,Temp,RawPress,Offset,U
FMT, 164, 45, CURR, QfffcHHHHHHHHHH, TimeUS,Volt,Curr,CurrTot,Temp,V1,V2,V3,V4,V5,V6,V7,V8,V9,V10
FMT, 165, 45, CUR2, QfffcHHHHHHHHHH, TimeUS,Volt,Curr,CurrTot,Temp,V1,V2,V3,V4,V5,V6,V7,V8,V9,V10
FMT, 163, 27, ATT, QccccCCCC, TimeUS,DesRoll,Roll,DesPitch,Pitch,DesYaw,Yaw,ErrRP,ErrYaw
FMT, 166, 34, MAG, QhhhhhhhhhBI, TimeUS,MagX,MagY,MagZ,OfsX,OfsY,OfsZ,MOfsX,MOfsY,MOfsZ,Health,S
FMT, 169, 14, MODE, QMBB, TimeUS,Mode,ModeNum,Rsn
FMT, 196, 17, RFND, QCBCB, TimeUS,Dist1,Orient1,Dist2,Orient2
FMT, 223, 33, DMS, IIIIIBBBBBBBBBB, TimeMS,N,Dp,RT,RS,Er,Fa,Fmn,Fmx,Pa,Pmn,Pmx,Sa,Smn,Smx
FMT, 240, 41, BCN, QBBfffffff, TimeUS,Health,Cnt,D0,D1,D2,D3,PosX,PosY,PosZ
FMT, 138, 53, IMU2, QffffffIIfBBHH, TimeUS,GyrX,GyrY,GyrZ,AccX,AccY,AccZ,EG,EA,T,GH,AH,GHz,AHz
FMT, 147, 53, IMU3, QffffffIIfBBHH, TimeUS,GyrX,GyrY,GyrZ,AccX,AccY,AccZ,EG,EA,T,GH,AH,GHz,AHz
FMT, 141, 45, AHR2, QccCfLLffff, TimeUS,Roll,Pitch,Yaw,Alt,Lat,Lng,Q1,Q2,Q3,Q4
FMT, 180, 31, POS, QLLfff, TimeUS,Lat,Lng,Alt,RelHomeAlt,RelOriginAlt
FMT, 142, 45, SIM, QccCfLLffff, TimeUS,Roll,Pitch,Yaw,Alt,Lat,Lng,Q1,Q2,Q3,Q4
FMT, 198, 51, NKF1, QccCfffffffccc, TimeUS,Roll,Pitch,Yaw,VN,VE,VD,dPD,PN,PE,PD,GX,GY,GZ
FMT, 199, 35, NKF2, QbccccchhhhhhB, TimeUS,AZbias,GSX,GSY,GSZ,VWN,VWE,MN,ME,MD,MX,MY,MZ,MI
FMT, 200, 33, NKF3, Qcccccchhhcc, TimeUS,IVN,IVE,IVD,IPN,IPE,IPD,IMX,IMY,IMZ,IYAW,IVT
FMT, 201, 35, NKF4, QcccccfbbHBHHb, TimeUS,SV,SP,SH,SM,SVT,errRP,OFN,OFE,FS,TS,SS,GPS,PI
FMT, 202, 40, NKF5, QBhhhcccCCfff, TimeUS,NI,FIX,FIY,AFI,HAGL,offset,RI,rng,Herr,eAng,eVel,ePos
FMT, 203, 51, NKF6, QccCfffffffccc, TimeUS,Roll,Pitch,Yaw,VN,VE,VD,dPD,PN,PE,PD,GX,GY,GZ
FMT, 204, 35, NKF7, QbccccchhhhhhB, TimeUS,AZbias,GSX,GSY,GSZ,VWN,VWE,MN,ME,MD,MX,MY,MZ,MI
FMT, 205, 33, NKF8, Qcccccchhhcc, TimeUS,IVN,IVE,IVD,IPN,IPE,IPD,IMX,IMY,IMZ,IYAW,IVT
FMT, 206, 35, NKF9, QcccccfbbHBHHb, TimeUS,SV,SP,SH,SM,SVT,errRP,OFN,OFE,FS,TS,SS,GPS,PI
FMT, 207, 36, NKF0, QBccCCcccccccc, TimeUS,ID,rng,innov,SIV,TR,BPN,BPE,BPD,OFH,OFL,OFN,OFE,OFD
FMT, 208, 27, NKQ1, Qffff, TimeUS,Q1,Q2,Q3,Q4
FMT, 209, 27, NKQ2, Qffff, TimeUS,Q1,Q2,Q3,Q4
FMT, 210, 51, XKF1, QccCfffffffccc, TimeUS,Roll,Pitch,Yaw,VN,VE,VD,dPD,PN,PE,PD,GX,GY,GZ
FMT, 211, 34, XKF2, QccccchhhhhhB, TimeUS,AX,AY,AZ,VWN,VWE,MN,ME,MD,MX,MY,MZ,MI
FMT, 212, 33, XKF3, Qcccccchhhcc, TimeUS,IVN,IVE,IVD,IPN,IPE,IPD,IMX,IMY,IMZ,IYAW,IVT
FMT, 213, 35, XKF4, QcccccfbbHBHHb, TimeUS,SV,SP,SH,SM,SVT,errRP,OFN,OFE,FS,TS,SS,GPS,PI
FMT, 214, 40, XKF5, QBhhhcccCCfff, TimeUS,NI,FIX,FIY,AFI,HAGL,offset,RI,rng,Herr,eAng,eVel,ePos
FMT, 215, 51, XKF6, QccCfffffffccc, TimeUS,Roll,Pitch,Yaw,VN,VE,VD,dPD,PN,PE,PD,GX,GY,GZ
FMT, 216, 34, XKF7, QccccchhhhhhB, TimeUS,AX,AY,AZ,VWN,VWE,MN,ME,MD,MX,MY,MZ,MI
FMT, 217, 33, XKF8, Qcccccchhhcc, TimeUS,IVN,IVE,IVD,IPN,IPE,IPD,IMX,IMY,IMZ,IYAW,IVT
FMT, 218, 35, XKF9, QcccccfbbHBHHb, TimeUS,SV,SP,SH,SM,SVT,errRP,OFN,OFE,FS,TS,SS,GPS,PI
FMT, 219, 36, XKF0, QBccCCcccccccc, TimeUS,ID,rng,innov,SIV,TR,BPN,BPE,BPD,OFH,OFL,OFN,OFE,OFD
FMT, 220, 27, XKQ1, Qffff, TimeUS,Q1,Q2,Q3,Q4
FMT, 221, 27, XKQ2, Qffff, TimeUS,Q1,Q2,Q3,Q4
FMT, 222, 35, XKFD, Qffffff, TimeUS,IX,IY,IZ,IVX,IVY,IVZ
FMT, 148, 34, TERR, QBLLHffHH, TimeUS,Status,Lat,Lng,Spacing,TerrH,CHeight,Pending,Loaded
FMT, 149, 18, UBX1, QBHBBH, TimeUS,Instance,noisePerMS,jamInd,aPower,agcCnt
FMT, 150, 16, UBX2, QBbBbB, TimeUS,Instance,ofsI,magI,ofsQ,magQ
FMT, 151, 18, UBY1, QBHBBH, TimeUS,Instance,noisePerMS,jamInd,aPower,agcCnt
FMT, 152, 16, UBY2, QBbBbB, TimeUS,Instance,ofsI,magI,ofsQ,magQ
FMT, 170, 42, GRAW, QIHBBddfBbB, TimeUS,WkMS,Week,numSV,sv,cpMes,prMes,doMes,mesQI,cno,lli
FMT, 171, 24, GRXH, QdHbBB, TimeUS,rcvTime,week,leapS,numMeas,recStat
FMT, 172, 41, GRXS, QddfBBBHBBBBB, TimeUS,prMes,cpMes,doMes,gnss,sv,freq,lock,cno,prD,cpD,doD,trk
FMT, 173, 63, SBFE, QIHBBdddfffff, TimeUS,TOW,WN,Mode,Err,Lat,Lng,Height,Undul,Vn,Ve,Vu,COG
FMT, 153, 19, ESC1, Qcccc, TimeUS,RPM,Volt,Curr,Temp
FMT, 154, 19, ESC2, Qcccc, TimeUS,RPM,Volt,Curr,Temp
FMT, 155, 19, ESC3, Qcccc, TimeUS,RPM,Volt,Curr,Temp
FMT, 156, 19, ESC4, Qcccc, TimeUS,RPM,Volt,Curr,Temp
FMT, 157, 19, ESC5, Qcccc, TimeUS,RPM,Volt,Curr,Temp
FMT, 158, 19, ESC6, Qcccc, TimeUS,RPM,Volt,Curr,Temp
FMT, 159, 19, ESC7, Qcccc, TimeUS,RPM,Volt,Curr,Temp
FMT, 160, 19, ESC8, Qcccc, TimeUS,RPM,Volt,Curr,Temp
FMT, 167, 34, MAG2, QhhhhhhhhhBI, TimeUS,MagX,MagY,MagZ,OfsX,OfsY,OfsZ,MOfsX,MOfsY,MOfsZ,Health,S
FMT, 168, 34, MAG3, QhhhhhhhhhBI, TimeUS,MagX,MagY,MagZ,OfsX,OfsY,OfsZ,MOfsX,MOfsY,MOfsZ,Health,S
FMT, 174, 31, ACC1, QQfff, TimeUS,SampleUS,AccX,AccY,AccZ
FMT, 175, 31, ACC2, QQfff, TimeUS,SampleUS,AccX,AccY,AccZ
FMT, 176, 31, ACC3, QQfff, TimeUS,SampleUS,AccX,AccY,AccZ
FMT, 177, 31, GYR1, QQfff, TimeUS,SampleUS,GyrX,GyrY,GyrZ
FMT, 178, 31, GYR2, QQfff, TimeUS,SampleUS,GyrX,GyrY,GyrZ
FMT, 179, 31, GYR3, QQfff, TimeUS,SampleUS,GyrX,GyrY,GyrZ
FMT, 181, 35, PIDR, Qffffff, TimeUS,Des,P,I,D,FF,AFF
FMT, 182, 35, PIDP, Qffffff, TimeUS,Des,P,I,D,FF,AFF
FMT, 183, 35, PIDY, Qffffff, TimeUS,Des,P,I,D,FF,AFF
FMT, 184, 35, PIDA, Qffffff, TimeUS,Des,P,I,D,FF,AFF
FMT, 185, 35, PIDS, Qffffff, TimeUS,Des,P,I,D,FF,AFF
FMT, 186, 35, PIDL, Qffffff, TimeUS,Des,P,I,D,FF,AFF
FMT, 161, 37, BAR2, QffcfIff, TimeUS,Alt,Press,Temp,CRt,SMS,Offset,GndTemp
FMT, 197, 37, BAR3, QffcfIff, TimeUS,Alt,Press,Temp,CRt,SMS,Offset,GndTemp
FMT, 187, 35, VIBE, QfffIII, TimeUS,VibeX,VibeY,VibeZ,Clip0,Clip1,Clip2
FMT, 188, 47, IMT, Qfffffffff, TimeUS,DelT,DelvT,DelaT,DelAX,DelAY,DelAZ,DelVX,DelVY,DelVZ
FMT, 189, 47, IMT2, Qfffffffff, TimeUS,DelT,DelvT,DelaT,DelAX,DelAY,DelAZ,DelVX,DelVY,DelVZ
FMT, 190, 47, IMT3, Qfffffffff, TimeUS,DelT,DelvT,DelaT,DelAX,DelAY,DelAZ,DelVX,DelVY,DelVZ
FMT, 191, 24, ORGN, QBLLe, TimeUS,Type,Lat,Lng,Alt
FMT, 192, 19, RPM, Qff, TimeUS,rpm1,rpm2
FMT, 233, 47, GMB1, Iffffffffff, TimeMS,dt,dax,day,daz,dvx,dvy,dvz,jx,jy,jz
FMT, 234, 44, GMB2, IBfffffffff, TimeMS,es,ex,ey,ez,rx,ry,rz,tx,ty,tz
FMT, 235, 13, GMB3, Ihhh, TimeMS,rl_torque_cmd,el_torque_cmd,az_torque_cmd
FMT, 236, 59, RATE, Qffffffffffff, TimeUS,RDes,R,ROut,PDes,P,POut,YDes,Y,YOut,ADes,A,AOut
FMT, 237, 23, RALY, QBBLLh, TimeUS,Tot,Seq,Lat,Lng,Alt
FMT, 238, 43, VISO, Qffffffff, TimeUS,dt,AngDX,AngDY,AngDZ,PosDX,PosDY,PosDZ,conf
FMT, 224, 23, SBPH, QIII, TimeUS,CrcError,LastInject,IARhyp
FMT, 229, 80, SBR1, QHHBZ, TimeUS,msg_type,sender_id,msg_len,d1
FMT, 230, 205, SBR2, QHZZZ, TimeUS,msg_type,d2,d3,d4
FMT, 25, 41, ATUN, QBBfffffff, TimeUS,Axis,TuneStep,Targ,Min,Max,RP,RD,SP,ddt
FMT, 26, 19, ATDE, Qff, TimeUS,Angle,Rate
FMT, 31, 22, PTUN, QBfHHH, TimeUS,Param,TunVal,CtrlIn,TunLo,TunHi
FMT, 12, 28, OF, QBffff, TimeUS,Qual,flowX,flowY,bodyX,bodyY
FMT, 5, 51, NTUN, Qffffffffff, TimeUS,DPosX,DPosY,PosX,PosY,DVelX,DVelY,VelX,VelY,DAccX,DAccY
FMT, 4, 51, CTUN, Qffffffeccfhh, TimeUS,ThI,ABst,ThO,ThH,DAlt,Alt,BAlt,DSAlt,SAlt,TAlt,DCRt,CRt
FMT, 6, 32, PM, QHHIhBHII, TimeUS,NLon,NLoop,MaxT,PMT,I2CErr,INSErr,LogDrop,Mem
FMT, 30, 27, MOTB, Qffff, TimeUS,LiftMax,BatVolt,BatRes,ThLimit
FMT, 13, 12, EV, QB, TimeUS,Id
FMT, 20, 14, D16, QBh, TimeUS,Id,Value
FMT, 21, 14, DU16, QBH, TimeUS,Id,Value
FMT, 22, 16, D32, QBi, TimeUS,Id,Value
FMT, 23, 16, DU32, QBI, TimeUS,Id,Value
FMT, 24, 16, DFLT, QBf, TimeUS,Id,Value
FMT, 19, 13, ERR, QBB, TimeUS,Subsys,ECode
FMT, 32, 19, HELI, Qff, TimeUS,DRRPM,ERRPM
FMT, 33, 29, PL, QBBffff, TimeUS,Heal,TAcq,pX,pY,vX,vY
FMT, 34, 36, GUID, QBffffff, TimeUS,Type,pX,pY,pZ,vX,vY,vZ
FMT, 35, 32, THRO, QBffffbbbb, TimeUS,Stage,Vel,VelZ,Acc,AccEfZ,Throw,AttOk,HgtOk,PosOk
FMT, 36, 56, PRX, QBfffffffffff, TimeUS,Health,D0,D45,D90,D135,D180,D225,D270,D315,DUp,CAn,CDis
MODE, 31915495, 100, 100, 2
FMT, 254, 47, NKT1, QIffffffff, TimeUS,Cnt,IMUMin,IMUMax,EKFMin,EKFMax,AngMin,AngMax,VelMin,VelM
FMT, 253, 31, CTRL, Qfffff, TimeUS,RMSRollP,RMSRollD,RMSPitchP,RMSPitchD,RMSYaw
MSG, 32058130, APM:Copter V3.5.7 (870dd8f0)
MSG, 32058135, New mission
MSG, 32058146, Frame: QUAD
MODE, 32058152, Autonomous, 100, 2
MAG, 32063231, 246, 659, 185, 0, 0, 0, 0, 0, 0, 1, 32063222
RFND, 32063261, 0.2, 25, 0, 0
BARO, 32063299, -0.1356345, 988.0904, 40.43, 0.1897261, 32063, 0, 35
CTUN, 32063313, 0, 0, 0, 0.307312, 0.06767099, 0.06767099, -0.13, 0, 0.19, 0, 0, 0
ATT, 32063393, 0, 0.5, 0, -0.48, 359.93, 359.95, 0, 1
RATE, 32063398, -2.253873, -0.009128896, -0.005283876, 2.173333, -0.06883588, 0.005517956, -0.01064729, 0.002816187, -7.11199E-05, 40.49515, -1.63765, 0
NKF1, 32063406, 0.5, -0.48, 359.94, 0.004314438, -0.004523416, 0.0009998803, 0, 0, 0, -0.06767099, 0, 0, 0
NKF2, 32063406, 7, 0, 0, 0, 0, 0, 0, 0, 0, 0, 0, 0, 0
NKF3, 32063406, 0, 0, 0, 0, 0, 0, 0, 0, 0, 0, 0
NKF4, 32063406, 0, 0, 0, 0, 0, 1.233719E-05, 0, 0, 0, 19, 229, 0, 0
NKF5, 32063406, 0, 0, 0, 0, 0.19, 0.13, 0, 0.19, 0.5, 4.326834E-05, 0.000596799, 0.001149064
NKQ1, 32063406, 0.9999785, 0.00334928, 0.00562748, -0.0005072323
AHR2, 32063451, 0.51, -0.46, 359.92, -0.13, 0, 0, 0.9999816, 0.004486898, -0.004028491, -0.0006305072
MOTB, 32063459, 1, 1, 0, 1
RCIN, 32063463, 0, 0, 0, 0, 0, 0, 0, 0, 0, 0, 0, 0, 0, 0
RCOU, 32063468, 1101, 1101, 1101, 1101, 0, 0, 0, 0, 0, 0, 0, 0, 0, 0
VIBE, 32063478, 0.01975368, 0.02171308, 0.03517954, 0, 0, 0
CTRL, 32063485, 0.005320033, 0.0001304318, 0.005123289, 0.0001550406, 6.015119E-05
PRX, 32063515, 2, 0.6, 0, 3.59, 0, 3.59, 0, 2.38, 0, 0, 0, 0.6
IMU, 32083122, -0.0009128389, 0.0003750883, 0.001462508, 0.1038411, -0.06616119, -9.736533, 0, 0, 41.396, 1, 1, 1000, 1000
RFND, 32112873, 0.2, 25, 0, 0
IMU, 32122845, 0.0007496385, -0.0006964934, -0.0006670153, 0.1052629, -0.06316885, -9.719653, 0, 0, 41.396, 1, 1, 1000, 1000
MAG, 32162752, 242, 661, 180, 0, 0, 0, 0, 0, 0, 1, 32162743
RFND, 32162800, 0.2, 25, 0, 0
BARO, 32162840, -0.2204061, 988.0997, 40.43, 0.04700566, 32162, 0, 35
CTUN, 32162853, 0, 0, 0, 0.307312, 0.06758165, 0.06758165, -0.22, 0, 0.19, 0, 0, 0
ATT, 32162934, 0, 0.49, 0, -0.48, 359.93, 359.95, 0, 1
RATE, 32162939, -2.24442, -0.0001464002, -0.005373062, 2.175815, 0.01847707, 0.004861938, -0.01116099, 0.03205683, -0.000104261, 64.00451, -1.686573, 0
NKF1, 32162947, 0.49, -0.48, 359.94, 0.003966638, -0.004287449, 0.001580358, 0, 0, 0, -0.06758165, 0, 0, 0
NKF2, 32162947, 7, 0, 0, 0, 0, 0, 0, 0, 0, 0, 0, 0, 0
NKF3, 32162947, 0, 0, 0, 0, 0, 0, 0, 0, 0, 0, 0
NKF4, 32162947, 0, 0, 0, 0, 0, 8.282467E-06, 0, 0, 0, 19, 229, 0, 0
NKF5, 32162947, 0, 0, 0, 0, 0.19, 0.13, 0, 0.19, 0.5, 3.788872E-05, 0.0007114392, 0.001381827
NKQ1, 32162947, 0.9999786, 0.003330523, 0.005623997, -0.0004826576
AHR2, 32162993, 0.51, -0.46, 359.92, -0.22, 0, 0, 0.9999817, 0.004466814, -0.004029681, -0.000606249
MOTB, 32163001, 1, 1, 0, 1
RCIN, 32163005, 0, 0, 0, 0, 0, 0, 0, 0, 0, 0, 0, 0, 0, 0
RCOU, 32163011, 1101, 1101, 1101, 1101, 0, 0, 0, 0, 0, 0, 0, 0, 0, 0
VIBE, 32163020, 0.01982368, 0.02004361, 0.03501897, 0, 0, 0
CTRL, 32163027, 0.00529784, 0.0001443737, 0.005134965, 0.000164542, 7.29722E-05
PRX, 32163057, 2, 0.6, 0, 3.59, 0, 3.59, 0, 2.38, 0, 0, 0, 0.6
IMU, 32163065, -2.786791E-05, 0.0004106559, 0.0005540674, 0.1126954, -0.06697229, -9.713011, 0, 0, 41.396, 1, 1, 1000, 1000
IMU, 32202864, -0.0004148735, 0.0004811048, 0.0001445299, 0.1309133, -0.05673209, -9.723601, 0, 0, 41.396, 1, 1, 1000, 1000
RFND, 32212740, 0.2, 25, 0, 0
IMU, 32242809, -0.0004704702, -0.001170819, 6.569848E-05, 0.1263538, -0.0693405, -9.729958, 0, 0, 41.396, 1, 1, 1000, 1000
MAG, 32262786, 239, 659, 178, 0, 0, 0, 0, 0, 0, 1, 32262759
RFND, 32262818, 0.2, 25, 0, 0
BARO, 32262857, -0.1638917, 988.0938, 40.42, -0.05929571, 32262, 0, 35
CTUN, 32262871, 0, 0, 0, 0.307312, 0.06743576, 0.06743576, -0.16, 0, 0.19, 0, 0, 0
ATT, 32262951, 0, 0.49, 0, -0.48, 359.93, 359.95, 0, 1
RATE, 32262958, -2.230888, -0.01434578, -0.005212469, 2.189687, -0.07762882, 0.005295353, -0.01045912, 0.05287248, -6.96818E-05, 70.74676, -0.4603386, 0
NKF1, 32262966, 0.49, -0.48, 359.94, 0.00523741, -0.004570245, 0.001746834, 0, 0, 0, -0.06743576, 0, 0, 0
NKF2, 32262966, 7, 0, 0, 0, 0, 0, 0, 0, 0, 0, 0, 0, 0
NKF3, 32262966, 0, 0, 0, 0, 0, 0, 0, 0, 0, 0, 0
NKF4, 32262966, 0, 0, 0, 0, 0, 5.532337E-06, 0, 0, 0, 19, 229, 0, 0
NKF5, 32262966, 0, 0, 0, 0, 0.19, 0.13, 0, 0.19, 0.5, 3.583201E-05, 0.0008039147, 0.00159783
NKQ1, 32262966, 0.9999788, 0.003306137, 0.005595952, -0.0004699393
AHR2, 32263012, 0.5, -0.46, 359.92, -0.16, 0, 0, 0.9999818, 0.004437885, -0.004056869, -0.0005936443
MOTB, 32263019, 1, 1, 0, 1
RCIN, 32263024, 0, 0, 0, 0, 0, 0, 0, 0, 0, 0, 0, 0, 0, 0
RCOU, 32263030, 1101, 1101, 1101, 1101, 0, 0, 0, 0, 0, 0, 0, 0, 0, 0
VIBE, 32263039, 0.01965448, 0.02016078, 0.03218995, 0, 0, 0
CTRL, 32263045, 0.005270039, 0.0001340993, 0.005160435, 0.0001589269, 8.22232E-05
PRX, 32263076, 1, 0.6, 0, 3.59, 0, 3.59, 0, 2.38, 0, 0, 0, 0.6
IMU, 32283215, -0.0005152081, -0.0008566851, -8.232008E-05, 0.1323861, -0.07821675, -9.729008, 0, 0, 41.396, 1, 1, 1000, 1000
RFND, 32313069, 0.2, 25, 0, 0
IMU, 32322830, 0.000636352, 6.826995E-05, 0.0009023392, 0.1136829, -0.06435385, -9.719306, 0, 0, 41.396, 1, 1, 1000, 1000
MAG, 32362793, 242, 654, 175, 0, 0, 0, 0, 0, 0, 1, 32362765
RFND, 32362824, 0.2, 25, 0, 0
BARO, 32362863, -0.2599662, 988.1043, 40.42, -0.1532111, 32362, 0, 35
CTUN, 32362878, 0, 0, 0, 0.307312, 0.06724236, 0.06724236, -0.25, 0, 0.19, 0, 0, 0
ATT, 32362965, 0, 0.49, 0, -0.48, 359.93, 359.95, 0, 1
RATE, 32362971, -2.224294, -0.01789933, -0.005311388, 2.194577, -0.05455957, 0.005738832, -0.008609693, -0.05867355, -5.395616E-05, 98.10426, -0.9374619, 0
NKF1, 32362979, 0.49, -0.48, 359.94, 0.005824169, -0.00509053, 0.002422327, 0, 0, 0, -0.06724236, 0, 0, 0
NKF2, 32362979, 7, 0, 0, 0, 0, 0, 0, 0, 0, 0, 0, 0, 0
NKF3, 32362979, 0, 0, 0, 0, 0, 0, 0, 0, 0, 0, 0
NKF4, 32362979, 0, 0, 0, 0, 0, 3.710394E-06, 0, 0, 0, 19, 229, 0, 0
NKF5, 32362979, 0, 0, 0, 0, 0.19, 0.13, 0, 0.19, 0.5, 3.572858E-05, 0.0008499032, 0.001711861
NKQ1, 32362979, 0.9999789, 0.00329108, 0.005585036, -0.0004716596
AHR2, 32363025, 0.5, -0.46, 359.92, -0.25, 0, 0, 0.9999818, 0.004420795, -0.00406374, -0.0005955324
MOTB, 32363032, 1, 1, 0, 1
RCIN, 32363036, 0, 0, 0, 0, 0, 0, 0, 0, 0, 0, 0, 0, 0, 0
RCOU, 32363043, 1101, 1101, 1101, 1101, 0, 0, 0, 0, 0, 0, 0, 0, 0, 0
VIBE, 32363052, 0.02116668, 0.02084114, 0.03454511, 0, 0, 0
CTRL, 32363059, 0.005250021, 0.0001439813, 0.005165325, 0.0001573947, 7.994609E-05
PRX, 32363089, 1, 0.6, 0, 3.59, 0, 3.59, 0, 2.38, 0, 0, 0, 0.6
IMU, 32363098, -0.0003378282, -0.0008636925, -0.001029501, 0.1200889, -0.07567312, -9.720029, 0, 0, 41.396, 1, 1, 1000, 1000
IMU, 32402808, -0.0002186468, -0.001670329, 0.0003769619, 0.1165622, -0.06732804, -9.732948, 0, 0, 41.396, 1, 1, 1000, 1000
RFND, 32412715, 0.2, 25, 0, 0
IMU, 32442843, -0.0005684641, 0.0006066664, 0.0008195727, 0.1183909, -0.0688675, -9.716878, 0, 0, 41.396, 1, 1, 1000, 1000
MAG, 32462750, 246, 663, 175, 0, 0, 0, 0, 0, 0, 1, 32462741
RFND, 32462799, 0.2, 25, 0, 0
BARO, 32462840, -0.3108292, 988.1099, 40.43, -0.2277995, 32462, 0, 35
CTUN, 32462854, 0, 0, 0, 0.307312, 0.06697179, 0.06697179, -0.31, 0, 0.19, 0, 0, 0
ATT, 32462935, 0, 0.49, 0, -0.49, 359.93, 359.95, 0, 1
RATE, 32462941, -2.208846, -0.03299153, -0.005123511, 2.206534, -0.03851753, 0.005500455, -0.009112343, -0.02788975, -7.216635E-05, 126.2488, -1.209927, 0
NKF1, 32462948, 0.49, -0.49, 359.94, 0.006860936, -0.005490364, 0.003117253, 0, 0, 0, -0.06697179, 0, 0, 0
NKF2, 32462948, 7, 0, 0, 0, 0, 0, 0, 0, 0, 0, 0, 0, 0
NKF3, 32462948, 0, 0, 0, 0, 0, 0, 0, 0, 0, 0, 0
NKF4, 32462948, 0, 0, 0, 0, 0, 2.516111E-06, 0, 0, 0, 19, 229, 0, 0
NKF5, 32462948, 0, 0, 0, 0, 0.19, 0.13, 0, 0.19, 0.5, 3.627024E-05, 0.0008846447, 0.001806177
NKQ1, 32462948, 0.9999791, 0.003261858, 0.005562122, -0.0004622208
AHR2, 32462996, 0.5, -0.46, 359.93, -0.31, 0, 0, 0.9999819, 0.004395554, -0.004076317, -0.0005861045
MOTB, 32463003, 1, 1, 0, 1
RCIN, 32463008, 0, 0, 0, 0, 0, 0, 0, 0, 0, 0, 0, 0, 0, 0
RCOU, 32463013, 1101, 1101, 1101, 1101, 0, 0, 0, 0, 0, 0, 0, 0, 0, 0
VIBE, 32463022, 0.02053198, 0.02079801, 0.04020601, 0, 0, 0
CTRL, 32463029, 0.005219455, 0.0001368755, 0.005198336, 0.0001642691, 7.293755E-05
PRX, 32463060, 1, 0.6, 0, 3.59, 0, 3.59, 0, 2.38, 0, 0, 0, 0.6
IMU, 32482795, 3.963494E-05, 0.0003256909, 0.0003495185, 0.113113, -0.07130396, -9.731575, 0, 0, 41.39579, 1, 1, 1000, 1000
RFND, 32513084, 0.2, 25, 0, 0
IMU, 32523143, 0.000686726, -0.000160189, -0.0001017214, 0.114051, -0.06161615, -9.723287, 0, 0, 41.39578, 1, 1, 1000, 1000
MAG, 32562870, 240, 666, 180, 0, 0, 0, 0, 0, 0, 1, 32562861
RFND, 32562900, 0.2, 25, 0, 0
BARO, 32562940, -0.2995263, 988.1082, 40.43, -0.3272727, 32562, 0, 35
CTUN, 32562954, 0, 0, 0, 0.307312, 0.06670037, 0.06670037, -0.29, 0, 0.19, 0, 0, 0
ATT, 32563083, 0, 0.49, 0, -0.48, 359.93, 359.95, 0, 1
RATE, 32563089, -2.212689, 0.02639354, -0.005561809, 2.200879, 0.05401652, 0.004949015, -0.008895984, -0.03648779, 2.953285E-05, 117.8241, -1.385689, 0
NKF1, 32563096, 0.49, -0.48, 359.94, 0.007126078, -0.006312796, 0.002909237, 0, 0, 0, -0.06670037, 0, 0, 0
NKF2, 32563096, 7, 0, 0, 0, 0, 0, 0, 0, 0, 0, 0, 0, 0
NKF3, 32563096, 0, 0, 0, 0, 0, 0, 0, 0, 0, 0, 0
NKF4, 32563096, 0, 0, 0, 0, 0, 1.726348E-06, 0, 0, 0, 19, 229, 0, 0
NKF5, 32563096, 0, 0, 0, 0, 0.19, 0.13, 0, 0.19, 0.5, 3.682078E-05, 0.0008890917, 0.001822108
NKQ1, 32563096, 0.999979, 0.003268902, 0.005573237, -0.0004736569
AHR2, 32563143, 0.5, -0.46, 359.92, -0.29, 0, 0, 0.9999819, 0.004407068, -0.004054721, -0.0005979147
MOTB, 32563150, 1, 1, 0, 1
RCIN, 32563154, 0, 0, 0, 0, 0, 0, 0, 0, 0, 0, 0, 0, 0, 0
RCOU, 32563161, 1101, 1101, 1101, 1101, 0, 0, 0, 0, 0, 0, 0, 0, 0, 0
VIBE, 32563169, 0.02155922, 0.02058479, 0.03735108, 0, 0, 0
CTRL, 32563176, 0.005218127, 0.0001417419, 0.005190648, 0.0001759129, 6.544313E-05
PRX, 32563207, 2, 0.6, 0, 3.59, 0, 3.59, 0, 2.38, 0, 0, 0, 0.6
IMU, 32563214, 0.0004352386, 0.001031265, -0.0006422837, 0.1088631, -0.07098104, -9.715742, 0, 0, 41.39637, 1, 1, 1000, 1000
IMU, 32602817, 0.001198992, 0.001185435, 0.0001105945, 0.1071657, -0.06307513, -9.734491, 0, 0, 41.39682, 1, 1, 1000, 1000
RFND, 32613062, 0.2, 25, 0, 0
IMU, 32642786, -0.001051664, 0.0001055146, 0.0009698709, 0.1127791, -0.06777146, -9.706595, 0, 0, 41.39708, 1, 1, 1000, 1000
MAG, 32662794, 240, 663, 176, 0, 0, 0, 0, 0, 0, 1, 32662786
RFND, 32662824, 0.2, 25, 0, 0
BARO, 32662863, -0.322132, 988.1108, 40.43, -0.3868677, 32662, 0, 35
CTUN, 32662876, 0, 0, 0, 0.307312, 0.0663804, 0.0663804, -0.32, 0, 0.19, 0, 0, 0
ATT, 32662957, 0, 0.49, 0, -0.48, 359.94, 359.96, 0, 1
RATE, 32662963, -2.212914, -0.02507207, -0.005258237, 2.184376, 0.07249028, 0.004825785, -0.009165306, -0.00418935, -0.0001035459, 149.5017, 0.1468658, 0
NKF1, 32662970, 0.49, -0.48, 359.95, 0.007012257, -0.006887693, 0.003691399, 0, 0, 0, -0.0663804, 0, 0, 0
NKF2, 32662970, 7, 0, 0, 0, 0, 0, 0, 0, 0, 0, 0, 0, 0
NKF3, 32662970, 0, 0, 0, 0, 0, 0, 0, 0, 0, 0, 0
NKF4, 32662970, 0, 0, 0, 0, 0, 1.205921E-06, 0, 0, 0, 19, 229, 0, 0
NKF5, 32662970, 0, 0, 0, 0, 0.19, 0.13, 0, 0.19, 0.5, 3.714879E-05, 0.0008776654, 0.001797133
NKQ1, 32662970, 0.9999789, 0.003270016, 0.005605587, -0.0004456333
AHR2, 32663017, 0.5, -0.45, 359.93, -0.32, 0, 0, 0.9999821, 0.004414718, -0.004012133, -0.0005702136
MOTB, 32663025, 1, 1, 0, 1
RCIN, 32663030, 0, 0, 0, 0, 0, 0, 0, 0, 0, 0, 0, 0, 0, 0
RCOU, 32663036, 1101, 1101, 1101, 1101, 0, 0, 0, 0, 0, 0, 0, 0, 0, 0
VIBE, 32663045, 0.02206646, 0.02108574, 0.03880879, 0, 0, 0
CTRL, 32663052, 0.005226198, 0.0001787567, 0.005158935, 0.0001711236, 6.541671E-05
PRX, 32663082, 2, 0.6, 0, 3.59, 0, 3.59, 0, 2.38, 0, 0, 0, 0.6
IMU, 32682798, 7.53077E-05, 0.0004341554, -0.000447801, 0.1149123, -0.07435069, -9.721285, 0, 0, 41.39576, 1, 1, 1000, 1000
RFND, 32712533, 0.2, 25, 0, 0
IMU, 32722643, 0.001240951, 0.0001195093, 0.0003958533, 0.1197185, -0.05347181, -9.71794, 0, 0, 41.39609, 1, 1, 1000, 1000
MAG, 32762933, 242, 658, 172, 0, 0, 0, 0, 0, 0, 1, 32762924
RFND, 32762963, 0.2, 25, 0, 0
BARO, 32763002, -0.2712691, 988.105, 40.44, -0.2755077, 32762, 0, 35
CTUN, 32763016, 0, 0, 0, 0.307312, 0.06600001, 0.06600001, -0.27, 0, 0.19, 0, 0, 0
DU32, 32763052, 7, 50389208
ATT, 32763152, 0, 0.49, 0, -0.48, 359.94, 359.96, 0, 1
RATE, 32763159, -2.218779, -0.02376328, -0.005220321, 2.185687, 0.04775404, 0.004629278, -0.01040901, 0.02068881, -7.776931E-05, 186.535, -1.721859, 0
NKF1, 32763166, 0.49, -0.48, 359.95, 0.007685306, -0.007020847, 0.004605803, 0, 0, 0, -0.06600001, 0, 0, 0
NKF2, 32763166, 7, 0, 0, 0, 0, 0, 0, 0, 0, 0, 0, 0, 0
NKF3, 32763166, 0, 0, 0, 0, 0, 0, 0, 0, 0, 0, 0
NKF4, 32763166, 0, 0, 0, 0, 0, 8.700619E-07, 0, 0, 0, 19, 229, 0, 0
NKF5, 32763166, 0, 0, 0, 0, 0.19, 0.13, 0, 0.19, 0.5, 3.709379E-05, 0.0008733192, 0.001801177
NKQ1, 32763166, 0.9999788, 0.003281882, 0.005603352, -0.0004388071
AHR2, 32763214, 0.5, -0.45, 359.93, -0.27, 0, 0, 0.999982, 0.004432506, -0.004005785, -0.0005637708
MOTB, 32763221, 1, 1, 0, 1
RCIN, 32763225, 0, 0, 0, 0, 0, 0, 0, 0, 0, 0, 0, 0, 0, 0
RCOU, 32763231, 1101, 1101, 1101, 1101, 0, 0, 0, 0, 0, 0, 0, 0, 0, 0
VIBE, 32763241, 0.02379471, 0.01945724, 0.03174294, 0, 0, 0
CTRL, 32763247, 0.005240292, 0.000182276, 0.005162186, 0.0001890483, 6.355976E-05
PRX, 32763277, 1, 0.6, 0, 3.59, 0, 3.59, 0, 2.38, 0, 0, 0, 0.6
IMU, 32763285, -0.0004401469, 0.0009218854, 0.00035564, 0.1151984, -0.06638608, -9.712398, 0, 0, 41.39717, 1, 1, 1000, 1000
IMU, 32802631, -0.000163739, 0.0001442806, 1.574724E-05, 0.1053102, -0.07694098, -9.732129, 0, 0, 41.39611, 1, 1, 1000, 1000
RFND, 32812399, 0.2, 25, 0, 0
IMU, 32842819, -0.0001887233, -0.001192739, -0.0001124228, 0.1225232, -0.07177088, -9.741601, 0, 0, 41.39707, 1, 1, 1000, 1000
MAG, 32862732, 241, 659, 175, 0, 0, 0, 0, 0, 0, 1, 32862723
RFND, 32862762, 0.2, 25, 0, 0
BARO, 32862821, -0.2543148, 988.1033, 40.44, -0.06004652, 32862, 0, 35
CTUN, 32862834, 0, 0, 0, 0.307312, 0.06563436, 0.06563436, -0.25, 0, 0.19, 0, 0, 0
ATT, 32862914, 0, 0.49, 0, -0.48, 359.94, 359.96, 0, 1
RATE, 32862920, -2.217015, 0.0120606, -0.005479482, 2.194717, -0.04344418, 0.005190239, -0.009642126, -0.0540302, -9.631711E-06, 138.3623, 2.103138, 0
NKF1, 32862927, 0.49, -0.48, 359.95, 0.007903916, -0.007673572, 0.003416353, 0, 0, 0, -0.06563436, 0, 0, 0
NKF2, 32862927, 7, 0, 0, 0, 0, 0, 0, 0, 0, 0, 0, 0, 0
NKF3, 32862927, 0, 0, 0, 0.01, 0, 0, 0, 0, 0, 0, 0
NKF4, 32862927, 0, 0, 0, 0, 0, 6.505657E-07, 0, 0, 0, 19, 229, 0, 0
NKF5, 32862927, 0, 0, 0, 0, 0.19, 0.13, 0, 0.19, 0.5, 3.702697E-05, 0.000841935, 0.001730067
NKQ1, 32862927, 0.999979, 0.003276893, 0.005584952, -0.0004508271
AHR2, 32862973, 0.5, -0.46, 359.93, -0.25, 0, 0, 0.9999819, 0.004431985, -0.004020709, -0.0005759623
MOTB, 32862980, 1, 1, 0, 1
RCIN, 32862984, 0, 0, 0, 0, 0, 0, 0, 0, 0, 0, 0, 0, 0, 0
RCOU, 32862990, 1101, 1101, 1101, 1101, 0, 0, 0, 0, 0, 0, 0, 0, 0, 0
VIBE, 32862999, 0.02092963, 0.0209348, 0.03699942, 0, 0, 0
CTRL, 32863005, 0.005229691, 0.0001826723, 0.00517129, 0.0001813085, 6.157903E-05
PRX, 32863035, 1, 0.6, 0, 3.59, 0, 3.59, 0, 2.38, 0, 0, 0, 0.6
IMU, 32882803, 0.0002018561, -0.001262248, -5.896138E-05, 0.110749, -0.06808487, -9.735926, 0, 0, 41.39568, 1, 1, 1000, 1000
RFND, 32912697, 0.2, 25, 0, 0
IMU, 32922831, 0.0004556109, -5.349146E-05, -0.0005799257, 0.1121028, -0.06697328, -9.729277, 0, 0, 41.39628, 1, 1, 1000, 1000
MAG, 32962738, 239, 665, 175, 0, 0, 0, 0, 0, 0, 1, 32962729
RFND, 32962784, 0.2, 25, 0, 0
BARO, 32962824, -0.3560407, 988.1147, 40.44, 0.08477161, 32962, 0, 35
CTUN, 32962837, 0, 0, 0, 0.307312, 0.06536213, 0.06536213, -0.35, 0, 0.19, 0, 0, 0
ATT, 32962919, 0, 0.49, 0, -0.48, 359.93, 359.95, 0, 1
RATE, 32962924, -2.210134, -0.01560714, -0.005111654, 2.203444, -0.01014726, 0.005195848, -0.009687434, -0.006060993, 3.900847E-07, 157.3328, -1.420307, 0
NKF1, 32962932, 0.49, -0.48, 359.94, 0.008048247, -0.008292542, 0.003884761, 0, 0, 0, -0.06536213, 0, 0, 0
NKF2, 32962932, 7, 0, 0, 0, 0, 0, 0, 0, 0, 0, 0, 0, 0
NKF3, 32962932, 0, 0, 0, 0.01, 0, 0, 0, 0, 0, 0, 0
NKF4, 32962932, 0, 0, 0, 0, 0, 5.156785E-07, 0, 0, 0, 19, 229, 0, 0
NKF5, 32962932, 0, 0, 0, 0, 0.19, 0.13, 0, 0.19, 0.5, 3.689735E-05, 0.000824727, 0.001709205
NKQ1, 32962932, 0.9999791, 0.00326399, 0.005569195, -0.0004600693
AHR2, 32962977, 0.5, -0.46, 359.93, -0.35, 0, 0, 0.9999819, 0.004423575, -0.004033459, -0.0005852986
MOTB, 32962985, 1, 1, 0, 1
RCIN, 32962989, 0, 0, 0, 0, 0, 0, 0, 0, 0, 0, 0, 0, 0, 0
RCOU, 32962995, 1101, 1101, 1101, 1101, 0, 0, 0, 0, 0, 0, 0, 0, 0, 0
VIBE, 32963004, 0.02478362, 0.0216047, 0.03846122, 0, 0, 0
CTRL, 32963011, 0.005221913, 0.0001732381, 0.005190513, 0.0001603407, 5.102087E-05
PRX, 32963042, 1, 0.6, 0, 3.59, 0, 3.59, 0, 2.38, 0, 0, 0, 0.6
IMU, 32963051, -0.0002978682, -8.846013E-05, -0.0001112472, 0.1253645, -0.07497296, -9.715042, 0, 0, 41.39736, 1, 1, 1000, 1000
IMU, 33003042, -0.0005370965, -0.0004489878, 0.0008777335, 0.1090698, -0.07635526, -9.733934, 0, 0, 41.39812, 1, 1, 1000, 1000
RFND, 33012855, 0.2, 25, 0, 0
IMU, 33043041, -0.000878174, 0.000673426, -0.0003356968, 0.1161671, -0.08483797, -9.717873, 0, 0, 41.3975, 1, 1, 1000, 1000
MAG, 33062815, 239, 662, 174, 0, 0, 0, 0, 0, 0, 1, 33062806
RFND, 33062843, 0.2, 25, 0, 0
BARO, 33062881, -0.3108292, 988.1097, 40.44, 0.03532151, 33062, 0, 35
CTUN, 33062894, 0, 0, 0, 0.307312, 0.06500607, 0.06500607, -0.31, 0, 0.19, 0, 0, 0
ATT, 33062969, 0, 0.48, 0, -0.49, 359.93, 359.95, 0, 1
RATE, 33062975, -2.19367, -0.03445514, -0.005240232, 2.20909, 0.03348132, 0.005156077, -0.007552655, -0.07200512, -2.422377E-05, 187.1998, 0.5044937, 0
NKF1, 33062983, 0.48, -0.49, 359.94, 0.008441847, -0.009102693, 0.004622217, 0, 0, 0, -0.06500607, 0, 0, 0
NKF2, 33062983, 7, 0, 0, 0, 0, 0, 0, 0, 0, 0, 0, 0, 0
NKF3, 33062983, 0, 0, 0, 0.01, 0, 0, 0, 0, 0, 0, 0
NKF4, 33062983, 0, 0, 0, 0, 0, 4.447194E-07, 0, 0, 0, 19, 229, 0, 0
NKF5, 33062983, 0, 0, 0, 0, 0.19, 0.13, 0, 0.19, 0.5, 3.647595E-05, 0.0007830429, 0.001609451
NKQ1, 33062983, 0.9999793, 0.003230845, 0.005557315, -0.0004647785
AHR2, 33063030, 0.5, -0.46, 359.93, -0.31, 0, 0, 0.999982, 0.004394908, -0.004043479, -0.0005899074
MOTB, 33063037, 1, 1, 0, 1
RCIN, 33063041, 0, 0, 0, 0, 0, 0, 0, 0, 0, 0, 0, 0, 0, 0
RCOU, 33063047, 1101, 1101, 1101, 1101, 0, 0, 0, 0, 0, 0, 0, 0, 0, 0
VIBE, 33063056, 0.02149545, 0.02064973, 0.03939203, 0, 0, 0
CTRL, 33063064, 0.005182629, 0.000167704, 0.005206743, 0.0001547501, 5.006094E-05
PRX, 33063094, 2, 0.6, 0, 3.59, 0, 3.59, 0, 2.37, 0, 0, 0, 0.6
IMU, 33082766, -5.123004E-05, 0.001680809, -0.001633392, 0.114679, -0.0739573, -9.733388, 0, 0, 41.39625, 1, 1, 1000, 1000
RFND, 33112419, 0.2, 25, 0, 0
IMU, 33122923, -0.0006919415, 0.0009225047, 0.0003234043, 0.113286, -0.06156076, -9.714949, 0, 0, 41.39569, 1, 1, 1000, 1000
MAG, 33162986, 246, 661, 177, 0, 0, 0, 0, 0, 0, 1, 33162978
RFND, 33163015, 0.2, 25, 0, 0
BARO, 33163055, -0.2204061, 988.0995, 40.44, -0.0936431, 33163, 0, 35
CTUN, 33163069, 0, 0, 0, 0.307312, 0.06463563, 0.06463563, -0.22, 0, 0.19, 0, 0, 0
ATT, 33163199, 0, 0.48, 0, -0.48, 359.93, 359.95, 0, 1
RATE, 33163205, -2.187882, 0.0295166, -0.005431025, 2.193232, 0.06580641, 0.004733504, -0.008641533, -0.02190762, 2.075668E-05, 172.2766, 2.171421, 0
NKF1, 33163212, 0.48, -0.48, 359.94, 0.009124127, -0.009795798, 0.004253744, 0, 0, 0, -0.06463563, 0, 0, 0
NKF2, 33163212, 7, 0, 0, 0, 0, 0, 0, 0, 0, 0, 0, 0, 0
NKF3, 33163212, 0, 0, 0, 0.01, 0, 0, 0, 0, 0, 0, 0
NKF4, 33163212, 0, 0, 0, 0, 0, 4.046483E-07, 0, 0, 0, 19, 229, 0, 0
NKF5, 33163212, 0, 0, 0, 0, 0.19, 0.13, 0, 0.19, 0.5, 3.637078E-05, 0.0007638537, 0.001575922
NKQ1, 33163212, 0.9999791, 0.003220311, 0.005589107, -0.0004837714
AHR2, 33163260, 0.5, -0.45, 359.92, -0.22, 0, 0, 0.9999821, 0.004389515, -0.004008836, -0.0006090768
MOTB, 33163267, 1, 1, 0, 1
RCIN, 33163271, 0, 0, 0, 0, 0, 0, 0, 0, 0, 0, 0, 0, 0, 0
RCOU, 33163277, 1101, 1101, 1101, 1101, 0, 0, 0, 0, 0, 0, 0, 0, 0, 0
VIBE, 33163286, 0.01890319, 0.01799871, 0.0375068, 0, 0, 0
CTRL, 33163293, 0.005162517, 0.0001473572, 0.005176461, 0.0001625734, 4.915853E-05
PRX, 33163324, 2, 0.6, 0, 3.59, 0, 3.59, 0, 2.37, 0, 0, 0, 0.6
IMU, 33163331, 0.00048967, 0.001237209, -0.0003878266, 0.1191749, -0.06854755, -9.751034, 0, 0, 41.39615, 1, 1, 1000, 1000
IMU, 33202819, -0.0007422086, 0.0001622816, 0.0004088663, 0.109323, -0.07571759, -9.711982, 0, 0, 41.39695, 1, 1, 1000, 1000
RFND, 33212728, 0.2, 25, 0, 0
IMU, 33242804, -0.0001915941, -0.0005567549, -0.0001211803, 0.1053861, -0.08009949, -9.730007, 0, 0, 41.39669, 1, 1, 1000, 1000
MAG, 33262731, 240, 665, 176, 0, 0, 0, 0, 0, 0, 1, 33262722
RFND, 33262760, 0.2, 25, 0, 0
BARO, 33262816, -0.1864975, 988.0958, 40.44, 0.01750216, 33262, 0, 35
CTUN, 33262830, 0, 0, 0, 0.307312, 0.06433912, 0.06433912, -0.18, 0, 0.19, 0, 0, 0
ATT, 33262913, 0, 0.48, 0, -0.48, 359.93, 359.95, 0, 1
RATE, 33262919, -2.186183, 0.01247208, -0.005252867, 2.19131, -0.01338397, 0.005165279, -0.008140777, 0.02574336, -2.665444E-05, 187.671, -0.1106262, 0
NKF1, 33262927, 0.48, -0.48, 359.94, 0.009044332, -0.01092345, 0.004633852, 0, 0, 0, -0.06433912, 0, 0, 0
NKF2, 33262927, 7, 0, 0, 0, 0, 0, 0, 0, 0, 0, 0, 0, 0
NKF3, 33262927, 0, 0, 0, 0.01, 0, 0, 0, 0, 0, 0, 0
NKF4, 33262927, 0, 0, 0, 0, 0, 4.077046E-07, 0, 0, 0, 19, 229, 0, 0
NKF5, 33262927, 0, 0, 0, 0, 0.19, 0.13, 0, 0.19, 0.5, 3.598955E-05, 0.0007211257, 0.001473323
NKQ1, 33262927, 0.9999791, 0.003218985, 0.005592416, -0.000477095
AHR2, 33262974, 0.5, -0.45, 359.92, -0.18, 0, 0, 0.9999822, 0.004396361, -0.003998899, -0.000602681
MOTB, 33262981, 1, 1, 0, 1
RCIN, 33262985, 0, 0, 0, 0, 0, 0, 0, 0, 0, 0, 0, 0, 0, 0
RCOU, 33262991, 1101, 1101, 1101, 1101, 0, 0, 0, 0, 0, 0, 0, 0, 0, 0
VIBE, 33263000, 0.02075127, 0.02024508, 0.03909951, 0, 0, 0
CTRL, 33263007, 0.005165147, 0.0001732963, 0.005163785, 0.0001532487, 4.22702E-05
PRX, 33263037, 1, 0.6, 0, 3.59, 0, 3.59, 0, 2.37, 0, 0, 0, 0.6
IMU, 33282864, -0.0001170333, 0.0002977168, -0.0002587884, 0.1048769, -0.06415329, -9.724407, 0, 0, 41.39669, 1, 1, 1000, 1000
RFND, 33312915, 0.2, 25, 0, 0
IMU, 33322682, 0.001030831, -0.001063544, -0.001503533, 0.102869, -0.06875657, -9.721355, 0, 0, 41.39694, 1, 1, 1000, 1000
MAG, 33362642, 242, 663, 177, 0, 0, 0, 0, 0, 0, 1, 33362633
RFND, 33362672, 0.2, 25, 0, 0
BARO, 33362721, -0.2599662, 988.1042, 40.44, 0.2991783, 33362, 0, 35
CTUN, 33362735, 0, 0, 0, 0.307312, 0.06396783, 0.06396783, -0.25, 0, 0.19, 0, 0, 0
ATT, 33362824, 0, 0.48, 0, -0.49, 359.93, 359.95, 0, 1
RATE, 33362831, -2.187811, -0.06187862, -0.004641032, 2.213102, -0.08039622, 0.005470596, -0.009752854, -0.01367451, 5.016567E-05, 206.945, 0.4445076, 0
NKF1, 33362839, 0.48, -0.49, 359.94, 0.009401565, -0.01137543, 0.005109753, 0, 0, 0, -0.06396783, 0, 0, 0
NKF2, 33362839, 7, 0, 0, 0, 0, 0, 0, 0, 0, 0, 0, 0, 0
NKF3, 33362839, 0, 0, 0, 0.01, -0.01, 0, 0, 0, 0, 0, 0
NKF4, 33362839, 0, 0, 0, 0, 0, 4.190239E-07, 0, 0, 0, 19, 229, 0, 0
NKF5, 33362839, 0, 0, 0, 0, 0.19, 0.13, 0, 0.19, 0.5, 3.582112E-05, 0.000678261, 0.001379566
NKQ1, 33362839, 0.9999794, 0.003220152, 0.00555089, -0.0004985079
AHR2, 33362886, 0.5, -0.46, 359.92, -0.25, 0, 0, 0.9999819, 0.004405182, -0.004034965, -0.0006243573
MOTB, 33362893, 1, 1, 0, 1
RCIN, 33362898, 0, 0, 0, 0, 0, 0, 0, 0, 0, 0, 0, 0, 0, 0
RCOU, 33362904, 1101, 1101, 1101, 1101, 0, 0, 0, 0, 0, 0, 0, 0, 0, 0
VIBE, 33362913, 0.02167081, 0.01883396, 0.03889794, 0, 0, 0
CTRL, 33362919, 0.005177934, 0.0001703704, 0.005202049, 0.0001467289, 3.954143E-05
PRX, 33362949, 1, 0.6, 0, 3.59, 0, 3.59, 0, 2.37, 0, 0, 0, 0.6
IMU, 33362957, -0.001105513, -0.001314507, -0.0002441369, 0.1133544, -0.06691311, -9.733796, 0, 0, 41.3963, 1, 1, 1000, 1000
IMU, 33402682, 0.000384712, -0.0002761704, -0.0003993564, 0.102884, -0.07722476, -9.73488, 0, 0, 41.396, 1, 1, 1000, 1000
RFND, 33412400, 0.2, 25, 0, 0
IMU, 33442652, 0.001322441, 0.000515266, 0.0004984004, 0.1081011, -0.07686137, -9.728125, 0, 0, 41.396, 1, 1, 1000, 1000
MAG, 33462528, 241, 663, 175, 0, 0, 0, 0, 0, 0, 1, 33462520
RFND, 33462557, 0.2, 25, 0, 0
BARO, 33462649, -0.2882234, 988.1071, 40.44, 0.3037648, 33462, 0, 35
CTUN, 33462663, 0, 0, 0, 0.307312, 0.0636076, 0.0636076, -0.28, 0, 0.19, 0, 0, 0
ATT, 33462747, 0, 0.48, 0, -0.49, 359.93, 359.95, 0, 1
RATE, 33462752, -2.200003, 0.02344223, -0.00501741, 2.206381, 0.01079898, 0.005166485, -0.009890554, -0.04043742, 3.033564E-05, 225.9502, 1.012707, 0
NKF1, 33462760, 0.48, -0.49, 359.94, 0.009314129, -0.01264065, 0.005579018, 0, 0, 0, -0.0636076, 0, 0, 0
NKF2, 33462760, 7, 0, 0, 0, 0, 0, 0, 0, 0, 0, 0, 0, 0
NKF3, 33462760, 0, 0, 0, 0.01, -0.01, 0, 0, 0, 0, 0, 0
NKF4, 33462760, 0, 0, 0, 0, 0, 4.576792E-07, 0, 0, 0, 19, 229, 0, 0
NKF5, 33462760, 0, 0, 0, 0, 0.19, 0.13, 0, 0.19, 0.5, 3.585952E-05, 0.0006581608, 0.001335927
NKQ1, 33462760, 0.9999792, 0.003245045, 0.00556181, -0.000519613
AHR2, 33462823, 0.5, -0.46, 359.92, -0.28, 0, 0, 0.9999819, 0.004436951, -0.004022465, -0.0006459935
MOTB, 33462831, 1, 1, 0, 1
RCIN, 33462835, 0, 0, 0, 0, 0, 0, 0, 0, 0, 0, 0, 0, 0, 0
RCOU, 33462841, 1101, 1101, 1101, 1101, 0, 0, 0, 0, 0, 0, 0, 0, 0, 0
VIBE, 33462850, 0.02174585, 0.02153035, 0.04001474, 0, 0, 0
CTRL, 33462856, 0.005195795, 0.0001783371, 0.005200946, 0.0001480424, 3.992307E-05
PRX, 33462886, 1, 0.6, 0, 3.59, 0, 3.59, 0, 2.37, 0, 0, 0, 0.6
IMU, 33482991, -0.0001754948, -2.585706E-05, -0.0006348484, 0.1120544, -0.07923657, -9.718061, 0, 0, 41.396, 1, 1, 1000, 1000
RFND, 33513038, 0.2, 25, 0, 0
IMU, 33522882, 0.0001716696, -0.0002206833, -0.0005670757, 0.105524, -0.05634083, -9.720523, 0, 0, 41.396, 1, 1, 1000, 1000
MAG, 33562784, 238, 665, 176, 0, 0, 0, 0, 0, 0, 1, 33562758
RFND, 33562819, 0.2, 25, 0, 0
BARO, 33562856, -0.1864975, 988.0961, 40.43, 0.01911624, 33562, 0, 35
CTUN, 33562870, 0, 0, 0, 0.307312, 0.06319746, 0.06319746, -0.18, 0, 0.19, 0, 0, 0
ATT, 33562952, 0, 0.48, 0, -0.49, 359.93, 359.95, 0, 1
RATE, 33562958, -2.190397, -0.1074165, -0.004720553, 2.215918, -0.05080376, 0.005440132, -0.009136812, 0.05237419, -4.173529E-05, 280.1544, -2.349377, 0
NKF1, 33562966, 0.48, -0.49, 359.94, 0.009259262, -0.01317811, 0.006917391, 0, 0, 0, -0.06319746, 0, 0, 0
NKF2, 33562966, 7, 0, 0, 0, 0, 0, 0, 0, 0, 0, 0, 0, 0
NKF3, 33562966, 0, 0, 0, 0.01, -0.01, 0, 0, 0, 0, 0, 0
NKF4, 33562966, 0, 0, 0, 0, 0, 5.069867E-07, 0, 0, 0, 19, 229, 0, 0
NKF5, 33562966, 0, 0, 0, 0, 0.19, 0.13, 0, 0.19, 0.5, 3.547627E-05, 0.0006172353, 0.001247007
NKQ1, 33562966, 0.9999793, 0.00322672, 0.005546091, -0.0005152883
AHR2, 33563013, 0.5, -0.46, 359.92, -0.18, 0, 0, 0.9999819, 0.004425951, -0.004037098, -0.0006417432
MOTB, 33563021, 1, 1, 0, 1
RCIN, 33563025, 0, 0, 0, 0, 0, 0, 0, 0, 0, 0, 0, 0, 0, 0
RCOU, 33563031, 1101, 1101, 1101, 1101, 0, 0, 0, 0, 0, 0, 0, 0, 0, 0
VIBE, 33563040, 0.02326486, 0.02155825, 0.03649212, 0, 0, 0
CTRL, 33563047, 0.005179685, 0.000182791, 0.005213161, 0.0001353464, 3.636475E-05
PRX, 33563077, 2, 0.6, 0, 3.59, 0, 3.59, 0, 2.37, 0, 0, 0, 0.6
IMU, 33563085, -0.00190038, -0.0007978268, 0.0009086151, 0.1063971, -0.06761211, -9.705731, 0, 0, 41.396, 1, 1, 1000, 1000
IMU, 33602812, 0.0008583438, -0.0001126025, 0.001486602, 0.1206167, -0.0679621, -9.728428, 0, 0, 41.396, 1, 1, 1000, 1000
RFND, 33612805, 0.2, 25, 0, 0
IMU, 33642844, -2.630542E-05, -8.05664E-05, 5.187379E-06, 0.113175, -0.06947846, -9.717053, 0, 0, 41.396, 1, 1, 1000, 1000
MAG, 33662817, 243, 659, 177, 0, 0, 0, 0, 0, 0, 1, 33662808
RFND, 33662851, 0.2, 25, 0, 0
BARO, 33662887, -0.1525889, 988.092, 40.43, -0.06700458, 33662, 0, 35
CTUN, 33662899, 0, 0, 0, 0.307312, 0.06267881, 0.06267881, -0.15, 0, 0.19, 0, 0, 0
ATT, 33662976, 0, 0.48, 0, -0.49, 359.93, 359.95, 0, 1
RATE, 33662982, -2.189285, -0.01372418, -0.005017861, 2.222377, 0.0268166, 0.005065087, -0.009155718, 0.05113875, -0.0001160125, 310.6829, -1.093006, 0
NKF1, 33662990, 0.48, -0.49, 359.94, 0.009762858, -0.0141158, 0.007671183, 0, 0, 0, -0.06267881, 0, 0, 0
NKF2, 33662990, 7, 0, 0, 0, 0, 0, 0, 0, 0, 0, 0, 0, 0
NKF3, 33662990, 0, 0, 0, 0.01, -0.01, 0, 0, 0, 0, 0, 0
NKF4, 33662990, 0, 0, 0, 0, 0, 5.62471E-07, 0, 0, 0, 19, 229, 0, 0
NKF5, 33662990, 0, 0, 0, 0, 0.19, 0.13, 0, 0.19, 0.5, 3.565111E-05, 0.0005981709, 0.001201884
NKQ1, 33662990, 0.9999794, 0.003225564, 0.005532437, -0.0004873727
AHR2, 33663037, 0.5, -0.46, 359.92, -0.15, 0, 0, 0.9999818, 0.004433187, -0.004051649, -0.0006140745
MOTB, 33663044, 1, 1, 0, 1
RCIN, 33663048, 0, 0, 0, 0, 0, 0, 0, 0, 0, 0, 0, 0, 0, 0
RCOU, 33663055, 1101, 1101, 1101, 1101, 0, 0, 0, 0, 0, 0, 0, 0, 0, 0
VIBE, 33663064, 0.02110451, 0.01777697, 0.03663827, 0, 0, 0
CTRL, 33663070, 0.00517066, 0.0001773883, 0.005237696, 0.0001223718, 5.934534E-05
PRX, 33663101, 2, 0.6, 0, 3.59, 0, 3.59, 0, 2.37, 0, 0, 0, 0.6
IMU, 33683357, 0.0001127243, 0.001084203, -0.0009159349, 0.1254204, -0.07022016, -9.747072, 0, 0, 41.396, 1, 1, 1000, 1000
RFND, 33712743, 0.2, 25, 0, 0
IMU, 33722860, 0.001551807, -0.0002777191, 0.0005694161, 0.1095814, -0.0690311, -9.734976, 0, 0, 41.396, 1, 1, 1000, 1000
MAG, 33762737, 242, 663, 178, 0, 0, 0, 0, 0, 0, 1, 33762728
RFND, 33762789, 0.2, 25, 0, 0
BARO, 33762827, -0.1356345, 988.0904, 40.43, 0.183716, 33762, 0, 35
CTUN, 33762840, 0, 0, 0, 0.307312, 0.06222429, 0.06222429, -0.13, 0, 0.19, 0, 0, 0
DU32, 33762879, 7, 50389208
ATT, 33762982, 0, 0.48, 0, -0.49, 359.93, 359.95, 0, 1
RATE, 33762990, -2.198114, -0.03337512, -0.004912314, 2.219012, 0.009000232, 0.005241373, -0.009509279, 0.004029969, -2.434242E-05, 295.6972, -0.8572578, 0
NKF1, 33762997, 0.48, -0.49, 359.94, 0.01043514, -0.01467038, 0.007301165, 0, 0, 0, -0.06222429, 0, 0, 0
NKF2, 33762997, 7, 0, 0, 0, 0, 0, 0, 0, 0, 0, 0, 0, 0
NKF3, 33762997, 0, 0, 0, 0.01, -0.01, 0, 0, 0, 0, 0, 0
NKF4, 33762997, 0, 0, 0, 0, 0, 6.418152E-07, 0, 0, 0, 19, 229, 0, 0
NKF5, 33762997, 0, 0, 0, 0, 0.19, 0.13, 0, 0.19, 0.5, 3.527039E-05, 0.00056114, 0.001122454
NKQ1, 33762997, 0.9999793, 0.00324071, 0.005539414, -0.0004993836
AHR2, 33763044, 0.51, -0.46, 359.92, -0.13, 0, 0, 0.9999817, 0.004455976, -0.004044448, -0.0006265182
MOTB, 33763051, 1, 1, 0, 1
RCIN, 33763056, 0, 0, 0, 0, 0, 0, 0, 0, 0, 0, 0, 0, 0, 0
RCOU, 33763062, 1101, 1101, 1101, 1101, 0, 0, 0, 0, 0, 0, 0, 0, 0, 0
VIBE, 33763071, 0.02007814, 0.01859893, 0.03638437, 0, 0, 0
CTRL, 33763078, 0.005193167, 0.0001869527, 0.005229964, 0.0001778079, 5.947952E-05
PRX, 33763107, 1, 0.6, 0, 3.59, 0, 3.59, 0, 2.37, 0, 0, 0, 0.6
IMU, 33763115, -0.0006080888, 0.000245748, 6.485773E-05, 0.1190994, -0.05984948, -9.720704, 0, 0, 41.396, 1, 1, 1000, 1000
IMU, 33802807, -0.0005253523, 0.001230814, 0.0002941222, 0.1051622, -0.07197213, -9.726665, 0, 0, 41.396, 1, 1, 1000, 1000
RFND, 33813014, 0.2, 25, 0, 0
IMU, 33842814, -0.0007880889, 0.0007753473, 0.00049188, 0.1235004, -0.07320344, -9.756569, 0, 0, 41.396, 1, 1, 1000, 1000
MAG, 33862722, 243, 662, 172, 0, 0, 0, 0, 0, 0, 1, 33862714
RFND, 33862757, 0.2, 25, 0, 0
BARO, 33862811, -0.1864975, 988.0961, 40.43, 0.3673435, 33862, 0, 35
CTUN, 33862826, 0, 0, 0, 0.307312, 0.06178339, 0.06178339, -0.18, 0, 0.19, 0, 0, 0
ATT, 33862909, 0, 0.48, 0, -0.48, 359.93, 359.95, 0, 1
RATE, 33862915, -2.180814, 0.001368398, -0.005255029, 2.202061, 0.1029811, 0.004713645, -0.009213319, 0.002258417, -2.725314E-05, 264.7239, -0.2560616, 0
NKF1, 33862923, 0.48, -0.48, 359.94, 0.01107172, -0.01548924, 0.006536392, 0, 0, 0, -0.06178339, 0, 0, 0
NKF2, 33862923, 7, 0, 0, 0, 0, 0, 0, 0, 0, 0, 0, 0, 0
NKF3, 33862923, 0, 0, 0, 0.01, -0.01, 0, 0, 0, 0, 0, 0
NKF4, 33862923, 0, 0, 0, 0, 0, 7.184196E-07, 0, 0, 0, 19, 229, 0, 0
NKF5, 33862923, 0, 0, 0, 0, 0.19, 0.13, 0, 0.19, 0.5, 3.483068E-05, 0.0005480651, 0.001126879
NKQ1, 33862923, 0.9999793, 0.003207233, 0.005572204, -0.0005041258
AHR2, 33862969, 0.5, -0.45, 359.92, -0.18, 0, 0, 0.9999819, 0.004428923, -0.004006731, -0.0006312398
MOTB, 33862976, 1, 1, 0, 1
RCIN, 33862981, 0, 0, 0, 0, 0, 0, 0, 0, 0, 0, 0, 0, 0, 0
RCOU, 33862986, 1101, 1101, 1101, 1101, 0, 0, 0, 0, 0, 0, 0, 0, 0, 0
VIBE, 33862995, 0.02052699, 0.02057379, 0.03803909, 0, 0, 0
CTRL, 33863002, 0.005149127, 0.0001747321, 0.005204867, 0.0001794195, 4.974819E-05
PRX, 33863033, 1, 0.6, 0, 3.59, 0, 3.59, 0, 2.37, 0, 0, 0, 0.6
IMU, 33882964, -0.0001096159, 0.0002920253, -0.0003178988, 0.1130428, -0.07425724, -9.73864, 0, 0, 41.396, 1, 1, 1000, 1000
RFND, 33913027, 0.2, 25, 0, 0
EV, 33917265, 57
IMU, 33923033, -0.0005993724, 0.0006129511, -3.240119E-05, 0.1104452, -0.07903101, -9.724346, 0, 0, 41.3959, 1, 1, 1000, 1000
MAG, 33962756, 235, 661, 175, 0, 0, 0, 0, 0, 0, 1, 33962747
RFND, 33963201, 0.2, 25, 0, 0
BARO, 33963243, -0.1582403, 988.0927, 40.43, 0.2383672, 33963, 0, 35
CTUN, 33963257, 0, 0, 0, 0.307312, 0.06145595, 0.06145595, -0.15, 0, 0.19, 0, 0, 0
ATT, 33963341, 0, 0.48, 0, -0.48, 359.93, 359.95, 0, 1
RATE, 33963347, -2.180337, 0.0980584, -0.005695496, 2.198929, 0.01434274, 0.005157378, -0.009293499, 0.006519897, -3.395437E-05, 291.2691, -1.159477, 0
NKF1, 33963355, 0.48, -0.48, 359.94, 0.0116288, -0.01657426, 0.007191829, 0, 0, 0, -0.06145595, 0, 0, 0
NKF2, 33963355, 7, 0, 0, 0, 0, 0, 0, 0, 0, 0, 0, 0, 0
NKF3, 33963355, 0, 0, 0, 0.01, -0.01, 0, 0, 0, 0, 0, 0
NKF4, 33963355, 0, 0, 0, 0, 0, 8.251741E-07, 0, 0, 0, 19, 229, 0, 0
NKF5, 33963355, 0, 0, 0, 0, 0.19, 0.13, 0, 0.19, 0.5, 3.498812E-05, 0.0005079203, 0.001005465
NKQ1, 33963355, 0.9999791, 0.003207122, 0.005577579, -0.0004950383
AHR2, 33963404, 0.5, -0.45, 359.92, -0.15, 0, 0, 0.999982, 0.004435265, -0.003996194, -0.0006224501
MOTB, 33963412, 1, 1, 0, 1
RCIN, 33963416, 0, 0, 0, 0, 0, 0, 0, 0, 0, 0, 0, 0, 0, 0
RCOU, 33963421, 1111, 1111, 1111, 1111, 0, 0, 0, 0, 0, 0, 0, 0, 0, 0
VIBE, 33963431, 0.02156777, 0.02067829, 0.03709995, 0, 0, 0
CTRL, 33963438, 0.005138272, 0.0001709868, 0.005187751, 0.0001792505, 5.058439E-05
PRX, 33963468, 1, 0.6, 0, 3.59, 0, 3.59, 0, 2.37, 0, 0, 0, 0.6
IMU, 33963476, 0.00168578, 0.0003391285, 0.0001083024, 0.1207363, -0.0762823, -9.7174, 0, 0, 41.39573, 1, 1, 1000, 1000
IMU, 34002821, -0.0003623712, -0.0003715372, 0.0002990518, 0.1193384, -0.06893652, -9.739983, 0, 0, 41.39631, 1, 1, 1000, 1000
RFND, 34013132, 0.2, 25, 0, 0
IMU, 34043159, 0.0004518019, -0.0003018303, 6.800761E-05, 0.1130655, -0.07646695, -9.721966, 0, 0, 41.39631, 1, 1, 1000, 1000
MAG, 34062835, 241, 660, 175, 0, 0, 0, 0, 0, 0, 1, 34062827
RFND, 34062870, 0.2, 25, 0, 0
BARO, 34062907, -0.1130288, 988.0876, 40.43, 0.0369995, 34062, 0, 35
CTUN, 34062920, 0, 0, 0, 0.307312, 0.06109085, 0.06109085, -0.11, 0, 0.19, 0, 0, 0
ATT, 34063000, 0, 0.48, 0, -0.49, 359.93, 359.95, 0, 1
RATE, 34063006, -2.176074, -0.01499892, -0.004920047, 2.213921, -0.0393493, 0.005233316, -0.009336802, 0.0007190243, -3.885455E-05, 274.5293, 1.094055, 0
NKF1, 34063014, 0.48, -0.49, 359.94, 0.01219938, -0.01740175, 0.0067785, 0, 0, 0, -0.06109085, 0, 0, 0
NKF2, 34063014, 7, 0, 0, 0, 0, 0, 0, 0, 0, 0, 0, 0, 0
NKF3, 34063014, 0, 0, 0, 0.02, -0.01, 0, 0, 0, 0, 0, 0
NKF4, 34063014, 0, 0, 0, 0, 0, 9.310027E-07, 0, 0, 0, 19, 229, 0, 0
NKF5, 34063014, 0, 0, 0, 0, 0.19, 0.13, 0, 0.19, 0.5, 3.443014E-05, 0.00050213, 0.001032989
NKQ1, 34063014, 0.9999794, 0.003198235, 0.005548908, -0.0004841489
AHR2, 34063060, 0.5, -0.46, 359.92, -0.11, 0, 0, 0.9999819, 0.004432603, -0.004018604, -0.0006117453
MOTB, 34063068, 1, 1, 0, 1
RCIN, 34063072, 0, 0, 0, 0, 0, 0, 0, 0, 0, 0, 0, 0, 0, 0
RCOU, 34063078, 1135, 1135, 1135, 1135, 0, 0, 0, 0, 0, 0, 0, 0, 0, 0
VIBE, 34063087, 0.02185709, 0.02055231, 0.03446085, 0, 0, 0
CTRL, 34063094, 0.005142306, 0.0001669649, 0.005216483, 0.0001615839, 5.608344E-05
PRX, 34063125, 2, 0.6, 0, 3.59, 0, 3.59, 0, 2.39, 0, 0, 0, 0.6
IMU, 34082834, -0.0006963845, 0.001275867, 0.0009283942, 0.108469, -0.06158282, -9.730264, 0, 0, 41.39631, 1, 1, 1000, 1000
RFND, 34112757, 0.2, 25, 0, 0
IMU, 34122841, -0.0001342372, -0.0004507095, 0.0004809689, 0.1162652, -0.07309178, -9.722919, 0, 0, 41.39631, 1, 1, 1000, 1000
MAG, 34162868, 237, 658, 174, 0, 0, 0, 0, 0, 0, 1, 34162860
RFND, 34162903, 0.2, 25, 0, 0
BARO, 34162939, -0.141286, 988.091, 40.43, 0.02843295, 34162, 0, 35
CTUN, 34162952, 0, 0, 0, 0.307312, 0.06075309, 0.06075309, -0.14, 0, 0.19, 0, 0, 0
ATT, 34163032, 0, 0.48, 0, -0.49, 359.94, 359.96, 0, 1
RATE, 34163038, -2.166327, -0.02462213, -0.00509293, 2.212732, 0.02777357, 0.005061336, -0.009287777, 0.0485213, -0.0001019116, 297.659, -0.6468773, 0
NKF1, 34163046, 0.48, -0.49, 359.95, 0.01242129, -0.01806547, 0.007349605, 0, 0, 0, -0.06075309, 0, 0, 0
NKF2, 34163046, 7, 0, 0, 0, 0, 0, 0, 0, 0, 0, 0, 0, 0
NKF3, 34163046, 0, 0, 0, 0.02, -0.01, 0, 0, 0, 0, 0, 0
NKF4, 34163046, 0, 0, 0, 0, 0, 1.044914E-06, 0, 0, 0, 19, 229, 0, 0
NKF5, 34163046, 0, 0, 0, 0, 0.19, 0.13, 0, 0.19, 0.5, 3.468384E-05, 0.0004599642, 0.0008982869
NKQ1, 34163046, 0.9999794, 0.00317941, 0.00555266, -0.0004515518
AHR2, 34163092, 0.5, -0.45, 359.93, -0.14, 0, 0, 0.9999821, 0.004420042, -0.004008908, -0.0005792573
MOTB, 34163099, 1, 1, 0, 1
RCIN, 34163103, 0, 0, 0, 0, 0, 0, 0, 0, 0, 0, 0, 0, 0, 0
RCOU, 34163109, 1159, 1159, 1159, 1159, 0, 0, 0, 0, 0, 0, 0, 0, 0, 0
VIBE, 34163118, 0.02278105, 0.02261577, 0.03288905, 0, 0, 0
CTRL, 34163125, 0.005117089, 0.0001476765, 0.0052161, 0.0001660362, 6.933734E-05
PRX, 34163155, 2, 0.6, 0, 3.59, 0, 3.59, 0, 2.39, 0, 0, 0, 0.6
IMU, 34163162, -0.0004553845, 0.0005733165, 0.0008413742, 0.1068384, -0.06532456, -9.722898, 0, 0, 41.39669, 1, 1, 1000, 1000
IMU, 34202895, -0.001713506, -0.0007513374, 0.0006044405, 0.120053, -0.07269046, -9.744558, 0, 0, 41.39692, 1, 1, 1000, 1000
RFND, 34212708, 0.2, 25, 0, 0
IMU, 34242822, -0.0002360579, -0.0001275331, -0.001225301, 0.1113684, -0.07712076, -9.732598, 0, 0, 41.39653, 1, 1, 1000, 1000
MAG, 34262761, 241, 659, 181, 0, 0, 0, 0, 0, 0, 1, 34262753
RFND, 34262815, 0.2, 25, 0, 0
BARO, 34262852, -0.1525889, 988.0923, 40.43, 0.1077306, 34262, 0, 35
CTUN, 34262866, 0, 0, 0, 0.307312, 0.06043317, 0.06043317, -0.15, 0, 0.19, 0, 0, 0
ATT, 34262944, 0, 0.47, 0, -0.49, 359.94, 359.96, 0, 1
RATE, 34262950, -2.14898, -0.08521764, -0.004605343, 2.222456, -0.01971529, 0.005255959, -0.009259635, 0.1704592, -0.000120601, 292.3111, -0.3769875, 0
NKF1, 34262958, 0.47, -0.49, 359.95, 0.01316111, -0.01893488, 0.007217557, 0, 0, 0, -0.06043318, 0, 0, 0
NKF2, 34262958, 7, 0, 0, 0, 0, 0, 0, 0, 0, 0, 0, 0, 0
NKF3, 34262958, 0, 0, 0, 0.02, -0.02, 0, 0, 0, 0, 0, 0
NKF4, 34262958, 0, 0, 0, 0, 0, 1.179081E-06, 0, 0, 0, 19, 229, 0, 0
NKF5, 34262958, 0, 0, 0, 0, 0.19, 0.13, 0, 0.19, 0.5, 3.384145E-05, 0.0004512084, 0.0009454523
NKQ1, 34262958, 0.9999797, 0.003148848, 0.005534656, -0.000427738
AHR2, 34263004, 0.5, -0.46, 359.93, -0.15, 0, 0, 0.9999821, 0.004394945, -0.004022402, -0.0005554067
MOTB, 34263012, 1, 1, 0, 1
RCIN, 34263016, 0, 0, 0, 0, 0, 0, 0, 0, 0, 0, 0, 0, 0, 0
RCOU, 34263022, 1183, 1183, 1183, 1183, 0, 0, 0, 0, 0, 0, 0, 0, 0, 0
VIBE, 34263031, 0.04549039, 0.04857796, 0.04232121, 0, 0, 0
CTRL, 34263038, 0.005088901, 0.0001784199, 0.005233068, 0.00015408, 7.976024E-05
PRX, 34263069, 1, 0.6, 0, 3.59, 0, 3.59, 0, 2.39, 0, 0, 0, 0.6
IMU, 34282822, -0.001160704, -0.0001250931, 0.0001711838, 0.1234935, -0.07471205, -9.736052, 0, 0, 41.39661, 1, 1, 1000, 1000
RFND, 34312791, 0.2, 25, 0, 0
IMU, 34322810, -0.002532405, 0.000947462, 0.01155153, 0.06360976, -0.1202416, -9.700435, 0, 0, 41.39638, 1, 1, 1000, 1000
MAG, 34362555, 237, 660, 174, 0, 0, 0, 0, 0, 0, 1, 34362547
RFND, 34362650, 0.2, 25, 0, 0
BARO, 34362699, -0.2147547, 988.0994, 40.43, 0.04428499, 34362, 0, 35
CTUN, 34362713, 0, 0, 0, 0.307312, 0.06008445, 0.06008445, -0.21, 0, 0.19, 0, 0, 0
ATT, 34362800, 0, 0.48, 0, -0.48, 359.92, 359.94, 0, 1
RATE, 34362807, -2.198682, 0.3623597, -0.007711482, 2.186054, 0.162894, 0.004396255, -0.009314592, -0.7607088, 0.0004116179, 318.1849, 8.884525, 0
NKF1, 34362814, 0.48, -0.48, 359.93, 0.01373147, -0.01884274, 0.007856417, 0, 0, 0, -0.06008445, 0, 0, 0
NKF2, 34362814, 7, 0, 0, 0, 0, 0, 0, 0, 0, 0, 0, 0, 0
NKF3, 34362814, 0, 0, 0, 0.02, -0.02, 0, 0, 0, 0, 0, 0
NKF4, 34362814, 0, 0, 0, 0, 0, 1.309175E-06, 0, 0, 0, 19, 229, 0, 0
NKF5, 34362814, 0, 0, 0, 0, 0.19, 0.13, 0, 0.19, 0.5, 3.435794E-05, 0.0004141754, 0.0007970399
NKQ1, 34362814, 0.999979, 0.003230104, 0.005590074, -0.0005892089
AHR2, 34362860, 0.51, -0.45, 359.91, -0.21, 0, 0, 0.9999819, 0.00447584, -0.003962083, -0.0007180083
MOTB, 34362867, 1, 1, 0, 1
RCIN, 34362871, 0, 0, 0, 0, 0, 0, 0, 0, 0, 0, 0, 0, 0, 0
RCOU, 34362877, 1207, 1207, 1207, 1207, 0, 0, 0, 0, 0, 0, 0, 0, 0, 0
VIBE, 34362886, 0.234151, 0.3286974, 0.3553005, 0, 0, 0
CTRL, 34362893, 0.005116843, 0.0004931713, 0.005204728, 0.0001854161, 0.0001357323
PRX, 34362924, 1, 0.6, 0, 3.59, 0, 3.59, 0, 2.39, 0, 0, 0, 0.6
IMU, 34362932, 0.006298723, 0.002931405, -0.01328235, 0.06343071, -0.1282662, -9.818424, 0, 0, 41.39637, 1, 1, 1000, 1000
IMU, 34402683, -0.002075445, 0.003145371, -0.007617537, 0.03812437, -0.0272271, -9.698396, 0, 0, 41.39697, 1, 1, 1000, 1000
RFND, 34412406, 0.2, 25, 0, 0
IMU, 34442643, -0.005033369, 0.003688982, 0.01742543, 0.1215986, -0.1019079, -9.722322, 0, 0, 41.39672, 1, 1, 1000, 1000
MAG, 34462782, 243, 662, 177, 0, 0, 0, 0, 0, 0, 1, 34462757
RFND, 34462816, 0.2, 25, 0, 0
BARO, 34462854, -0.2486633, 988.1028, 40.43, -0.1520595, 34462, 0, 35
CTUN, 34462868, 0, 0, 0, 0.307312, 0.05975986, 0.05975986, -0.24, 0, 0.19, 0, 0, 0
ATT, 34463112, 0, 0.47, 0, -0.47, 359.92, 359.94, 0, 1
RATE, 34463118, -2.165582, -0.1989253, -0.005156724, 2.125735, 0.3591866, 0.003641886, -0.00891829, -0.552694, -3.126118E-05, 382.8367, 0.03490448, 0
NKF1, 34463126, 0.47, -0.47, 359.93, 0.01528845, -0.0200844, 0.009452757, 0, 0, 0, -0.05975986, 0, 0, 0
NKF2, 34463126, 7, 0, 0, 0, 0, 0, 0, 0, 0, 0, 0, 0, 0
NKF3, 34463126, 0, 0, 0, 0.02, -0.02, 0, 0, 0, 0, 0, 0
NKF4, 34463126, 0, 0, 0, 0, 0, 1.491794E-06, 0, 0, 0, 19, 229, 0, 0
NKF5, 34463126, 0, 0, 0, 0, 0.19, 0.13, 0, 0.19, 0.5, 3.343662E-05, 0.0004025033, 0.0008478838
NKQ1, 34463126, 0.9999785, 0.003168955, 0.005711347, -0.0005887296
AHR2, 34463173, 0.5, -0.43, 359.91, -0.24, 0, 0, 0.9999827, 0.004397089, -0.003833227, -0.0007172146
MOTB, 34463180, 1, 1, 0, 1
RCIN, 34463184, 0, 0, 0, 0, 0, 0, 0, 0, 0, 0, 0, 0, 0, 0
RCOU, 34463190, 1236, 1221, 1227, 1230, 0, 0, 0, 0, 0, 0, 0, 0, 0, 0
VIBE, 34463199, 0.4324983, 0.516102, 0.6369822, 0, 0, 0
CTRL, 34463205, 0.00510256, 0.0009373995, 0.005069403, 0.0004890427, 0.0002573871
PRX, 34463236, 1, 0.6, 0, 3.59, 0, 3.59, 0, 2.39, 0, 0, 0, 0.6
IMU, 34482717, 0.006416231, -0.005086248, 0.01712311, 0.04844955, -0.08964196, -9.710001, 0, 0, 41.39697, 1, 1, 1000, 1000
RFND, 34512749, 0.2, 25, 0, 0
IMU, 34522854, 0.001087891, 0.006506032, 0.01016967, 0.1191875, 0.03985749, -9.700197, 0, 0, 41.39699, 1, 1, 1000, 1000
MAG, 34563205, 235, 659, 183, 0, 0, 0, 0, 0, 0, 1, 34563197
RFND, 34563240, 0.2, 25, 0, 0
BARO, 34563276, -0.2995263, 988.1083, 40.44, -0.3284899, 34563, 0, 35
CTUN, 34563289, 0, 0, 0, 0.307312, 0.05925472, 0.05925472, -0.29, 0, 0.19, 0, 0, -1
ATT, 34563725, 0, 0.48, 0, -0.46, 359.95, 359.97, 0, 1
RATE, 34563733, -2.189629, -0.005347804, -0.004418798, 2.066718, 0.467225, 0.001115315, -0.008771854, -0.9030894, -0.0008103809, 433.8665, 0.1758575, 0
NKF1, 34563743, 0.48, -0.46, 359.96, 0.01402181, -0.02147109, 0.01071275, 0, 0, 0, -0.05925472, 0, 0, 0
NKF2, 34563743, 7, 0, 0, 0, 0, 0, 0, 0, 0, 0, 0, 0, 0
NKF3, 34563743, 0, 0, 0, 0.02, -0.02, 0, 0, 0, 0, 0, 0
NKF4, 34563743, 0, 0, 0, 0, 0, 1.639627E-06, 0, 0, 0, 19, 229, 0, 0
NKF5, 34563743, 0, 0, 0, 0, 0.19, 0.13, 0, 0.19, 0.5, 3.254371E-05, 0.0004756703, 0.001139517
NKQ1, 34563743, 0.9999779, 0.00320962, 0.005820033, -0.0003246864
AHR2, 34564159, 0.5, -0.42, 359.94, -0.29, 0, 0, 0.9999832, 0.004430119, -0.003718225, -0.0004539146
MOTB, 34564169, 1, 1, 0, 1
RCIN, 34564174, 0, 0, 0, 0, 0, 0, 0, 0, 0, 0, 0, 0, 0, 0
RCOU, 34564181, 1230, 1221, 1224, 1230, 0, 0, 0, 0, 0, 0, 0, 0, 0, 0
VIBE, 34564191, 0.3998159, 0.4362175, 0.627088, 0, 0, 0
CTRL, 34564198, 0.005161835, 0.0009171666, 0.005001958, 0.001009127, 0.0004943946
PRX, 34564229, 2, 0.6, 0, 3.59, 0, 3.59, 0, 2.39, 0, 0, 0, 0.6
IMU, 34564237, -0.0001192237, 0.008243233, -0.01576739, 0.1860786, -0.08483431, -9.729852, 0, 0, 41.39666, 1, 1, 1000, 1000
IMU, 34602825, 0.004948074, 0.00318872, -0.02001999, 0.1305701, -0.1643088, -9.751598, 0, 0, 41.39696, 1, 1, 1000, 1000
RFND, 34612739, 0.2, 25, 0, 0
IMU, 34642925, -0.007011664, 0.008118795, 0.03321953, 0.1468834, -0.02287978, -9.698393, 0, 0, 41.3967, 1, 1, 1000, 1000
MAG, 34662796, 237, 659, 177, 0, 0, 0, 0, 0, 0, 1, 34662788
RFND, 34662831, 0.2, 25, 0, 0
BARO, 34662868, -0.2204061, 988.0999, 40.44, -0.3809789, 34662, 0, 35
CTUN, 34662882, 0, 0, 0, 0.307312, 0.05879907, 0.05879907, -0.22, 0, 0.19, 0, 0, 0
ATT, 34662961, 0, 0.48, 0, -0.45, 359.97, 359.99, 0, 1
RATE, 34662966, -2.185289, -0.1384284, -0.00602696, 2.026777, -0.2414119, 0.007152205, -0.008588956, -0.6413669, -0.0009549571, 371.1829, 2.795696, 0
NKF1, 34662974, 0.48, -0.45, 359.98, 0.01471699, -0.02198688, 0.009165009, 0, 0, 0, -0.05879907, 0, 0, 0
NKF2, 34662974, 7, 0, 0, 0, 0, 0, 0, 0, 0, 0, 0, 0, 0
NKF3, 34662974, 0, 0, 0, 0.02, -0.02, 0, 0, 0, 0, 0, 0
NKF4, 34662974, 0, 0, 0, 0, 0, 1.861118E-06, 0, 0, 0, 19, 229, 0, 0
NKF5, 34662974, 0, 0, 0, 0, 0.19, 0.13, 0, 0.19, 0.5, 3.298166E-05, 0.000364834, 0.0007712585
NKQ1, 34662974, 0.9999775, 0.003205461, 0.005901411, -0.0001413315
AHR2, 34663021, 0.51, -0.41, 359.96, -0.22, 0, 0, 0.9999834, 0.004457418, -0.003638864, -0.0002709475
MOTB, 34663028, 1, 1, 0, 1
RCIN, 34663032, 0, 0, 0, 0, 0, 0, 0, 0, 0, 0, 0, 0, 0, 0
RCOU, 34663038, 1243, 1221, 1235, 1233, 0, 0, 0, 0, 0, 0, 0, 0, 0, 0
VIBE, 34663047, 0.3948298, 0.4384529, 0.6747503, 0, 0, 0
CTRL, 34663054, 0.005133819, 0.000906413, 0.004811847, 0.00101819, 0.0007044817
PRX, 34663084, 2, 0.6, 0, 3.59, 0, 3.59, 0, 2.39, 0, 0, 0, 0.6
IMU, 34682708, 0.008868477, 0.005822212, -0.005611642, 0.1068295, -0.02812469, -9.714725, 0, 0, 41.39698, 1, 1, 1000, 1000
RFND, 34712406, 0.2, 25, 0, 0
IMU, 34722624, 0.0008080292, -0.001414282, 0.01488446, 0.1631919, 0.02230248, -9.74085, 0, 0, 41.39607, 1, 1, 1000, 1000
MAG, 34762559, 239, 660, 184, 0, 0, 0, 0, 0, 0, 1, 34762551
RFND, 34762656, 0.2, 25, 0, 0
BARO, 34762703, -0.1469374, 988.0919, 40.44, -0.2183343, 34762, 0, 35
CTUN, 34762716, 0, 0, 0, 0.307312, 0.05821712, 0.05821712, -0.14, 0, 0.19, 0, 0, -1
DU32, 34762752, 7, 33611992
ATT, 34762865, 0, 0.48, 0, -0.43, 359.93, 359.95, 0, 1
RATE, 34762872, -2.220535, 0.00644621, -0.005089016, 1.917165, 0.5738251, 0.001895937, -0.008267268, -2.253866, 0.0007579945, 463.1826, 2.750206, 0
NKF1, 34762880, 0.48, -0.43, 359.94, 0.01193065, -0.02324348, 0.01143661, 0, 0, 0, -0.05821712, 0, 0, 0
NKF2, 34762880, 7, 0, 0, 0, 0, 0, 0, 0, 0, 0, 0, 0, 0
NKF3, 34762880, 0, 0, 0, 0.02, -0.03, 0, 0, 0, 0, 0, 0
NKF4, 34762880, 0, 0, 0, 0, 0, 2.061875E-06, 0, 0, 0, 19, 229, 0, 0
NKF5, 34762880, 0, 0, 0, 0, 0.19, 0.13, 0, 0.19, 0.5, 3.179715E-05, 0.0004446313, 0.001118022
NKQ1, 34762880, 0.9999761, 0.00325199, 0.006086852, -0.0004721924
AHR2, 34762926, 0.51, -0.39, 359.92, -0.14, 0, 0, 0.9999836, 0.004530115, -0.003455298, -0.0006027619
MOTB, 34762934, 1, 1, 0, 1
RCIN, 34762939, 0, 0, 0, 0, 0, 0, 0, 0, 0, 0, 0, 0, 0, 0
RCOU, 34762945, 1233, 1221, 1223, 1228, 0, 0, 0, 0, 0, 0, 0, 0, 0, 0
VIBE, 34762954, 0.4570533, 0.4701376, 0.6434201, 0, 0, 0
CTRL, 34762960, 0.005213873, 0.001114231, 0.004681868, 0.001003599, 0.0006297869
PRX, 34762989, 1, 0.6, 0, 3.59, 0, 3.59, 0, 2.39, 0, 0, 0, 0.6
IMU, 34762997, 8.663424E-05, 0.01010333, -0.03934287, 0.03439405, -0.1069041, -9.757542, 0, 0, 41.3967, 1, 1, 1000, 1000
IMU, 34802633, -0.005724535, 0.004028641, -0.001570454, -0.09789023, -0.1325543, -9.716347, 0, 0, 41.39637, 1, 1, 1000, 1000
RFND, 34812523, 0.2, 25, 0, 0
IMU, 34844421, -0.001126655, -7.720017E-05, -0.004114275, 0.1053843, -0.06442852, -9.721839, 0, 0, 41.39613, 1, 1, 1000, 1000
MAG, 34862894, 235, 660, 177, 0, 0, 0, 0, 0, 0, 1, 34862885
RFND, 34862929, 0.2, 25, 0, 0
BARO, 34862965, -0.1299831, 988.0898, 40.44, 0.1359877, 34862, 0, 35
CTUN, 34862978, 0, 0, 0, 0.307312, 0.05756367, 0.05756367, -0.12, 0, 0.19, 0, 0, -1
ATT, 34863057, 0, 0.48, 0, -0.42, 359.93, 359.95, 0, 1
RATE, 34863063, -2.170704, 0.04312639, -0.004850321, 1.924404, 0.2074023, 0.002483733, -0.008093425, -0.2006104, 0.0003135121, 529.2714, 0.3919601, 0
NKF1, 34863070, 0.48, -0.42, 359.94, 0.0135301, -0.02267341, 0.01306843, 0, 0, 0, -0.05756367, 0, 0, 0
NKF2, 34863070, 7, 0, 0, 0, 0, 0, 0, 0, 0, 0, 0, 0, 0
NKF3, 34863070, 0, 0, 0, 0.02, -0.03, 0, 0, 0, 0, 0, 0
NKF4, 34863070, 0, 0, 0, 0, 0, 2.298693E-06, 0, 0, 0, 19, 229, 0, 0
NKF5, 34863070, 0, 0, 0, 0, 0.19, 0.13, 0, 0.19, 0.5, 3.236944E-05, 0.0003215922, 0.0007034415
NKQ1, 34863070, 0.9999762, 0.003185109, 0.006107127, -0.0005092535
AHR2, 34863117, 0.51, -0.39, 359.92, -0.12, 0, 0, 0.9999838, 0.004490545, -0.003432605, -0.0006395134
MOTB, 34863124, 1, 1, 0, 1
RCIN, 34863128, 0, 0, 0, 0, 0, 0, 0, 0, 0, 0, 0, 0, 0, 0
RCOU, 34863133, 1233, 1221, 1224, 1229, 0, 0, 0, 0, 0, 0, 0, 0, 0, 0
VIBE, 34863142, 0.5136968, 0.5220655, 0.5931538, 0, 0, 0
CTRL, 34863150, 0.005196902, 0.001210475, 0.004629817, 0.00107197, 0.000702367
PRX, 34863179, 1, 0.6, 0, 3.59, 0, 3.59, 0, 2.39, 0, 0, 0, 0.6
IMU, 34883010, -0.004694071, 0.005760029, 0.01179149, 0.2446984, -0.03138814, -9.716572, 0, 0, 41.39611, 1, 1, 1000, 1000
RFND, 34912752, 0.2, 25, 0, 0
IMU, 34922897, 0.009143064, 0.001084946, 0.006271879, 0.1543843, -0.0583204, -9.684439, 0, 0, 41.39611, 1, 1, 1000, 1000
MAG, 34962802, 232, 661, 186, 0, 0, 0, 0, 0, 0, 1, 34962794
RFND, 34962836, 0.2, 25, 0, 0
BARO, 34962874, -0.1186802, 988.0887, 40.43, 0.4179918, 34962, 0, 35
CTUN, 34962887, 0, 0, 0, 0.307312, 0.05679647, 0.05679647, -0.11, 0, 0.19, 0, 0, -1
ATT, 34962969, 0, 0.48, 0, -0.43, 359.94, 359.96, 0, 1
RATE, 34962975, -2.16912, 0.4199643, -0.008450957, 1.976993, -0.6936702, 0.008772605, -0.008312229, -0.1676757, -0.0001182201, 569.766, -2.926254, 0
NKF1, 34962983, 0.48, -0.43, 359.95, 0.01514012, -0.02194581, 0.0140683, 0, 0, 0, -0.05679647, 0, 0, 0
NKF2, 34962983, 7, 0, 0, 0, 0, 0, 0, 0, 0, 0, 0, 0, 0
NKF3, 34962983, 0, 0, 0, 0.03, -0.03, 0, 0, 0, 0, 0, 0
NKF4, 34962983, 0, 0, 0, 0, 0, 2.551218E-06, 0, 0, 0, 19, 229, 0, 0
NKF5, 34962983, 0, 0, 0, 0, 0.19, 0.13, 0, 0.19, 0.5, 3.095386E-05, 0.0004245591, 0.001052944
NKQ1, 34962983, 0.9999768, 0.003182597, 0.00600525, -0.0003905582
AHR2, 34963032, 0.51, -0.4, 359.93, -0.11, 0, 0, 0.9999834, 0.004515539, -0.003533301, -0.0005210654
MOTB, 34963039, 1, 1, 0, 1
RCIN, 34963043, 0, 0, 0, 0, 0, 0, 0, 0, 0, 0, 0, 0, 0, 0
RCOU, 34963049, 1250, 1221, 1236, 1236, 0, 0, 0, 0, 0, 0, 0, 0, 0, 0
VIBE, 34963059, 0.5544168, 0.4874465, 0.5490528, 0, 0, 0
CTRL, 34963066, 0.005138772, 0.001599928, 0.004652333, 0.001203025, 0.0005831411
PRX, 34963096, 1, 0.6, 0, 3.59, 0, 3.59, 0, 2.39, 0, 0, 0, 0.6
IMU, 34963104, 0.00730378, -0.01201872, -0.002931979, -0.08731378, -0.01673214, -9.702771, 0, 0, 41.39613, 1, 1, 1000, 1000
IMU, 35002856, -0.005670819, -0.0001917261, -0.0001296251, 0.2596478, -0.07082781, -9.753474, 0, 0, 41.3963, 1, 1, 1000, 1000
RFND, 35013359, 0.2, 25, 0, 0
