FMT, 128, 89, FMT, BBnNZ, Type,Length,Name,Format,Columns
FMT, 129, 31, PARM, QNf, TimeUS,Name,Value
FMT, 130, 46, GPS, QBIHBcLLefffB, TimeUS,Status,GMS,GWk,NSats,HDop,Lat,Lng,Alt,Spd,GCrs,VZ,U
FMT, 131, 46, GPS2, QBIHBcLLefffB, TimeUS,Status,GMS,GWk,NSats,HDop,Lat,Lng,Alt,Spd,GCrs,VZ,U
FMT, 132, 46, GPSB, QBIHBcLLefffB, TimeUS,Status,GMS,GWk,NSats,HDop,Lat,Lng,Alt,Spd,GCrs,VZ,U
FMT, 193, 24, GPA, QCCCCBI, TimeUS,VDop,HAcc,VAcc,SAcc,VV,SMS
FMT, 194, 24, GPA2, QCCCCBI, TimeUS,VDop,HAcc,VAcc,SAcc,VV,SMS
FMT, 195, 24, GPAB, QCCCCBI, TimeUS,VDop,HAcc,VAcc,SAcc,VV,SMS
FMT, 133, 53, IMU, QffffffIIfBBHH, TimeUS,GyrX,GyrY,GyrZ,AccX,AccY,AccZ,EG,EA,T,GH,AH,GHz,AHz
FMT, 134, 75, MSG, QZ, TimeUS,Message
FMT, 135, 39, RCIN, QHHHHHHHHHHHHHH, TimeUS,C1,C2,C3,C4,C5,C6,C7,C8,C9,C10,C11,C12,C13,C14
FMT, 136, 39, RCOU, QHHHHHHHHHHHHHH, TimeUS,C1,C2,C3,C4,C5,C6,C7,C8,C9,C10,C11,C12,C13,C14
FMT, 137, 15, RSSI, Qf, TimeUS,RXRSSI
FMT, 139, 37, BARO, QffcfIff, TimeUS,Alt,Press,Temp,CRt,SMS,Offset,GndTemp
FMT, 140, 22, POWR, QffHB, TimeUS,Vcc,VServo,Flags,Safety
FMT, 143, 45, CMD, QHHHfffffff, TimeUS,CTot,CNum,CId,Prm1,Prm2,Prm3,Prm4,Lat,Lng,Alt
FMT, 144, 20, RAD, QBBBBBHH, TimeUS,RSSI,RemRSSI,TxBuf,Noise,RemNoise,RxErrors,Fixed
FMT, 146, 43, CAM, QIHLLeeeccC, TimeUS,GPSTime,GPSWeek,Lat,Lng,Alt,RelAlt,GPSAlt,Roll,Pitch,Yaw
FMT, 232, 43, TRIG, QIHLLeeeccC, TimeUS,GPSTime,GPSWeek,Lat,Lng,Alt,RelAlt,GPSAlt,Roll,Pitch,Yaw
FMT, 162, 30, ARSP, QffcffB, TimeUS,Airspeed,DiffPress,Temp,RawPress,Offset,U
FMT, 164, 45, CURR, QfffcHHHHHHHHHH, TimeUS,Volt,Curr,CurrTot,Temp,V1,V2,V3,V4,V5,V6,V7,V8,V9,V10
FMT, 165, 45, CUR2, QfffcHHHHHHHHHH, TimeUS,Volt,Curr,CurrTot,Temp,V1,V2,V3,V4,V5,V6,V7,V8,V9,V10
FMT, 163, 27, ATT, QccccCCCC, TimeUS,DesRoll,Roll,DesPitch,Pitch,DesYaw,Yaw,ErrRP,ErrYaw
FMT, 166, 34, MAG, QhhhhhhhhhBI, TimeUS,MagX,MagY,MagZ,OfsX,OfsY,OfsZ,MOfsX,MOfsY,MOfsZ,Health,S
FMT, 169, 14, MODE, QMBB, TimeUS,Mode,ModeNum,Rsn
FMT, 196, 17, RFND, QCBCB, TimeUS,Dist1,Orient1,Dist2,Orient2
FMT, 223, 33, DMS, IIIIIBBBBBBBBBB, TimeMS,N,Dp,RT,RS,Er,Fa,Fmn,Fmx,Pa,Pmn,Pmx,Sa,Smn,Smx
FMT, 240, 41, BCN, QBBfffffff, TimeUS,Health,Cnt,D0,D1,D2,D3,PosX,PosY,PosZ
FMT, 138, 53, IMU2, QffffffIIfBBHH, TimeUS,GyrX,GyrY,GyrZ,AccX,AccY,AccZ,EG,EA,T,GH,AH,GHz,AHz
FMT, 147, 53, IMU3, QffffffIIfBBHH, TimeUS,GyrX,GyrY,GyrZ,AccX,AccY,AccZ,EG,EA,T,GH,AH,GHz,AHz
FMT, 141, 45, AHR2, QccCfLLffff, TimeUS,Roll,Pitch,Yaw,Alt,Lat,Lng,Q1,Q2,Q3,Q4
FMT, 180, 31, POS, QLLfff, TimeUS,Lat,Lng,Alt,RelHomeAlt,RelOriginAlt
FMT, 142, 45, SIM, QccCfLLffff, TimeUS,Roll,Pitch,Yaw,Alt,Lat,Lng,Q1,Q2,Q3,Q4
FMT, 198, 51, NKF1, QccCfffffffccc, TimeUS,Roll,Pitch,Yaw,VN,VE,VD,dPD,PN,PE,PD,GX,GY,GZ
FMT, 199, 35, NKF2, QbccccchhhhhhB, TimeUS,AZbias,GSX,GSY,GSZ,VWN,VWE,MN,ME,MD,MX,MY,MZ,MI
FMT, 200, 33, NKF3, Qcccccchhhcc, TimeUS,IVN,IVE,IVD,IPN,IPE,IPD,IMX,IMY,IMZ,IYAW,IVT
FMT, 201, 35, NKF4, QcccccfbbHBHHb, TimeUS,SV,SP,SH,SM,SVT,errRP,OFN,OFE,FS,TS,SS,GPS,PI
FMT, 202, 40, NKF5, QBhhhcccCCfff, TimeUS,NI,FIX,FIY,AFI,HAGL,offset,RI,rng,Herr,eAng,eVel,ePos
FMT, 203, 51, NKF6, QccCfffffffccc, TimeUS,Roll,Pitch,Yaw,VN,VE,VD,dPD,PN,PE,PD,GX,GY,GZ
FMT, 204, 35, NKF7, QbccccchhhhhhB, TimeUS,AZbias,GSX,GSY,GSZ,VWN,VWE,MN,ME,MD,MX,MY,MZ,MI
FMT, 205, 33, NKF8, Qcccccchhhcc, TimeUS,IVN,IVE,IVD,IPN,IPE,IPD,IMX,IMY,IMZ,IYAW,IVT
FMT, 206, 35, NKF9, QcccccfbbHBHHb, TimeUS,SV,SP,SH,SM,SVT,errRP,OFN,OFE,FS,TS,SS,GPS,PI
FMT, 207, 36, NKF0, QBccCCcccccccc, TimeUS,ID,rng,innov,SIV,TR,BPN,BPE,BPD,OFH,OFL,OFN,OFE,OFD
FMT, 208, 27, NKQ1, Qffff, TimeUS,Q1,Q2,Q3,Q4
FMT, 209, 27, NKQ2, Qffff, TimeUS,Q1,Q2,Q3,Q4
FMT, 210, 51, XKF1, QccCfffffffccc, TimeUS,Roll,Pitch,Yaw,VN,VE,VD,dPD,PN,PE,PD,GX,GY,GZ
FMT, 211, 34, XKF2, QccccchhhhhhB, TimeUS,AX,AY,AZ,VWN,VWE,MN,ME,MD,MX,MY,MZ,MI
FMT, 212, 33, XKF3, Qcccccchhhcc, TimeUS,IVN,IVE,IVD,IPN,IPE,IPD,IMX,IMY,IMZ,IYAW,IVT
FMT, 213, 35, XKF4, QcccccfbbHBHHb, TimeUS,SV,SP,SH,SM,SVT,errRP,OFN,OFE,FS,TS,SS,GPS,PI
FMT, 214, 40, XKF5, QBhhhcccCCfff, TimeUS,NI,FIX,FIY,AFI,HAGL,offset,RI,rng,Herr,eAng,eVel,ePos
FMT, 215, 51, XKF6, QccCfffffffccc, TimeUS,Roll,Pitch,Yaw,VN,VE,VD,dPD,PN,PE,PD,GX,GY,GZ
FMT, 216, 34, XKF7, QccccchhhhhhB, TimeUS,AX,AY,AZ,VWN,VWE,MN,ME,MD,MX,MY,MZ,MI
FMT, 217, 33, XKF8, Qcccccchhhcc, TimeUS,IVN,IVE,IVD,IPN,IPE,IPD,IMX,IMY,IMZ,IYAW,IVT
FMT, 218, 35, XKF9, QcccccfbbHBHHb, TimeUS,SV,SP,SH,SM,SVT,errRP,OFN,OFE,FS,TS,SS,GPS,PI
FMT, 219, 36, XKF0, QBccCCcccccccc, TimeUS,ID,rng,innov,SIV,TR,BPN,BPE,BPD,OFH,OFL,OFN,OFE,OFD
FMT, 220, 27, XKQ1, Qffff, TimeUS,Q1,Q2,Q3,Q4
FMT, 221, 27, XKQ2, Qffff, TimeUS,Q1,Q2,Q3,Q4
FMT, 222, 35, XKFD, Qffffff, TimeUS,IX,IY,IZ,IVX,IVY,IVZ
FMT, 148, 34, TERR, QBLLHffHH, TimeUS,Status,Lat,Lng,Spacing,TerrH,CHeight,Pending,Loaded
FMT, 149, 18, UBX1, QBHBBH, TimeUS,Instance,noisePerMS,jamInd,aPower,agcCnt
FMT, 150, 16, UBX2, QBbBbB, TimeUS,Instance,ofsI,magI,ofsQ,magQ
FMT, 151, 18, UBY1, QBHBBH, TimeUS,Instance,noisePerMS,jamInd,aPower,agcCnt
FMT, 152, 16, UBY2, QBbBbB, TimeUS,Instance,ofsI,magI,ofsQ,magQ
FMT, 170, 42, GRAW, QIHBBddfBbB, TimeUS,WkMS,Week,numSV,sv,cpMes,prMes,doMes,mesQI,cno,lli
FMT, 171, 24, GRXH, QdHbBB, TimeUS,rcvTime,week,leapS,numMeas,recStat
FMT, 172, 41, GRXS, QddfBBBHBBBBB, TimeUS,prMes,cpMes,doMes,gnss,sv,freq,lock,cno,prD,cpD,doD,trk
FMT, 173, 63, SBFE, QIHBBdddfffff, TimeUS,TOW,WN,Mode,Err,Lat,Lng,Height,Undul,Vn,Ve,Vu,COG
FMT, 153, 19, ESC1, Qcccc, TimeUS,RPM,Volt,Curr,Temp
FMT, 154, 19, ESC2, Qcccc, TimeUS,RPM,Volt,Curr,Temp
FMT, 155, 19, ESC3, Qcccc, TimeUS,RPM,Volt,Curr,Temp
FMT, 156, 19, ESC4, Qcccc, TimeUS,RPM,Volt,Curr,Temp
FMT, 157, 19, ESC5, Qcccc, TimeUS,RPM,Volt,Curr,Temp
FMT, 158, 19, ESC6, Qcccc, TimeUS,RPM,Volt,Curr,Temp
FMT, 159, 19, ESC7, Qcccc, TimeUS,RPM,Volt,Curr,Temp
FMT, 160, 19, ESC8, Qcccc, TimeUS,RPM,Volt,Curr,Temp
FMT, 167, 34, MAG2, QhhhhhhhhhBI, TimeUS,MagX,MagY,MagZ,OfsX,OfsY,OfsZ,MOfsX,MOfsY,MOfsZ,Health,S
FMT, 168, 34, MAG3, QhhhhhhhhhBI, TimeUS,MagX,MagY,MagZ,OfsX,OfsY,OfsZ,MOfsX,MOfsY,MOfsZ,Health,S
FMT, 174, 31, ACC1, QQfff, TimeUS,SampleUS,AccX,AccY,AccZ
FMT, 175, 31, ACC2, QQfff, TimeUS,SampleUS,AccX,AccY,AccZ
FMT, 176, 31, ACC3, QQfff, TimeUS,SampleUS,AccX,AccY,AccZ
FMT, 177, 31, GYR1, QQfff, TimeUS,SampleUS,GyrX,GyrY,GyrZ
FMT, 178, 31, GYR2, QQfff, TimeUS,SampleUS,GyrX,GyrY,GyrZ
FMT, 179, 31, GYR3, QQfff, TimeUS,SampleUS,GyrX,GyrY,GyrZ
FMT, 181, 35, PIDR, Qffffff, TimeUS,Des,P,I,D,FF,AFF
FMT, 182, 35, PIDP, Qffffff, TimeUS,Des,P,I,D,FF,AFF
FMT, 183, 35, PIDY, Qffffff, TimeUS,Des,P,I,D,FF,AFF
FMT, 184, 35, PIDA, Qffffff, TimeUS,Des,P,I,D,FF,AFF
FMT, 185, 35, PIDS, Qffffff, TimeUS,Des,P,I,D,FF,AFF
FMT, 186, 35, PIDL, Qffffff, TimeUS,Des,P,I,D,FF,AFF
FMT, 161, 37, BAR2, QffcfIff, TimeUS,Alt,Press,Temp,CRt,SMS,Offset,GndTemp
FMT, 197, 37, BAR3, QffcfIff, TimeUS,Alt,Press,Temp,CRt,SMS,Offset,GndTemp
FMT, 187, 35, VIBE, QfffIII, TimeUS,VibeX,VibeY,VibeZ,Clip0,Clip1,Clip2
FMT, 188, 47, IMT, Qfffffffff, TimeUS,DelT,DelvT,DelaT,DelAX,DelAY,DelAZ,DelVX,DelVY,DelVZ
FMT, 189, 47, IMT2, Qfffffffff, TimeUS,DelT,DelvT,DelaT,DelAX,DelAY,DelAZ,DelVX,DelVY,DelVZ
FMT, 190, 47, IMT3, Qfffffffff, TimeUS,DelT,DelvT,DelaT,DelAX,DelAY,DelAZ,DelVX,DelVY,DelVZ
FMT, 191, 24, ORGN, QBLLe, TimeUS,Type,Lat,Lng,Alt
FMT, 192, 19, RPM, Qff, TimeUS,rpm1,rpm2
FMT, 233, 47, GMB1, Iffffffffff, TimeMS,dt,dax,day,daz,dvx,dvy,dvz,jx,jy,jz
FMT, 234, 44, GMB2, IBfffffffff, TimeMS,es,ex,ey,ez,rx,ry,rz,tx,ty,tz
FMT, 235, 13, GMB3, Ihhh, TimeMS,rl_torque_cmd,el_torque_cmd,az_torque_cmd
FMT, 236, 59, RATE, Qffffffffffff, TimeUS,RDes,R,ROut,PDes,P,POut,YDes,Y,YOut,ADes,A,AOut
FMT, 237, 23, RALY, QBBLLh, TimeUS,Tot,Seq,Lat,Lng,Alt
FMT, 238, 43, VISO, Qffffffff, TimeUS,dt,AngDX,AngDY,AngDZ,PosDX,PosDY,PosDZ,conf
FMT, 224, 23, SBPH, QIII, TimeUS,CrcError,LastInject,IARhyp
FMT, 229, 80, SBR1, QHHBZ, TimeUS,msg_type,sender_id,msg_len,d1
FMT, 230, 205, SBR2, QHZZZ, TimeUS,msg_type,d2,d3,d4
FMT, 25, 41, ATUN, QBBfffffff, TimeUS,Axis,TuneStep,Targ,Min,Max,RP,RD,SP,ddt
FMT, 26, 19, ATDE, Qff, TimeUS,Angle,Rate
FMT, 31, 22, PTUN, QBfHHH, TimeUS,Param,TunVal,CtrlIn,TunLo,TunHi
FMT, 12, 28, OF, QBffff, TimeUS,Qual,flowX,flowY,bodyX,bodyY
FMT, 5, 51, NTUN, Qffffffffff, TimeUS,DPosX,DPosY,PosX,PosY,DVelX,DVelY,VelX,VelY,DAccX,DAccY
FMT, 4, 51, CTUN, Qffffffeccfhh, TimeUS,ThI,ABst,ThO,ThH,DAlt,Alt,BAlt,DSAlt,SAlt,TAlt,DCRt,CRt
FMT, 6, 32, PM, QHHIhBHII, TimeUS,NLon,NLoop,MaxT,PMT,I2CErr,INSErr,LogDrop,Mem
FMT, 30, 27, MOTB, Qffff, TimeUS,LiftMax,BatVolt,BatRes,ThLimit
FMT, 13, 12, EV, QB, TimeUS,Id
FMT, 20, 14, D16, QBh, TimeUS,Id,Value
FMT, 21, 14, DU16, QBH, TimeUS,Id,Value
FMT, 22, 16, D32, QBi, TimeUS,Id,Value
FMT, 23, 16, DU32, QBI, TimeUS,Id,Value
FMT, 24, 16, DFLT, QBf, TimeUS,Id,Value
FMT, 19, 13, ERR, QBB, TimeUS,Subsys,ECode
FMT, 32, 19, HELI, Qff, TimeUS,DRRPM,ERRPM
FMT, 33, 29, PL, QBBffff, TimeUS,Heal,TAcq,pX,pY,vX,vY
FMT, 34, 36, GUID, QBffffff, TimeUS,Type,pX,pY,pZ,vX,vY,vZ
FMT, 35, 32, THRO, QBffffbbbb, TimeUS,Stage,Vel,VelZ,Acc,AccEfZ,Throw,AttOk,HgtOk,PosOk
FMT, 36, 56, PRX, QBfffffffffff, TimeUS,Health,D0,D45,D90,D135,D180,D225,D270,D315,DUp,CAn,CDis
MODE, 71694181, 100, 100, 2
EV, 71712691, 15
FMT, 254, 47, NKT1, QIffffffff, TimeUS,Cnt,IMUMin,IMUMax,EKFMin,EKFMax,AngMin,AngMax,VelMin,VelM
FMT, 253, 31, CTRL, Qfffff, TimeUS,RMSRollP,RMSRollD,RMSPitchP,RMSPitchD,RMSYaw
MSG, 71810660, APM:Copter V3.5.7 (870dd8f0)
MSG, 71810665, New mission
MSG, 71810675, Frame: QUAD
MODE, 71810679, Autonomous, 100, 2
IMU, 71815253, -0.0007772718, 0.0001915336, 0.001142051, 0.1039859, -0.0735662, -9.797362, 0, 0, 32.72811, 1, 1, 1000, 1000
MAG, 71854690, 231, 652, 206, 0, 0, 0, 0, 0, 0, 1, 71854682
RFND, 71854719, 0.2, 25, 0, 0
BARO, 71854758, -0.3651393, 987.9465, 31.26, -0.09105263, 71854, 0, 28.51
CTUN, 71854771, 0, 0, 0, 0.3072872, 0.02459913, 0.02459913, -0.36, 0, 0.19, 0, 0, -2
DU32, 71854807, 7, 50356728
ATT, 71854981, 0, 0.52, 0, -0.54, 3.86, 3.87, 0, 1
RATE, 71854989, -2.381789, -0.0799721, -0.005294686, 2.438605, 0.01384022, 0.005610302, -0.01046071, 0.04531543, -0.0002298996, 1014.185, -1.506805, 0
NKF1, 71854997, 0.52, -0.54, 3.87, 0.004972056, -0.01466857, 0.02504161, 0, 0, 0, -0.02459913, -0.02, 0, -0.02
NKF2, 71854997, 1, 0, 0, 0, 0, 0, 0, 0, 0, 0, 0, 0, 0
NKF3, 71854997, 0, 0, 0, -0.01, -0.01, 0.03, 0, 0, 0, 0, 0
NKF4, 71854997, 0, 0, 0.01, 0, 0, 6.270551E-05, 0, 0, 0, 19, 229, 0, 0
NKF5, 71854997, 0, 0, 0, 0, 0.16, 0.13, 0, 0.19, 0.5, 0.0001276596, 0.005320045, 0.01141382
NKQ1, 71854997, 0.9994107, 0.003419942, 0.005233895, 0.03375332
AHR2, 71855042, 0.65, -0.47, 1.03, -0.36, 0, 0, 0.999934, 0.005751572, -0.004057223, 0.009082365
MOTB, 71855050, 1, 1, 0, 1
RCIN, 71855055, 0, 0, 0, 0, 0, 0, 0, 0, 0, 0, 0, 0, 0, 0
RCOU, 71855061, 1101, 1101, 1101, 1101, 0, 0, 0, 0, 0, 0, 0, 0, 0, 0
VIBE, 71855069, 0.02180433, 0.01887633, 0.03359142, 0, 0, 0
CTRL, 71855076, 0.005594824, 0.0001728602, 0.005688653, 0.0001698438, 0.0001812027
PRX, 71855142, 2, 0.52, 0, 0.56, 0, 3.59, 0, 2.4, 0, 0, 0, 0.52
IMU, 71857887, -0.001902739, -0.000109309, 0.0001012523, 0.1067293, -0.09220842, -9.779103, 0, 0, 32.72996, 1, 1, 1000, 1000
IMU, 71896605, -0.00141713, 0.0001957203, -0.000241274, 0.1019817, -0.08671531, -9.798756, 0, 0, 32.73187, 1, 1, 1000, 1000
RFND, 71904178, 0.2, 25, 0, 0
IMU, 71936577, -0.0007251448, 0.0004727363, 0.0006689554, 0.1063351, -0.08298227, -9.765161, 0, 0, 32.73342, 1, 1, 1000, 1000
MAG, 71954045, 231, 653, 203, 0, 0, 0, 0, 0, 0, 1, 71954037
RFND, 71954141, 0.2, 25, 0, 0
BARO, 71954179, -0.4204634, 987.9526, 31.27, -0.2015988, 71954, 0, 28.51
CTUN, 71954192, 0, 0, 0, 0.3072872, 0.02483358, 0.02483358, -0.42, 0, 0.19, 0, 0, -2
ATT, 71954264, 0, 0.52, 0, -0.54, 3.86, 3.87, 0, 1
RATE, 71954270, -2.366525, -0.08436856, -0.005228087, 2.443699, -0.02968797, 0.006070161, -0.01192848, 0.01875777, -0.0001434303, 1018.622, -0.6490707, 0
NKF1, 71954278, 0.52, -0.54, 3.87, 0.006127657, -0.01532096, 0.02515115, 0, 0, 0, -0.02483358, -0.02, 0, -0.02
NKF2, 71954278, 1, 0, 0, 0, 0, 0, 0, 0, 0, 0, 0, 0, 0
NKF3, 71954278, 0, 0, 0, -0.01, -0.02, 0.03, 0, 0, 0, 0, 0
NKF4, 71954278, 0, 0, 0.01, 0, 0, 4.160338E-05, 0, 0, 0, 19, 229, 0, 0
NKF5, 71954278, 0, 0, 0, 0, 0.16, 0.13, 0, 0.19, 0.5, 7.741461E-05, 0.006188016, 0.01328176
NKQ1, 71954278, 0.99941, 0.003389718, 0.005222989, 0.03377613
AHR2, 71954322, 0.65, -0.47, 1.03, -0.42, 0, 0, 0.999934, 0.005735033, -0.004071272, 0.009085972
MOTB, 71954329, 1, 1, 0, 1
RCIN, 71954334, 0, 0, 0, 0, 0, 0, 0, 0, 0, 0, 0, 0, 0, 0
RCOU, 71954340, 1101, 1101, 1101, 1101, 0, 0, 0, 0, 0, 0, 0, 0, 0, 0
VIBE, 71954348, 0.0210354, 0.02080595, 0.03686729, 0, 0, 0
CTRL, 71954355, 0.005562489, 0.0001810768, 0.005706368, 0.0001509708, 0.0001782257
PRX, 71954386, 2, 0.52, 0, 0.56, 0, 3.59, 0, 2.4, 0, 0, 0, 0.52
IMU, 71976974, -0.0003071961, -0.0002068629, 0.000409392, 0.100473, -0.08161034, -9.768148, 0, 0, 32.73508, 1, 1, 1000, 1000
RFND, 72004070, 0.2, 25, 0, 0
IMU, 72016538, -0.00116637, 0.0002486538, 0.0002500138, 0.09796733, -0.07916355, -9.788925, 0, 0, 32.73629, 1, 1, 1000, 1000
MAG, 72054218, 231, 654, 196, 0, 0, 0, 0, 0, 0, 1, 72054210
RFND, 72054250, 0.2, 25, 0, 0
BARO, 72054286, -0.3374772, 987.9433, 31.27, -0.1667408, 72054, 0, 28.51
CTUN, 72054298, 0, 0, 0, 0.3072872, 0.02559775, 0.02559775, -0.33, 0, 0.19, 0, 0, -2
ATT, 72054370, 0, 0.52, 0, -0.54, 3.86, 3.87, 0, 1
RATE, 72054375, -2.3539, -0.0006401084, -0.005807185, 2.455859, -0.02053599, 0.00572658, -0.01160977, 0.03895466, -0.0002042067, 1020.711, -0.1785278, 0
NKF1, 72054383, 0.52, -0.54, 3.87, 0.006452668, -0.01626996, 0.02520273, 0, 0, 0, -0.02559775, -0.02, 0, -0.02
NKF2, 72054383, 1, 0, 0, 0, 0, 0, 0, 0, 0, 0, 0, 0, 0
NKF3, 72054383, 0, 0, 0, -0.01, -0.02, 0.03, 0, 0, 0, 0, 0
NKF4, 72054383, 0, 0, 0.01, 0, 0, 2.726067E-05, 0, 0, 0, 19, 229, 0, 0
NKF5, 72054383, 0, 0, 0, 0, 0.16, 0.13, 0, 0.19, 0.5, 4.277455E-05, 0.006551233, 0.01398495
NKQ1, 72054383, 0.9994087, 0.003366596, 0.005198714, 0.03382348
AHR2, 72054427, 0.65, -0.47, 1.04, -0.33, 0, 0, 0.9999337, 0.005730491, -0.004102892, 0.009113018
MOTB, 72054434, 1, 1, 0, 1
RCIN, 72054438, 0, 0, 0, 0, 0, 0, 0, 0, 0, 0, 0, 0, 0, 0
RCOU, 72054443, 1101, 1101, 1101, 1101, 0, 0, 0, 0, 0, 0, 0, 0, 0, 0
VIBE, 72054451, 0.02053569, 0.0227793, 0.03410686, 0, 0, 0
CTRL, 72054458, 0.00552942, 0.000172395, 0.005748149, 0.0001442401, 0.000178865
PRX, 72054487, 2, 0.52, 0, 0.56, 0, 3.59, 0, 2.39, 0, 0, 0, 0.52
IMU, 72056988, -0.0001440283, -0.0003136116, 0.0001566035, 0.1077914, -0.0772971, -9.793495, 0, 0, 32.73708, 1, 1, 1000, 1000
IMU, 72096608, -0.0002404175, 0.0003090578, -0.0006075384, 0.1076442, -0.08418254, -9.779833, 0, 0, 32.7378, 1, 1, 1000, 1000
RFND, 72104090, 0.2, 25, 0, 0
IMU, 72136533, -0.001319198, 0.0001200565, 0.0001601976, 0.1000529, -0.09009077, -9.775106, 0, 0, 32.73877, 1, 1, 1000, 1000
MAG, 72154125, 229, 645, 203, 0, 0, 0, 0, 0, 0, 1, 72154095
RFND, 72154153, 0.2, 25, 0, 0
BARO, 72154190, -0.3153476, 987.941, 31.27, -0.0083676, 72154, 0, 28.51
CTUN, 72154204, 0, 0, 0, 0.3072872, 0.02638294, 0.02638294, -0.31, 0, 0.19, 0, 0, -2
ATT, 72154332, 0, 0.52, 0, -0.54, 3.87, 3.88, 0, 1
RATE, 72154338, -2.345886, -0.03382051, -0.005690893, 2.45545, -0.02385984, 0.006041171, -0.01026512, 0.03019034, -0.0001264236, 1039.417, -2.332973, 0
NKF1, 72154346, 0.52, -0.54, 3.88, 0.007486046, -0.01725201, 0.02566463, 0, 0, 0, -0.02638294, -0.02, 0, -0.02
NKF2, 72154346, 1, 0, 0, 0, 0, 0, 0, 0, 0, 0, 0, 0, 0
NKF3, 72154346, 0, 0, 0, -0.01, -0.02, 0.03, 0, 0, 0, 0, 0
NKF4, 72154346, 0, 0, 0.01, 0, 0, 1.815892E-05, 0, 0, 0, 19, 229, 0, 0
NKF5, 72154346, 0, 0, 0, 0, 0.16, 0.13, 0, 0.19, 0.5, 2.729799E-05, 0.006800808, 0.01460078
NKQ1, 72154346, 0.9994083, 0.003351138, 0.005198551, 0.03383572
AHR2, 72154390, 0.65, -0.47, 1.04, -0.31, 0, 0, 0.9999336, 0.00573883, -0.004113938, 0.009104612
MOTB, 72154397, 1, 1, 0, 1
RCIN, 72154402, 0, 0, 0, 0, 0, 0, 0, 0, 0, 0, 0, 0, 0, 0
RCOU, 72154407, 1101, 1101, 1101, 1101, 0, 0, 0, 0, 0, 0, 0, 0, 0, 0
VIBE, 72154415, 0.01989727, 0.02076546, 0.03281524, 0, 0, 0
CTRL, 72154422, 0.005518508, 0.0001854124, 0.005753451, 0.0001457626, 0.0001667075
PRX, 72154451, 2, 0.52, 0, 0.56, 0, 3.59, 0, 2.41, 0, 0, 0, 0.52
IMU, 72176670, -0.0003871937, -0.0003180304, 0.001076614, 0.1078395, -0.07299826, -9.778034, 0, 0, 32.73975, 1, 1, 1000, 1000
RFND, 72204160, 0.2, 25, 0, 0
IMU, 72216722, -8.384822E-05, -8.887924E-05, -0.0003187986, 0.09762271, -0.07453102, -9.787561, 0, 0, 32.74086, 1, 1, 1000, 1000
MAG, 72254129, 232, 650, 205, 0, 0, 0, 0, 0, 0, 1, 72254120
RFND, 72254158, 0.2, 25, 0, 0
BARO, 72254197, -0.2655558, 987.9355, 31.28, 0.1926384, 72254, 0, 28.51
CTUN, 72254210, 0, 0, 0, 0.3072872, 0.02662042, 0.02662042, -0.26, 0, 0.19, 0, 0, -2
ATT, 72254284, 0, 0.52, 0, -0.54, 3.87, 3.88, 0, 1
RATE, 72254289, -2.343748, -0.01485059, -0.0055361, 2.447793, 0.0605127, 0.005618853, -0.011385, -0.001885554, -0.0001230466, 1040.427, -0.5764008, 0
NKF1, 72254296, 0.52, -0.54, 3.88, 0.008190209, -0.01781797, 0.02568954, 0, 0, 0, -0.02662042, -0.02, 0, -0.02
NKF2, 72254296, 1, 0, 0, 0, 0, 0, 0, 0, 0, 0, 0, 0, 0
NKF3, 72254296, 0, 0, 0, -0.01, -0.02, 0.03, 0, 0, 0, 0, 0
NKF4, 72254296, 0, 0, 0.01, 0, 0, 1.225871E-05, 0, 0, 0, 19, 229, 0, 0
NKF5, 72254296, 0, 0, 0, 0, 0.16, 0.13, 0, 0.19, 0.5, 3.080907E-05, 0.006880865, 0.01483619
NKQ1, 72254296, 0.9994072, 0.003345047, 0.005213467, 0.03386556
AHR2, 72254340, 0.65, -0.47, 1.04, -0.26, 0, 0, 0.9999335, 0.005756097, -0.00410951, 0.009112823
MOTB, 72254348, 1, 1, 0, 1
RCIN, 72254352, 0, 0, 0, 0, 0, 0, 0, 0, 0, 0, 0, 0, 0, 0
RCOU, 72254358, 1101, 1101, 1101, 1101, 0, 0, 0, 0, 0, 0, 0, 0, 0, 0
VIBE, 72254366, 0.02138251, 0.01850089, 0.03055955, 0, 0, 0
CTRL, 72254372, 0.005520364, 0.0001806849, 0.005755092, 0.000136785, 0.0001602108
PRX, 72254403, 2, 0.52, 0, 0.56, 0, 1.51, 0, 2.4, 0, 0, 0, 0.52
IMU, 72256664, -0.0005163061, 0.0009467026, -0.0003153379, 0.1072047, -0.07233923, -9.785336, 0, 0, 32.74149, 1, 1, 1000, 1000
IMU, 72296693, -0.001423424, 0.0003845144, 0.0006741048, 0.1057485, -0.07489577, -9.785851, 0, 0, 32.74203, 1, 1, 1000, 1000
RFND, 72304204, 0.2, 25, 0, 0
IMU, 72337008, -0.001087637, 0.0003555412, -0.0003753051, 0.1042473, -0.07809325, -9.800684, 0, 0, 32.74271, 1, 1, 1000, 1000
MAG, 72354215, 231, 652, 201, 0, 0, 0, 0, 0, 0, 1, 72354207
RFND, 72354244, 0.2, 25, 0, 0
BARO, 72354283, -0.16044, 987.9233, 31.28, 0.3697102, 72354, 0, 28.51
CTUN, 72354297, 0, 0, 0, 0.3072872, 0.02728657, 0.02728657, -0.16, 0, 0.19, 0, 0, -2
ATT, 72354467, 0, 0.51, 0, -0.54, 3.87, 3.88, 0, 1
RATE, 72354474, -2.331498, 0.02614072, -0.005713889, 2.449765, -0.01696155, 0.005956986, -0.01101433, 0.03756645, -0.00012613, 1014.477, 0.1806259, 0
NKF1, 72354481, 0.51, -0.54, 3.88, 0.008409658, -0.01875375, 0.02504882, 0, 0, 0, -0.02728657, -0.02, 0, -0.02
NKF2, 72354481, 1, 0, 0, 0, 0, 0, 0, 0, 0, 0, 0, 0, 0
NKF3, 72354481, 0, 0, 0, -0.01, -0.02, 0.03, 0, 0, 0, 0, 0
NKF4, 72354481, 0, 0, 0.01, 0, 0, 8.351106E-06, 0, 0, 0, 19, 229, 0, 0
NKF5, 72354481, 0, 0, 0, 0, 0.16, 0.13, 0, 0.19, 0.5, 3.737586E-05, 0.006824475, 0.01474906
NKQ1, 72354481, 0.9994062, 0.003323099, 0.005208557, 0.03390111
AHR2, 72354526, 0.65, -0.47, 1.04, -0.16, 0, 0, 0.9999333, 0.005755929, -0.004122914, 0.009126781
MOTB, 72354534, 1, 1, 0, 1
RCIN, 72354538, 0, 0, 0, 0, 0, 0, 0, 0, 0, 0, 0, 0, 0, 0
RCOU, 72354543, 1101, 1101, 1101, 1101, 0, 0, 0, 0, 0, 0, 0, 0, 0, 0
VIBE, 72354551, 0.0210711, 0.01847478, 0.0311602, 0, 0, 0
CTRL, 72354557, 0.005498875, 0.000169222, 0.005758021, 0.0001332014, 0.0001555989
PRX, 72354587, 2, 0.52, 0, 0.56, 0, 0.9, 0, 2.39, 0, 0, 0, 0.52
IMU, 72376793, -0.0006782759, 0.0006438079, 0.000644525, 0.102215, -0.07261361, -9.780237, 0, 0, 32.74336, 1, 1, 1000, 1000
RFND, 72404215, 0.2, 25, 0, 0
IMU, 72416654, -0.001179721, -0.0003143306, 0.001345283, 0.1135779, -0.08628167, -9.79763, 0, 0, 32.74409, 1, 1, 1000, 1000
MAG, 72454123, 234, 653, 205, 0, 0, 0, 0, 0, 0, 1, 72454114
RFND, 72454153, 0.2, 25, 0, 0
BARO, 72454192, -0.1825696, 987.9261, 31.28, 0.4944594, 72454, 0, 28.51
CTUN, 72454205, 0, 0, 0, 0.3072872, 0.02729907, 0.02729907, -0.18, 0, 0.19, 0, 0, -2
ATT, 72454278, 0, 0.51, 0, -0.54, 3.88, 3.89, 0, 1
RATE, 72454284, -2.307388, -0.08282878, -0.005345323, 2.454775, -0.03724527, 0.005802887, -0.01306806, -0.04082498, -0.0001822601, 989.9016, -1.3237, 0
NKF1, 72454291, 0.51, -0.54, 3.89, 0.00879991, -0.01955347, 0.02444201, 0, 0, 0, -0.02729907, -0.02, 0, -0.02
NKF2, 72454291, 1, 0, 0, 0, 0, 0, 0, 0, 0, 0, 0, 0, 0
NKF3, 72454291, 0, 0, 0, -0.01, -0.02, 0.03, 0, 0, 0, 0, 0
NKF4, 72454291, 0, 0, 0.01, 0, 0, 5.726892E-06, 0, 0, 0, 19, 229, 0, 0
NKF5, 72454291, 0, 0, 0, 0, 0.16, 0.13, 0, 0.19, 0.5, 4.16999E-05, 0.006757938, 0.01470198
NKQ1, 72454291, 0.999405, 0.003274594, 0.005196484, 0.03394094
AHR2, 72454335, 0.65, -0.48, 1.04, -0.18, 0, 0, 0.9999332, 0.005728414, -0.004144188, 0.00914512
MOTB, 72454342, 1, 1, 0, 1
RCIN, 72454346, 0, 0, 0, 0, 0, 0, 0, 0, 0, 0, 0, 0, 0, 0
RCOU, 72454352, 1101, 1101, 1101, 1101, 0, 0, 0, 0, 0, 0, 0, 0, 0, 0
VIBE, 72454360, 0.0226624, 0.01806119, 0.03841432, 0, 0, 0
CTRL, 72454366, 0.005449858, 0.0001585336, 0.005773885, 0.0001324986, 0.0001601417
PRX, 72454396, 2, 0.52, 0, 0.56, 0, 0.9, 0, 2.39, 0, 0, 0, 0.52
IMU, 72457207, -0.001644256, -0.0006379476, -0.001010688, 0.09778129, -0.06817783, -9.78421, 0, 0, 32.74459, 1, 1, 1000, 1000
IMU, 72496665, -0.000737929, 0.0007495916, 0.00165271, 0.1035043, -0.075229, -9.769864, 0, 0, 32.74471, 1, 1, 1000, 1000
RFND, 72504484, 0.2, 25, 0, 0
IMU, 72536636, -0.0009033706, 6.057182E-06, 0.0002383807, 0.08821689, -0.09392171, -9.801223, 0, 0, 32.74516, 1, 1, 1000, 1000
MAG, 72554209, 231, 657, 199, 0, 0, 0, 0, 0, 0, 1, 72554200
RFND, 72554238, 0.2, 25, 0, 0
BARO, 72554278, -0.1936345, 987.9275, 31.29, 0.5065616, 72554, 0, 28.51
CTUN, 72554291, 0, 0, 0, 0.3072872, 0.02812502, 0.02812502, -0.19, 0, 0.19, 0, 0, -2
ATT, 72554490, 0, 0.51, 0, -0.54, 3.88, 3.89, 0, 1
RATE, 72554497, -2.302067, -0.02740066, -0.005469928, 2.445216, -0.02908815, 0.005974753, -0.01355593, -0.002423735, -0.0002108372, 956.0552, -0.6948471, 0
NKF1, 72554505, 0.51, -0.54, 3.89, 0.008187686, -0.02074682, 0.0236063, 0, 0, 0, -0.02812502, -0.02, 0, -0.02
NKF2, 72554505, 1, 0, 0, 0, 0, 0, 0, 0, 0, 0, 0, 0, 0
NKF3, 72554505, 0, 0, 0, -0.01, -0.03, 0.03, 0, 0, 0, 0, 0
NKF4, 72554505, 0, 0, 0.01, 0, 0, 4.006693E-06, 0, 0, 0, 19, 229, 0, 0
NKF5, 72554505, 0, 0, 0, 0, 0.16, 0.13, 0, 0.19, 0.5, 4.265442E-05, 0.006545886, 0.01423093
NKQ1, 72554505, 0.9994029, 0.003264656, 0.005214916, 0.03400256
AHR2, 72554548, 0.65, -0.48, 1.04, -0.19, 0, 0, 0.9999328, 0.005739412, -0.004136971, 0.009184763
MOTB, 72554556, 1, 1, 0, 1
RCIN, 72554561, 0, 0, 0, 0, 0, 0, 0, 0, 0, 0, 0, 0, 0, 0
RCOU, 72554566, 1101, 1101, 1101, 1101, 0, 0, 0, 0, 0, 0, 0, 0, 0, 0
VIBE, 72554575, 0.02251053, 0.01843221, 0.03452407, 0, 0, 0
CTRL, 72554581, 0.005433998, 0.0001795915, 0.005756757, 0.0001379517, 0.0001827045
PRX, 72554610, 2, 0.52, 0, 0.56, 0, 2.79, 0, 2.41, 0, 0, 0, 0.52
IMU, 72577168, -0.0003109418, -0.0006442035, 0.0005572363, 0.1060301, -0.07700796, -9.771672, 0, 0, 32.74567, 1, 1, 1000, 1000
RFND, 72604313, 0.2, 25, 0, 0
IMU, 72616569, -0.001196939, -3.195579E-05, -0.0007085468, 0.1031633, -0.081247, -9.766457, 0, 0, 32.74567, 1, 1, 1000, 1000
MAG, 72654155, 234, 648, 196, 0, 0, 0, 0, 0, 0, 1, 72654147
RFND, 72654183, 0.2, 25, 0, 0
BARO, 72654219, -0.2434262, 987.933, 31.29, 0.3111982, 72654, 0, 28.51
CTUN, 72654233, 0, 0, 0, 0.3072872, 0.02859886, 0.02859886, -0.24, 0, 0.19, 0, 0, -2
ATT, 72654299, 0, 0.5, 0, -0.54, 3.89, 3.9, 0, 1
RATE, 72654304, -2.292599, -0.008207303, -0.005485982, 2.44762, 0.004756771, 0.00609421, -0.01020963, 0.04178245, -0.0001681191, 973.8317, -0.7428169, 0
NKF1, 72654312, 0.5, -0.54, 3.9, 0.008576856, -0.02185071, 0.02404523, 0, 0, 0, -0.02859886, -0.02, 0, -0.02
NKF2, 72654312, 1, 0, 0, 0, 0, 0, 0, 0, 0, 0, 0, 0, 0
NKF3, 72654312, 0, 0, 0, -0.01, -0.03, 0.03, 0, 0, 0, 0, 0
NKF4, 72654312, 0, 0, 0.01, 0, 0, 2.867911E-06, 0, 0, 0, 19, 229, 0, 0
NKF5, 72654312, 0, 0, 0, 0, 0.16, 0.13, 0, 0.19, 0.5, 4.178842E-05, 0.006357394, 0.01385603
NKQ1, 72654312, 0.9994019, 0.003245965, 0.00521165, 0.03403203
AHR2, 72654356, 0.65, -0.48, 1.05, -0.24, 0, 0, 0.9999326, 0.005740242, -0.00415369, 0.009192314
MOTB, 72654363, 1, 1, 0, 1
RCIN, 72654367, 0, 0, 0, 0, 0, 0, 0, 0, 0, 0, 0, 0, 0, 0
RCOU, 72654372, 1101, 1101, 1101, 1101, 0, 0, 0, 0, 0, 0, 0, 0, 0, 0
VIBE, 72654381, 0.02176042, 0.0202054, 0.03899419, 0, 0, 0
CTRL, 72654387, 0.005414106, 0.0001703358, 0.005757574, 0.0001571888, 0.0001841379
PRX, 72654417, 2, 0.52, 0, 0.56, 0, 3.52, 0, 2.4, 0, 0, 0, 0.52
IMU, 72656545, -0.0005284892, -0.0002458754, 0.0001477648, 0.09610057, -0.08128547, -9.788952, 0, 0, 32.74569, 1, 1, 1000, 1000
IMU, 72696595, 0.0005037768, -0.0007575891, 0.0004568997, 0.1146857, -0.08870719, -9.776907, 0, 0, 32.74569, 1, 1, 1000, 1000
RFND, 72704170, 0.2, 25, 0, 0
IMU, 72736581, -0.001802733, 0.0002034188, 0.0009688488, 0.09394043, -0.0707159, -9.78803, 0, 0, 32.74581, 1, 1, 1000, 1000
MAG, 72754127, 228, 652, 200, 0, 0, 0, 0, 0, 0, 1, 72754118
RFND, 72754154, 0.2, 25, 0, 0
BARO, 72754191, -0.1493752, 987.9225, 31.29, 0.02766204, 72754, 0, 28.51
CTUN, 72754205, 0, 0, 0, 0.3072872, 0.02901541, 0.02901541, -0.14, 0, 0.19, 0, 0, -2
ATT, 72754365, 0, 0.5, 0, -0.54, 3.89, 3.9, 0, 1
RATE, 72754371, -2.275996, -0.03494619, -0.005372544, 2.44529, 0.007120469, 0.005749489, -0.01128162, 0.02955529, -0.0002110845, 963.819, -1.456642, 0
NKF1, 72754379, 0.5, -0.54, 3.9, 0.008779114, -0.02316669, 0.023798, 0, 0, 0, -0.02901541, -0.02, 0, -0.02
NKF2, 72754379, 1, 0, 0, 0, 0, 0, 0, 0, 0, 0, 0, 0, 0
NKF3, 72754379, 0, 0, 0, -0.01, -0.03, 0.03, 0, 0, 0, 0, 0
NKF4, 72754379, 0, 0, 0.01, 0, 0, 2.13456E-06, 0, 0, 0, 19, 229, 0, 0
NKF5, 72754379, 0, 0, 0, 0, 0.16, 0.13, 0, 0.19, 0.5, 4.065787E-05, 0.006143191, 0.01341154
NKQ1, 72754379, 0.9994001, 0.003214293, 0.005213861, 0.03408867
AHR2, 72754424, 0.65, -0.48, 1.05, -0.14, 0, 0, 0.9999323, 0.00572773, -0.004167467, 0.009227231
MOTB, 72754432, 1, 1, 0, 1
RCIN, 72754436, 0, 0, 0, 0, 0, 0, 0, 0, 0, 0, 0, 0, 0, 0
RCOU, 72754442, 1101, 1101, 1101, 1101, 0, 0, 0, 0, 0, 0, 0, 0, 0, 0
VIBE, 72754450, 0.02064789, 0.02189249, 0.03872231, 0, 0, 0
CTRL, 72754457, 0.005380817, 0.0001683124, 0.005765046, 0.0001463159, 0.0001900784
PRX, 72754486, 2, 0.52, 0, 0.56, 0, 3.57, 0, 2.41, 0, 0, 0, 0.52
IMU, 72776616, -0.001488804, -0.001078981, 0.001044438, 0.09129373, -0.07134885, -9.780138, 0, 0, 32.74608, 1, 1, 1000, 1000
RFND, 72804229, 0.2, 25, 0, 0
IMU, 72816666, -0.0004885962, 0.0008968391, -0.0002372739, 0.1060201, -0.06784859, -9.794247, 0, 0, 32.74675, 1, 1, 1000, 1000
MAG, 72854164, 233, 654, 203, 0, 0, 0, 0, 0, 0, 1, 72854156
RFND, 72854194, 0.2, 25, 0, 0
BARO, 72854233, -0.2268289, 987.9308, 31.3, -0.06915518, 72854, 0, 28.51
CTUN, 72854246, 0, 0, 0, 0.3072872, 0.02946516, 0.02946516, -0.22, 0, 0.19, 0, 0, -2
DU32, 72854286, 7, 50356728
ATT, 72854381, 0, 0.5, 0, -0.54, 3.9, 3.91, 0, 1
RATE, 72854387, -2.27282, 0.03386851, -0.005505165, 2.433623, 0.03472908, 0.005877381, -0.01198077, 0.03321369, -0.0001853966, 974.1832, -2.151299, 0
NKF1, 72854394, 0.5, -0.54, 3.91, 0.008630496, -0.02428011, 0.02405391, 0, 0, 0, -0.02946516, -0.02, 0, -0.02
NKF2, 72854394, 1, 0, 0, 0, 0, 0, 0, 0, 0, 0, 0, 0, 0
NKF3, 72854394, 0, 0, 0, -0.01, -0.03, 0.03, 0, 0, 0, 0, 0
NKF4, 72854394, 0, 0, 0.01, 0, 0, 1.677634E-06, 0, 0, 0, 19, 229, 0, 0
NKF5, 72854394, 0, 0, 0, 0, 0.16, 0.13, 0, 0.19, 0.5, 3.84529E-05, 0.005881836, 0.01281249
NKQ1, 72854394, 0.9993986, 0.003205898, 0.005237782, 0.03412794
AHR2, 72854438, 0.65, -0.48, 1.05, -0.22, 0, 0, 0.9999322, 0.005738403, -0.004157636, 0.009244556
MOTB, 72854446, 1, 1, 0, 1
RCIN, 72854450, 0, 0, 0, 0, 0, 0, 0, 0, 0, 0, 0, 0, 0, 0
RCOU, 72854456, 1101, 1101, 1101, 1101, 0, 0, 0, 0, 0, 0, 0, 0, 0, 0
VIBE, 72854464, 0.02109543, 0.02112648, 0.03795189, 0, 0, 0
CTRL, 72854470, 0.005362834, 0.000161274, 0.005734988, 0.0001537677, 0.0001926369
PRX, 72854499, 2, 0.52, 0, 0.56, 0, 3.59, 0, 2.4, 0, 0, 0, 0.52
IMU, 72856748, 0.0002752159, 0.0002109925, 0.0002174104, 0.1099766, -0.08278209, -9.776572, 0, 0, 32.74732, 1, 1, 1000, 1000
IMU, 72896672, -0.001578288, 4.817604E-05, 0.0007329253, 0.1066808, -0.06803683, -9.785499, 0, 0, 32.74732, 1, 1, 1000, 1000
RFND, 72904233, 0.2, 25, 0, 0
IMU, 72937057, -0.001662445, -0.000604858, -0.0002442047, 0.09361994, -0.07616001, -9.780815, 0, 0, 32.74735, 1, 1, 1000, 1000
MAG, 72954461, 235, 646, 204, 0, 0, 0, 0, 0, 0, 1, 72954452
RFND, 72954489, 0.2, 25, 0, 0
BARO, 72954528, -0.2600234, 987.9347, 31.3, -0.01728879, 72954, 0, 28.51
CTUN, 72954542, 0, 0, 0, 0.3072872, 0.02959841, 0.02959841, -0.26, 0, 0.19, 0, 0, -2
ATT, 72954711, 0, 0.5, 0, -0.54, 3.9, 3.91, 0, 1
RATE, 72954716, -2.261663, -0.02849942, -0.005522971, 2.434237, -0.01555823, 0.005796666, -0.010202, 0.02763167, -8.564459E-05, 973.264, -1.276684, 0
NKF1, 72954724, 0.5, -0.54, 3.91, 0.009047005, -0.02511184, 0.02403121, 0, 0, 0, -0.02959841, -0.02, 0, -0.02
NKF2, 72954724, 1, 0, 0, 0, 0, 0, 0, 0, 0, 0, 0, 0, 0
NKF3, 72954724, 0, 0, 0, -0.01, -0.03, 0.03, 0, 0, 0, 0, 0
NKF4, 72954724, 0, 0, 0.01, 0, 0, 1.392028E-06, 0, 0, 0, 19, 229, 0, 0
NKF5, 72954724, 0, 0, 0, 0, 0.16, 0.13, 0, 0.19, 0.5, 3.720612E-05, 0.005698972, 0.01245022
NKQ1, 72954724, 0.9993985, 0.003184242, 0.005235726, 0.03413275
AHR2, 72954766, 0.65, -0.48, 1.05, -0.26, 0, 0, 0.9999323, 0.005734783, -0.004170427, 0.009227958
MOTB, 72954774, 1, 1, 0, 1
RCIN, 72954778, 0, 0, 0, 0, 0, 0, 0, 0, 0, 0, 0, 0, 0, 0
RCOU, 72954784, 1101, 1101, 1101, 1101, 0, 0, 0, 0, 0, 0, 0, 0, 0, 0
VIBE, 72954792, 0.02195957, 0.02071902, 0.03246131, 0, 0, 0
CTRL, 72954876, 0.005338799, 0.0001613406, 0.005736216, 0.0001563489, 0.0001725798
PRX, 72954911, 2, 0.52, 0, 0.56, 0, 3.59, 0, 2.4, 0, 0, 0, 0.52
IMU, 72976629, -0.0002469171, -0.0001834245, 0.0003600534, 0.1024597, -0.0754359, -9.778459, 0, 0, 32.74765, 1, 1, 1000, 1000
RFND, 73004226, 0.2, 25, 0, 0
IMU, 73016649, -0.0007395046, 0.000437866, -0.0001843383, 0.10591, -0.07584886, -9.784484, 0, 0, 32.7481, 1, 1, 1000, 1000
MAG, 73054189, 229, 653, 200, 0, 0, 0, 0, 0, 0, 1, 73054180
RFND, 73054217, 0.2, 25, 0, 0
BARO, 73054257, -0.3319448, 987.9424, 31.3, -0.1037327, 73054, 0, 28.51
CTUN, 73054270, 0, 0, 0, 0.3072872, 0.03014658, 0.03014658, -0.33, 0, 0.19, 0, 0, -2
ATT, 73054348, 0, 0.5, 0, -0.53, 3.9, 3.91, 0, 1
RATE, 73054354, -2.258945, 0.07968357, -0.005771358, 2.420433, 0.07405396, 0.005337672, -0.01149471, 0.07077447, -0.0001775323, 973.4858, -0.6684303, 0
NKF1, 73054362, 0.5, -0.53, 3.91, 0.009013277, -0.02648047, 0.02403669, 0, 0, 0, -0.03014658, -0.02, 0, -0.02
NKF2, 73054362, 1, 0, 0, 0, 0, 0, 0, 0, 0, 0, 0, 0, 0
NKF3, 73054362, 0, 0, 0, -0.01, -0.04, 0.03, 0, 0, 0, 0, 0
NKF4, 73054362, 0, 0, 0.01, 0, 0, 1.254422E-06, 0, 0, 0, 19, 229, 0, 0
NKF5, 73054362, 0, 0, 0, 0, 0.16, 0.13, 0, 0.19, 0.5, 3.513372E-05, 0.005406086, 0.0117218
NKQ1, 73054362, 0.9993969, 0.003178481, 0.005263298, 0.03417631
AHR2, 73054406, 0.65, -0.48, 1.05, -0.33, 0, 0, 0.9999321, 0.005748228, -0.004152535, 0.009249227
MOTB, 73054414, 1, 1, 0, 1
RCIN, 73054418, 0, 0, 0, 0, 0, 0, 0, 0, 0, 0, 0, 0, 0, 0
RCOU, 73054423, 1101, 1101, 1101, 1101, 0, 0, 0, 0, 0, 0, 0, 0, 0, 0
VIBE, 73054432, 0.01952191, 0.02123564, 0.03393919, 0, 0, 0
CTRL, 73054438, 0.005329671, 0.0001643445, 0.005715557, 0.0001491166, 0.0001574752
PRX, 73054468, 2, 0.52, 0, 0.56, 0, 3.59, 0, 2.38, 0, 0, 0, 0.52
IMU, 73056693, 0.0008445875, 0.001325947, 0.0008273826, 0.08923724, -0.07734013, -9.787994, 0, 0, 32.74833, 1, 1, 1000, 1000
IMU, 73096778, -0.001643928, -0.0005879519, 0.0003896808, 0.1190368, -0.09170133, -9.778297, 0, 0, 32.74829, 1, 1, 1000, 1000
RFND, 73104233, 0.2, 25, 0, 0
IMU, 73136632, -9.26502E-05, 0.0002296086, 0.0007108037, 0.09568298, -0.07424448, -9.794097, 0, 0, 32.74841, 1, 1, 1000, 1000
MAG, 73154196, 235, 651, 199, 0, 0, 0, 0, 0, 0, 1, 73154188
RFND, 73154225, 0.2, 25, 0, 0
BARO, 73154263, -0.3264124, 987.9419, 31.31, -0.3250293, 73154, 0, 28.51
CTUN, 73154277, 0, 0, 0, 0.3072872, 0.03022321, 0.03022321, -0.32, 0, 0.19, 0, 0, -2
ATT, 73154348, 0, 0.5, 0, -0.53, 3.91, 3.92, 0, 1
RATE, 73154354, -2.253748, -0.02551368, -0.005029687, 2.425269, -0.03843343, 0.005837951, -0.009387467, -0.01532195, -0.0001510885, 991.588, -3.020668, 0
NKF1, 73154361, 0.5, -0.53, 3.92, 0.00901464, -0.02807067, 0.02448365, 0, 0, 0, -0.03022321, -0.02, 0, -0.02
NKF2, 73154361, 1, 0, 0, 0, 0, 0, 0, 0, 0, 0, 0, 0, 0
NKF3, 73154361, 0, 0, 0, -0.01, -0.04, 0.03, 0, 0, 0, 0, 0
NKF4, 73154361, 0, 0, 0.01, 0, 0, 1.180895E-06, 0, 0, 0, 19, 229, 0, 0
NKF5, 73154361, 0, 0, 0, 0, 0.17, 0.13, 0, 0.19, 0.5, 3.362846E-05, 0.00518471, 0.0112194
NKQ1, 73154361, 0.9993962, 0.003167377, 0.005251857, 0.03420182
AHR2, 73154404, 0.65, -0.48, 1.05, -0.32, 0, 0, 0.9999319, 0.005757122, -0.004171826, 0.009252885
MOTB, 73154412, 1, 1, 0, 1
RCIN, 73154416, 0, 0, 0, 0, 0, 0, 0, 0, 0, 0, 0, 0, 0, 0
RCOU, 73154421, 1101, 1101, 1101, 1101, 0, 0, 0, 0, 0, 0, 0, 0, 0, 0
VIBE, 73154430, 0.02299906, 0.02377284, 0.03461228, 0, 0, 0
CTRL, 73154436, 0.005324404, 0.0001607671, 0.005717841, 0.000162674, 0.0001651155
PRX, 73154466, 2, 0.52, 0, 0.56, 0, 3.59, 0, 2.39, 0, 0, 0, 0.52
IMU, 73176757, -0.0007162441, 0.0004205419, 0.0005131104, 0.09310898, -0.07573631, -9.784519, 0, 0, 32.74828, 1, 1, 1000, 1000
RFND, 73204096, 0.2, 25, 0, 0
IMU, 73216726, -0.001337517, 0.0002241733, 0.0001411362, 0.1190964, -0.06996249, -9.78863, 0, 0, 32.74828, 1, 1, 1000, 1000
MAG, 73254339, 226, 648, 202, 0, 0, 0, 0, 0, 0, 1, 73254331
RFND, 73254367, 0.2, 25, 0, 0
BARO, 73254404, -0.4259958, 987.9531, 31.32, -0.4425931, 73254, 0, 28.51
CTUN, 73254416, 0, 0, 0, 0.3072872, 0.0306378, 0.0306378, -0.42, 0, 0.19, 0, 0, -2
ATT, 73254486, 0, 0.49, 0, -0.53, 3.91, 3.92, 0, 1
RATE, 73254491, -2.23925, -0.04302833, -0.005046302, 2.41579, -0.01740489, 0.005801523, -0.01031722, -0.008061435, -9.066647E-05, 952.1179, 0.4036903, 0
NKF1, 73254498, 0.49, -0.53, 3.92, 0.009081261, -0.02867919, 0.02350909, 0, 0, 0, -0.0306378, -0.02, 0, -0.02
NKF2, 73254498, 1, 0, 0, 0, 0, 0, 0, 0, 0, 0, 0, 0, 0
NKF3, 73254498, 0, 0, 0, -0.01, -0.04, 0.03, 0, 0, 0, 0, 0
NKF4, 73254498, 0, 0, 0.01, 0, 0, 1.191727E-06, 0, 0, 0, 19, 229, 0, 0
NKF5, 73254498, 0, 0, 0, 0, 0.16, 0.13, 0, 0.19, 0.5, 3.358769E-05, 0.004966137, 0.01073081
NKQ1, 73254498, 0.9993955, 0.003138321, 0.005269823, 0.03422145
AHR2, 73254542, 0.65, -0.48, 1.05, -0.42, 0, 0, 0.9999321, 0.005748256, -0.004162625, 0.009251087
MOTB, 73254550, 1, 1, 0, 1
RCIN, 73254554, 0, 0, 0, 0, 0, 0, 0, 0, 0, 0, 0, 0, 0, 0
RCOU, 73255043, 1101, 1101, 1101, 1101, 0, 0, 0, 0, 0, 0, 0, 0, 0, 0
VIBE, 73255057, 0.02210399, 0.02149764, 0.03379914, 0, 0, 0
CTRL, 73255064, 0.005289685, 0.000145453, 0.005695481, 0.0001634553, 0.000154412
PRX, 73255291, 2, 0.52, 0, 0.56, 0, 3.59, 0, 2.4, 0, 0, 0, 0.52
IMU, 73257398, -0.0008653889, -2.1706E-07, -0.0005379937, 0.1004732, -0.07242167, -9.79978, 0, 0, 32.7483, 1, 1, 1000, 1000
IMU, 73296565, -0.001370185, -0.0003345991, -0.001044271, 0.111222, -0.07414223, -9.781093, 0, 0, 32.74834, 1, 1, 1000, 1000
RFND, 73304053, 0.2, 25, 0, 0
IMU, 73336907, 5.318308E-05, 0.0002985988, -0.00023993, 0.09560817, -0.08538384, -9.781993, 0, 0, 32.74834, 1, 1, 1000, 1000
MAG, 73354210, 230, 646, 200, 0, 0, 0, 0, 0, 0, 1, 73354201
RFND, 73354239, 0.2, 25, 0, 0
BARO, 73354278, -0.4979172, 987.9614, 31.32, -0.4616107, 73354, 0, 28.51
CTUN, 73354291, 0, 0, 0, 0.3072872, 0.0310213, 0.0310213, -0.49, 0, 0.19, 0, 0, -2
ATT, 73354365, 0, 0.49, 0, -0.53, 3.91, 3.92, 0, 1
RATE, 73354370, -2.226677, -0.009236575, -0.005228812, 2.402753, 0.09815789, 0.005073999, -0.01138909, -0.05702794, -2.525771E-05, 961.4614, -0.3422737, 0
NKF1, 73354378, 0.49, -0.53, 3.92, 0.009291089, -0.03047191, 0.02373979, 0, 0, 0, -0.0310213, -0.02, 0, -0.02
NKF2, 73354378, 1, 0, 0, 0, 0, 0, 0, 0, 0, 0, 0, 0, 0
NKF3, 73354378, 0, 0, 0, -0.01, -0.05, 0.03, 0, 0, 0, 0, 0
NKF4, 73354378, 0, 0, 0.01, 0, 0, 1.245863E-06, 0, 0, 0, 19, 229, 0, 0
NKF5, 73354378, 0, 0, 0, 0, 0.17, 0.13, 0, 0.19, 0.5, 3.21937E-05, 0.004707627, 0.01008087
NKQ1, 73354378, 0.9993958, 0.003112225, 0.005293436, 0.03421275
AHR2, 73354422, 0.65, -0.48, 1.05, -0.49, 0, 0, 0.9999324, 0.005740975, -0.004149798, 0.00922055
MOTB, 73354430, 1, 1, 0, 1
RCIN, 73354434, 0, 0, 0, 0, 0, 0, 0, 0, 0, 0, 0, 0, 0, 0
RCOU, 73354440, 1101, 1101, 1101, 1101, 0, 0, 0, 0, 0, 0, 0, 0, 0, 0
VIBE, 73354448, 0.02124928, 0.0203612, 0.03558099, 0, 0, 0
CTRL, 73354455, 0.005259586, 0.0001521799, 0.005677486, 0.0001675887, 0.0001297671
PRX, 73354485, 2, 0.52, 0, 0.56, 0, 3.59, 0, 2.39, 0, 0, 0, 0.52
IMU, 73376568, 0.0002377803, -0.0003161076, -0.0005494471, 0.1153747, -0.07955614, -9.779588, 0, 0, 32.74833, 1, 1, 1000, 1000
RFND, 73404091, 0.2, 25, 0, 0
IMU, 73417141, -0.0004378326, 0.0004488073, 0.0009821949, 0.1052483, -0.07402234, -9.810783, 0, 0, 32.74884, 1, 1, 1000, 1000
MAG, 73454181, 230, 648, 204, 0, 0, 0, 0, 0, 0, 1, 73454172
RFND, 73454209, 0.2, 25, 0, 0
BARO, 73454248, -0.4259958, 987.9531, 31.32, -0.5065616, 73454, 0, 28.51
CTUN, 73454261, 0, 0, 0, 0.3072872, 0.03106149, 0.03106149, -0.42, 0, 0.19, 0, 0, -2
ATT, 73454333, 0, 0.49, 0, -0.53, 3.91, 3.92, 0, 1
RATE, 73454338, -2.224755, 0.02933623, -0.005465901, 2.401232, 0.02296994, 0.005296858, -0.01040746, 0.00987755, -0.0001067966, 949.0281, -1.58577, 0
NKF1, 73454345, 0.49, -0.53, 3.92, 0.009256972, -0.03206248, 0.02343279, 0, 0, 0, -0.03106149, -0.02, 0, -0.02
NKF2, 73454345, 1, 0, 0, 0, 0, 0, 0, 0, 0, 0, 0, 0, 0
NKF3, 73454345, 0, 0, 0, -0.01, -0.05, 0.03, 0, 0, 0, 0, 0
NKF4, 73454345, 0, 0, 0.01, 0, 0, 1.314477E-06, 0, 0, 0, 19, 229, 0, 0
NKF5, 73454345, 0, 0, 0, 0, 0.16, 0.13, 0, 0.19, 0.5, 3.269648E-05, 0.00458026, 0.009851731
NKQ1, 73454345, 0.9993949, 0.003110182, 0.005296743, 0.03423766
AHR2, 73454389, 0.65, -0.48, 1.05, -0.42, 0, 0, 0.9999322, 0.005757766, -0.004157112, 0.00922361
MOTB, 73454397, 1, 1, 0, 1
RCIN, 73454401, 0, 0, 0, 0, 0, 0, 0, 0, 0, 0, 0, 0, 0, 0
RCOU, 73454406, 1101, 1101, 1101, 1101, 0, 0, 0, 0, 0, 0, 0, 0, 0, 0
VIBE, 73454415, 0.02082842, 0.01809016, 0.03173596, 0, 0, 0
CTRL, 73454421, 0.00525185, 0.0001485227, 0.005670048, 0.0001765352, 0.000115019
PRX, 73454452, 2, 0.52, 0, 0.56, 0, 3.59, 0, 2.39, 0, 0, 0, 0.52
IMU, 73456658, 8.730554E-05, 0.0006928947, -0.0001616947, 0.08818524, -0.08416884, -9.777559, 0, 0, 32.74958, 1, 1, 1000, 1000
IMU, 73496715, -0.000932605, -0.0002099493, 0.0007358061, 0.109873, -0.07686628, -9.777592, 0, 0, 32.75058, 1, 1, 1000, 1000
RFND, 73504368, 0.2, 25, 0, 0
IMU, 73536663, -0.001062852, -0.0003108289, 0.0004630386, 0.1178808, -0.08895421, -9.789536, 0, 0, 32.7523, 1, 1, 1000, 1000
MAG, 73554194, 231, 653, 200, 0, 0, 0, 0, 0, 0, 1, 73554186
RFND, 73554224, 0.2, 25, 0, 0
BARO, 73554262, -0.5255793, 987.9642, 31.33, -0.4685263, 73554, 0, 28.51
CTUN, 73554275, 0, 0, 0, 0.3072872, 0.03162859, 0.03162859, -0.52, 0, 0.19, 0, 0, -2
ATT, 73554347, 0, 0.49, 0, -0.53, 3.92, 3.93, 0, 1
RATE, 73554352, -2.206459, -0.02634042, -0.005233893, 2.38835, 0.03965816, 0.005454153, -0.01014427, -0.008035315, -0.0001589149, 914.3315, 0.8286476, 0
NKF1, 73554359, 0.49, -0.53, 3.93, 0.009726783, -0.0339296, 0.02257609, 0, 0, 0, -0.03162859, -0.02, 0, -0.02
NKF2, 73554359, 1, 0, 0, 0, 0, 0, 0, 0, 0, 0, 0, 0, 0
NKF3, 73554359, 0, 0, 0, -0.01, -0.05, 0.03, 0, 0, 0, 0, 0
NKF4, 73554359, 0, 0, 0.01, 0, 0, 1.445249E-06, 0, 0, 0, 19, 229, 0, 0
NKF5, 73554359, 0, 0, 0, 0, 0.17, 0.13, 0, 0.19, 0.5, 3.133451E-05, 0.004297843, 0.009109894
NKQ1, 73554359, 0.9993935, 0.003073327, 0.005320325, 0.03427987
AHR2, 73554404, 0.65, -0.48, 1.05, -0.52, 0, 0, 0.9999322, 0.005740367, -0.004142159, 0.009244294
MOTB, 73554411, 1, 1, 0, 1
RCIN, 73554416, 0, 0, 0, 0, 0, 0, 0, 0, 0, 0, 0, 0, 0, 0
RCOU, 73554421, 1101, 1101, 1101, 1101, 0, 0, 0, 0, 0, 0, 0, 0, 0, 0
VIBE, 73554430, 0.0219548, 0.02043233, 0.03125708, 0, 0, 0
CTRL, 73554437, 0.005213918, 0.0001423764, 0.005636894, 0.0001835294, 0.0001322859
PRX, 73554467, 2, 0.52, 0, 0.56, 0, 3.59, 0, 2.39, 0, 0, 0, 0.52
IMU, 73576674, 0.0003914526, 0.0002732683, 0.0007784117, 0.102802, -0.07581271, -9.796568, 0, 0, 32.75393, 1, 1, 1000, 1000
RFND, 73604549, 0.2, 25, 0, 0
IMU, 73616715, -0.001492314, 1.605337E-05, -0.0001775296, 0.1013025, -0.07542545, -9.780956, 0, 0, 32.75518, 1, 1, 1000, 1000
MAG, 73654153, 226, 651, 200, 0, 0, 0, 0, 0, 0, 1, 73654145
RFND, 73654187, 0.2, 25, 0, 0
BARO, 73654224, -0.5864358, 987.9714, 31.33, -0.3284871, 73654, 0, 28.51
CTUN, 73654237, 0, 0, 0, 0.3072872, 0.03179585, 0.03179585, -0.58, 0, 0.19, 0, 0, -2
ATT, 73654374, 0, 0.48, 0, -0.53, 3.92, 3.93, 0, 1
RATE, 73654380, -2.19319, -0.03755917, -0.004908136, 2.385624, -0.01010318, 0.005722372, -0.01076288, -0.008469271, -0.0001160788, 899.0042, -1.055145, 0
NKF1, 73654387, 0.48, -0.53, 3.93, 0.009436931, -0.03528331, 0.02219763, 0, 0, 0, -0.03179585, -0.02, 0, -0.02
NKF2, 73654387, 1, 0, 0, 0, 0, 0, 0, 0, 0, 0, 0, 0, 0
NKF3, 73654387, 0, 0, 0, -0.01, -0.06, 0.03, 0, 0, 0, 0, 0
NKF4, 73654387, 0, 0, 0.01, 0, 0, 1.566151E-06, 0, 0, 0, 19, 229, 0, 0
NKF5, 73654387, 0, 0, 0, 0, 0.17, 0.13, 0, 0.19, 0.5, 3.008051E-05, 0.004090293, 0.008597758
NKQ1, 73654387, 0.9993926, 0.00304794, 0.005324143, 0.03430412
AHR2, 73654431, 0.65, -0.48, 1.05, -0.58, 0, 0, 0.9999322, 0.005734466, -0.00414811, 0.009246919
MOTB, 73654439, 1, 1, 0, 1
RCIN, 73654443, 0, 0, 0, 0, 0, 0, 0, 0, 0, 0, 0, 0, 0, 0
RCOU, 73654448, 1101, 1101, 1101, 1101, 0, 0, 0, 0, 0, 0, 0, 0, 0, 0
VIBE, 73654456, 0.01917754, 0.02132053, 0.03255327, 0, 0, 0
CTRL, 73654463, 0.005189784, 0.0001449036, 0.005622957, 0.0001661994, 0.0001363605
PRX, 73654492, 2, 0.52, 0, 0.56, 0, 3.59, 0, 2.39, 0, 0, 0, 0.52
IMU, 73657297, -0.001346496, -0.0003495303, -0.0005027727, 0.1000443, -0.07453904, -9.78946, 0, 0, 32.75539, 1, 1, 1000, 1000
EV, 73696395, 57
IMU, 73696668, -0.0008061123, -0.0003921797, -0.000969944, 0.11133, -0.07023916, -9.788673, 0, 0, 32.75533, 1, 1, 1000, 1000
RFND, 73704181, 0.2, 25, 0, 0
IMU, 73737084, -0.0007331378, -0.000104291, -3.938513E-05, 0.111472, -0.08181855, -9.795588, 0, 0, 32.75698, 1, 1, 1000, 1000
MAG, 73754327, 231, 649, 201, 0, 0, 0, 0, 0, 0, 1, 73754316
RFND, 73754361, 0.2, 25, 0, 0
BARO, 73754400, -0.5809034, 987.9703, 31.33, -0.3233004, 73754, 0, 28.51
CTUN, 73754413, 0, 0, 0, 0.3072872, 0.03227145, 0.03227145, -0.58, 0, 0.19, 0, 0, -2
ATT, 73754490, 0, 0.48, 0, -0.53, 3.92, 3.93, 0, 1
RATE, 73754495, -2.180685, -0.0003796441, -0.005227081, 2.398709, -0.04546836, 0.005864, -0.01014834, 0.00529037, -0.0001075757, 877.5286, -1.430893, 0
NKF1, 73754503, 0.48, -0.53, 3.93, 0.009927833, -0.03688864, 0.02166737, 0, 0, 0, -0.03227145, -0.02, 0, -0.02
NKF2, 73754503, 1, 0, 0, 0, 0, 0, 0, 0, 0, 0, 0, 0, 0
NKF3, 73754503, 0, 0, 0, -0.01, -0.06, 0.03, 0, 0, 0, 0, 0
NKF4, 73754503, 0, 0, 0.01, 0, 0, 1.737219E-06, 0, 0, 0, 19, 229, 0, 0
NKF5, 73754503, 0, 0, 0, 0, 0.17, 0.13, 0, 0.19, 0.5, 3.081391E-05, 0.003948278, 0.008290759
NKQ1, 73754503, 0.9993923, 0.003024973, 0.005297986, 0.03432004
AHR2, 73754549, 0.65, -0.48, 1.05, -0.58, 0, 0, 0.9999321, 0.005731161, -0.00418549, 0.009241174
MOTB, 73754556, 1, 1, 0, 1
RCIN, 73754561, 0, 0, 0, 0, 0, 0, 0, 0, 0, 0, 0, 0, 0, 0
RCOU, 73754566, 1114, 1114, 1114, 1114, 0, 0, 0, 0, 0, 0, 0, 0, 0, 0
VIBE, 73754574, 0.01936007, 0.02031448, 0.03195048, 0, 0, 0
CTRL, 73754581, 0.005154698, 0.0001717555, 0.005649657, 0.0001584747, 0.0001251911
PRX, 73754611, 2, 0.52, 0, 0.56, 0, 3.59, 0, 2.39, 0, 0, 0, 0.52
IMU, 73776783, -0.0007048255, -0.001130817, 2.091008E-06, 0.1138692, -0.07952867, -9.766179, 0, 0, 32.75851, 1, 1, 1000, 1000
RFND, 73804211, 0.2, 25, 0, 0
IMU, 73816675, -0.0004794448, -0.000166933, -0.0005746422, 0.1053254, -0.07609836, -9.795382, 0, 0, 32.7596, 1, 1, 1000, 1000
MAG, 73854308, 232, 655, 204, 0, 0, 0, 0, 0, 0, 1, 73854299
RFND, 73854342, 0.2, 25, 0, 0
BARO, 73854380, -0.5421765, 987.9661, 31.34, -0.3907267, 73854, 0, 28.51
CTUN, 73854394, 0, 0, 0, 0.3072872, 0.03247667, 0.03247667, -0.54, 0, 0.19, 0, 0, -2
DU32, 73854432, 7, 33579512
ATT, 73854624, 0, 0.48, 0, -0.53, 3.92, 3.93, 0, 1
RATE, 73854630, -2.17236, -0.04681966, -0.004881769, 2.397994, 0.04534099, 0.005463796, -0.0101042, -0.02298858, -8.771277E-05, 897.2817, -1.494884, 0
NKF1, 73854638, 0.48, -0.53, 3.93, 0.01029365, -0.03879672, 0.0221551, 0, 0, 0, -0.03247667, -0.02, 0, -0.02
NKF2, 73854638, 1, 0, 0, 0, 0, 0, 0, 0, 0, 0, 0, 0, 0
NKF3, 73854638, 0, 0, 0, -0.01, -0.06, 0.03, 0, 0, 0, 0, 0
NKF4, 73854638, 0, 0, 0.01, 0, 0, 1.911152E-06, 0, 0, 0, 19, 229, 0, 0
NKF5, 73854638, 0, 0, 0, 0, 0.17, 0.13, 0, 0.19, 0.5, 2.928107E-05, 0.003699916, 0.007637119
NKQ1, 73854638, 0.9993917, 0.0030072, 0.005299423, 0.03433919
AHR2, 73854685, 0.65, -0.48, 1.05, -0.54, 0, 0, 0.9999321, 0.005734403, -0.004194201, 0.009238617
MOTB, 73854692, 1, 1, 0, 1
RCIN, 73854697, 0, 0, 0, 0, 0, 0, 0, 0, 0, 0, 0, 0, 0, 0
RCOU, 73854702, 1138, 1138, 1138, 1138, 0, 0, 0, 0, 0, 0, 0, 0, 0, 0
VIBE, 73854710, 0.0211217, 0.01885522, 0.03304812, 0, 0, 0
CTRL, 73854716, 0.005137737, 0.0001616582, 0.005657183, 0.0001506531, 0.0001219719
PRX, 73854746, 2, 0.52, 0, 0.56, 0, 3.59, 0, 2.4, 0, 0, 0, 0.52
IMU, 73857348, -0.001268675, 0.000797588, -0.0007917834, 0.1030649, -0.08041167, -9.776907, 0, 0, 32.76018, 1, 1, 1000, 1000
IMU, 73896712, -0.00102447, 0.0001525079, 0.001025839, 0.1061063, -0.08156014, -9.791697, 0, 0, 32.76099, 1, 1, 1000, 1000
RFND, 73904167, 0.2, 25, 0, 0
IMU, 73936899, -0.0009861568, -0.000320178, 0.0004904098, 0.1097112, -0.07361604, -9.790529, 0, 0, 32.76374, 1, 1, 1000, 1000
MAG, 73954214, 231, 645, 200, 0, 0, 0, 0, 0, 0, 1, 73954206
RFND, 73954243, 0.2, 25, 0, 0
BARO, 73954283, -0.5698386, 987.9692, 31.34, -0.2541452, 73954, 0, 28.51
CTUN, 73954296, 0, 0, 0, 0.3072872, 0.03266734, 0.03266734, -0.56, 0, 0.19, 0, 0, -2
ATT, 73954435, 0, 0.48, 0, -0.53, 3.93, 3.94, 0, 1
RATE, 73954440, -2.164544, 9.819564E-05, -0.0051769, 2.395137, -0.04062532, 0.005691899, -0.0100658, 0.02713544, -0.0001683287, 891.553, -1.366425, 0
NKF1, 73954447, 0.48, -0.53, 3.94, 0.010612, -0.040144, 0.02201365, 0, 0, 0, -0.03266734, -0.02, 0, -0.02
NKF2, 73954447, 1, 0, 0, 0, 0, 0, 0, 0, 0, 0, 0, 0, 0
NKF3, 73954447, 0, 0, 0, -0.01, -0.06, 0.03, 0, 0, 0, 0, 0
NKF4, 73954447, 0, 0, 0.01, 0, 0, 2.11281E-06, 0, 0, 0, 19, 229, 0, 0
NKF5, 73954447, 0, 0, 0, 0, 0.17, 0.13, 0, 0.19, 0.5, 3.042315E-05, 0.0036362, 0.007585288
NKQ1, 73954447, 0.9993902, 0.002993511, 0.00530438, 0.03438412
AHR2, 73954492, 0.65, -0.48, 1.05, -0.56, 0, 0, 0.9999318, 0.005743203, -0.004197218, 0.009261789
MOTB, 73954499, 1, 1, 0, 1
RCIN, 73954503, 0, 0, 0, 0, 0, 0, 0, 0, 0, 0, 0, 0, 0, 0
RCOU, 73954509, 1162, 1162, 1162, 1162, 0, 0, 0, 0, 0, 0, 0, 0, 0, 0
VIBE, 73954518, 0.02150582, 0.02017732, 0.03260206, 0, 0, 0
CTRL, 73954524, 0.005113402, 0.0001518154, 0.00564534, 0.0001564917, 0.0001266385
PRX, 73954553, 2, 0.52, 0, 0.56, 0, 3.59, 0, 2.4, 0, 0, 0, 0.52
IMU, 73976714, -0.0008839684, 0.0001918706, 0.0006237314, 0.1121762, -0.07355426, -9.777281, 0, 0, 32.76683, 1, 1, 1000, 1000
RFND, 74004382, 0.2, 25, 0, 0
IMU, 74016777, 0.0001205832, -0.0007022329, 0.002691603, 0.09981911, -0.07509633, -9.769277, 0, 0, 32.76891, 1, 1, 1000, 1000
MAG, 74054226, 228, 658, 199, 0, 0, 0, 0, 0, 0, 1, 74054218
RFND, 74054307, 0.2, 25, 0, 0
BARO, 74054350, -0.508982, 987.9625, 31.34, -0.01210215, 74054, 0, 28.51
CTUN, 74054363, 0, 0, 0, 0.3072872, 0.03308054, 0.03308054, -0.5, 0, 0.19, 0, 0, -2
ATT, 74054530, 0, 0.47, 0, -0.53, 3.93, 3.94, 0, 1
RATE, 74054536, -2.161111, -0.01138624, -0.005074813, 2.401541, 0.02877526, 0.00547368, -0.01006784, -0.327637, -6.965676E-05, 911.7737, -1.354408, 0
NKF1, 74054543, 0.47, -0.53, 3.94, 0.01067414, -0.042131, 0.02251293, 0, 0, 0, -0.03308054, -0.02, 0, -0.02
NKF2, 74054543, 1, 0, 0, 0, 0, 0, 0, 0, 0, 0, 0, 0, 0
NKF3, 74054543, 0, 0, 0, -0.01, -0.07, 0.03, 0, 0, 0, 0, 0
NKF4, 74054543, 0, 0, 0.01, 0, 0, 2.353942E-06, 0, 0, 0, 19, 229, 0, 0
NKF5, 74054543, 0, 0, 0, 0, 0.17, 0.13, 0, 0.19, 0.5, 2.843736E-05, 0.003363729, 0.006838087
NKQ1, 74054543, 0.9993901, 0.0029802, 0.00528666, 0.03439057
AHR2, 74054586, 0.65, -0.48, 1.05, -0.5, 0, 0, 0.9999318, 0.005750834, -0.004221724, 0.009246855
MOTB, 74054594, 1, 1, 0, 1
RCIN, 74054598, 0, 0, 0, 0, 0, 0, 0, 0, 0, 0, 0, 0, 0, 0
RCOU, 74054603, 1186, 1186, 1186, 1186, 0, 0, 0, 0, 0, 0, 0, 0, 0, 0
VIBE, 74054612, 0.04684281, 0.07607668, 0.04303384, 0, 0, 0
CTRL, 74054618, 0.005103133, 0.0001610156, 0.005662957, 0.0001468771, 0.0001511228
PRX, 74054647, 2, 0.52, 0, 0.56, 0, 3.59, 0, 2.4, 0, 0, 0, 0.52
IMU, 74056674, -0.0005724855, 0.0001620793, -0.004109197, 0.08900119, -0.08832076, -9.780145, 0, 0, 32.77016, 1, 1, 1000, 1000
IMU, 74096663, 0.003553031, -0.004484744, -0.03569206, 0.0936039, -0.02488887, -9.878658, 0, 0, 32.77113, 1, 1, 1000, 1000
RFND, 74104349, 0.2, 25, 0, 0
IMU, 74137282, -0.006501148, 0.004530594, 0.0255392, 0.1348566, -0.1139518, -9.8081, 0, 0, 32.7723, 1, 1, 1000, 1000
MAG, 74154219, 224, 654, 198, 0, 0, 0, 0, 0, 0, 1, 74154211
RFND, 74154249, 0.2, 25, 0, 0
BARO, 74154289, -0.5034496, 987.962, 31.35, 0.1210215, 74154, 0, 28.51
CTUN, 74154302, 0, 0, 0, 0.3072872, 0.03290325, 0.03290325, -0.5, 0, 0.19, 0, 0, -2
ATT, 74154908, 0, 0.48, 0, -0.54, 3.95, 3.96, 0, 1
RATE, 74154917, -2.168792, -0.13209, -0.00675061, 2.466383, -0.08506649, 0.006966672, -0.01037184, 0.02347676, -0.000883003, 900.4152, -0.8032799, 0
NKF1, 74154927, 0.48, -0.54, 3.96, 0.01169748, -0.04119662, 0.02223247, 0, 0, 0, -0.03290325, -0.02, 0, -0.02
NKF2, 74154927, 1, 0, 0, 0, 0, 0, 0, 0, 0, 0, 0, 0, 0
NKF3, 74154927, 0, 0, 0, -0.01, -0.07, 0.03, 0, 0, 0, 0, 0
NKF4, 74154927, 0, 0, 0.01, 0, 0, 2.562327E-06, 0, 0, 0, 19, 229, 0, 0
NKF5, 74154927, 0, 0, 0, 0, 0.16, 0.13, 0, 0.19, 0.5, 2.977402E-05, 0.003372805, 0.007013859
NKQ1, 74154927, 0.9993843, 0.003004009, 0.005168623, 0.03457247
AHR2, 74154977, 0.65, -0.5, 1.07, -0.5, 0, 0, 0.9999295, 0.005792102, -0.004345151, 0.009406269
MOTB, 74154985, 1, 1, 0, 1
RCIN, 74154990, 0, 0, 0, 0, 0, 0, 0, 0, 0, 0, 0, 0, 0, 0
RCOU, 74154995, 1210, 1210, 1210, 1210, 0, 0, 0, 0, 0, 0, 0, 0, 0, 0
VIBE, 74155004, 0.3388507, 0.3118415, 0.3588497, 0, 0, 0
CTRL, 74155011, 0.005097765, 0.0008558856, 0.005785466, 0.0005671277, 0.0004646916
PRX, 74155040, 2, 0.52, 0, 0.56, 0, 3.59, 0, 2.4, 0, 0, 0, 0.52
IMU, 74176895, 0.01017708, -0.002187255, -0.01516414, 0.1143895, -0.07996558, -9.799253, 0, 0, 32.77382, 1, 1, 1000, 1000
RFND, 74204227, 0.2, 25, 0, 0
IMU, 74216657, 0.00324899, -0.002267455, -0.002394798, 0.1076815, -0.09567504, -9.799047, 0, 0, 32.77611, 1, 1, 1000, 1000
MAG, 74254604, 225, 655, 198, 0, 0, 0, 0, 0, 0, 1, 74254595
RFND, 74254633, 0.2, 25, 0, 0
BARO, 74254672, -0.4481255, 987.9559, 31.35, 0.1919056, 74254, 0, 28.51
CTUN, 74254685, 0, 0, 0, 0.3072872, 0.03327355, 0.03327355, -0.44, 0, 0.19, 0, 0, -2
ATT, 74254762, 0, 0.48, 0, -0.54, 3.94, 3.95, 0, 1
RATE, 74254768, -2.186615, -0.355318, -0.001831662, 2.468334, 0.1717981, 0.005061674, -0.01047359, -0.05464143, -0.0001097206, 924.6377, -0.5353928, 0
NKF1, 74254776, 0.48, -0.54, 3.95, 0.01007973, -0.04394299, 0.02283056, 0, 0, 0, -0.03327355, -0.02, 0, -0.02
NKF2, 74254776, 1, 0, 0, 0, 0, 0, 0, 0, 0, 0, 0, 0, 0
NKF3, 74254776, 0, 0, 0, 0, -0.08, 0.03, 0, 0, 0, 0, 0
NKF4, 74254776, 0, 0, 0.01, 0, 0, 2.867153E-06, 0, 0, 0, 19, 229, 0, 0
NKF5, 74254776, 0, 0, 0, 0, 0.17, 0.13, 0, 0.19, 0.5, 2.73807E-05, 0.003073088, 0.006164872
NKQ1, 74254776, 0.9993865, 0.003037972, 0.005164118, 0.03450786
AHR2, 74254907, 0.66, -0.5, 1.06, -0.44, 0, 0, 0.99993, 0.00584737, -0.004364887, 0.009319411
MOTB, 74254915, 1, 1, 0, 1
RCIN, 74254920, 0, 0, 0, 0, 0, 0, 0, 0, 0, 0, 0, 0, 0, 0
RCOU, 74254925, 1233, 1221, 1230, 1224, 0, 0, 0, 0, 0, 0, 0, 0, 0, 0
VIBE, 74254934, 0.5372991, 0.6154221, 0.5659202, 0, 0, 0
CTRL, 74254941, 0.005256941, 0.001483806, 0.005824695, 0.0005532419, 0.0004030824
PRX, 74254971, 2, 0.52, 0, 0.56, 0, 1.51, 0, 2.4, 0, 0, 0, 0.52
IMU, 74256665, -0.007106338, 0.002467756, -0.001250635, 0.07463254, -0.07763153, -9.78743, 0, 0, 32.77879, 1, 1, 1000, 1000
IMU, 74296913, 0.00904595, 0.003638951, -0.006070021, 0.09704366, -0.03886025, -9.791302, 0, 0, 32.78158, 1, 1, 1000, 1000
RFND, 74304283, 0.2, 25, 0, 0
IMU, 74336977, 0.004999234, -0.001160816, -0.01131335, 0.1009988, -0.03499319, -9.810827, 0, 0, 32.78403, 1, 1, 1000, 1000
MAG, 74354264, 226, 652, 196, 0, 0, 0, 0, 0, 0, 1, 74354255
RFND, 74354297, 0.2, 25, 0, 0
BARO, 74354334, -0.4093986, 987.9514, 31.36, 0.2748918, 74354, 0, 28.51
CTUN, 74354347, 0, 0, 0, 0.3072872, 0.03306885, 0.03306885, -0.4, 0, 0.19, 0, 0, -2
ATT, 74354484, 0, 0.49, 0, -0.54, 3.95, 3.96, 0, 1
RATE, 74354490, -2.236681, 0.375922, -0.005063992, 2.471684, 0.05913643, 0.00494767, -0.0107231, -0.3172827, 0.0001331683, 878.9196, -2.63195, 0
NKF1, 74354497, 0.49, -0.54, 3.96, 0.01151267, -0.04647598, 0.02170172, 0, 0, 0, -0.03306885, -0.02, 0, -0.02
NKF2, 74354497, 1, 0, 0, 0, 0, 0, 0, 0, 0, 0, 0, 0, 0
NKF3, 74354497, 0, 0, 0, 0, -0.08, 0.03, 0, 0, 0, 0, 0
NKF4, 74354497, 0, 0, 0.01, 0, 0, 3.107833E-06, 0, 0, 0, 19, 229, 0, 0
NKF5, 74354497, 0, 0, 0, 0, 0.17, 0.13, 0, 0.19, 0.5, 2.464727E-05, 0.002874504, 0.005635524
NKQ1, 74354497, 0.9993852, 0.003130779, 0.005155992, 0.03453907
AHR2, 74354542, 0.67, -0.51, 1.06, -0.4, 0, 0, 0.999929, 0.005970031, -0.00441266, 0.009327742
MOTB, 74354549, 1, 1, 0, 1
RCIN, 74354553, 0, 0, 0, 0, 0, 0, 0, 0, 0, 0, 0, 0, 0, 0
RCOU, 74354558, 1238, 1221, 1229, 1229, 0, 0, 0, 0, 0, 0, 0, 0, 0, 0
VIBE, 74354567, 0.4679458, 0.5315391, 0.5950573, 0, 0, 0
CTRL, 74354573, 0.005366993, 0.001815161, 0.005834019, 0.0005573989, 0.0003973871
PRX, 74354602, 2, 0.52, 0, 0.56, 0, 1.51, 0, 2.39, 0, 0, 0, 0.52
IMU, 74376720, -0.01257842, -0.001628982, 0.01363798, 0.1334168, -0.09428115, -9.801382, 0, 0, 32.78667, 1, 1, 1000, 1000
RFND, 74404217, 0.2, 25, 0, 0
IMU, 74416660, 0.005201379, -0.007912357, 0.006527192, 0.1081782, -0.05097423, -9.771158, 0, 0, 32.78835, 1, 1, 1000, 1000
MAG, 74454573, 225, 654, 209, 0, 0, 0, 0, 0, 0, 1, 74454564
RFND, 74454606, 0.2, 25, 0, 0
BARO, 74454644, -0.4481255, 987.9559, 31.36, 0.3250293, 74454, 0, 28.51
CTUN, 74454656, 0, 0, 0, 0.3072872, 0.03336506, 0.03336506, -0.44, 0, 0.19, 0, 0, -2
ATT, 74454730, 0, 0.48, 0, -0.54, 3.94, 3.95, 0, 1
RATE, 74454735, -2.216287, 0.06404386, -0.007037277, 2.445111, 0.07499642, 0.005924322, -0.01049843, -1.945956, 0.0001302576, 968.1318, -4.143524, 0
NKF1, 74454743, 0.48, -0.54, 3.95, 0.01110175, -0.04712991, 0.02390449, 0, 0, 0, -0.03336506, -0.02, 0, -0.02
NKF2, 74454743, 1, 0, 0, 0, 0, 0, 0, 0, 0, 0, 0, 0, 0
NKF3, 74454743, 0, 0, 0, 0, -0.08, 0.03, 0, 0, 0, 0, 0
NKF4, 74454743, 0, 0, 0.01, 0, 0, 3.471727E-06, 0, 0, 0, 19, 229, 0, 0
NKF5, 74454743, 0, 0, 0, 0, 0.17, 0.13, 0, 0.19, 0.5, 2.624175E-05, 0.002819498, 0.00559388
NKQ1, 74454743, 0.9993874, 0.003060997, 0.005177736, 0.03447784
AHR2, 74454789, 0.67, -0.51, 1.05, -0.44, 0, 0, 0.99993, 0.005925319, -0.004415109, 0.009245821
MOTB, 74454796, 1, 1, 0, 1
RCIN, 74454884, 0, 0, 0, 0, 0, 0, 0, 0, 0, 0, 0, 0, 0, 0
RCOU, 74454892, 1243, 1221, 1231, 1233, 0, 0, 0, 0, 0, 0, 0, 0, 0, 0
VIBE, 74454901, 0.4143427, 0.4719855, 0.5479468, 0, 0, 0
CTRL, 74454907, 0.005216806, 0.001821272, 0.005809473, 0.0008309432, 0.000493799
PRX, 74454937, 2, 0.52, 0, 0.56, 0, 3.41, 0, 2.38, 0, 0, 0, 0.52
IMU, 74456946, 0.002575322, 0.0001512828, -0.03482141, 0.07855562, -0.05605333, -9.750001, 0, 0, 32.78738, 1, 1, 1000, 1000
IMU, 74496654, -0.01596496, 0.01101977, 0.02608651, 0.2165777, -0.07728761, -9.760296, 0, 0, 32.78469, 1, 1, 1000, 1000
RFND, 74504472, 0.2, 25, 0, 0
IMU, 74536660, 0.006007068, -0.005932791, 0.0118406, 0.1994666, -0.1612753, -9.78109, 0, 0, 32.78099, 1, 1, 1000, 1000
MAG, 74554221, 223, 661, 209, 0, 0, 0, 0, 0, 0, 1, 74554213
RFND, 74554254, 0.2, 25, 0, 0
BARO, 74554291, -0.3983338, 987.9503, 31.36, 0.2766207, 74554, 0, 28.51
CTUN, 74554304, 0, 0, 0, 0.3072872, 0.03328792, 0.03328792, -0.39, 0, 0.19, 0, 0, -2
ATT, 74554381, 0, 0.46, 0, -0.54, 3.98, 3.99, 0, 1
RATE, 74554386, -2.101442, -1.099087, 0.002630302, 2.445822, 0.4818311, 0.002178677, -0.009985821, 0.7515467, -0.0006761559, 1049.639, -3.353977, 0
NKF1, 74554395, 0.46, -0.54, 3.99, 0.01064588, -0.05113111, 0.02591701, 0, 0, 0, -0.03328792, -0.02, 0, -0.02
NKF2, 74554395, 1, 0, 0, 0, 0, 0, 0, 0, 0, 0, 0, 0, 0
NKF3, 74554395, 0, 0, 0, 0, -0.09, 0.02, 0, 0, 0, 0, 0
NKF4, 74554395, 0, 0, 0.01, 0, 0, 3.823704E-06, 0, 0, 0, 19, 229, 0, 0
NKF5, 74554395, 0, 0, 0, 0, 0.17, 0.13, 0, 0.19, 0.5, 2.304606E-05, 0.002577363, 0.004891732
NKQ1, 74554395, 0.9993749, 0.00288455, 0.005215744, 0.03484973
AHR2, 74554986, 0.65, -0.5, 1.09, -0.39, 0, 0, 0.9999278, 0.005765004, -0.004369334, 0.009597599
MOTB, 74554995, 1, 1, 0, 1
RCIN, 74555001, 0, 0, 0, 0, 0, 0, 0, 0, 0, 0, 0, 0, 0, 0
RCOU, 74555006, 1223, 1224, 1229, 1221, 0, 0, 0, 0, 0, 0, 0, 0, 0, 0
VIBE, 74555015, 0.4390028, 0.5184732, 0.5145748, 0, 0, 0
CTRL, 74555021, 0.005229203, 0.002236755, 0.005846658, 0.001496189, 0.0005949201
PRX, 74555052, 2, 0.52, 0, 0.56, 0, 3.54, 0, 2.4, 0, 0, 0, 0.52
IMU, 74576656, 0.01683513, 9.738878E-05, -0.03574824, 0.05678105, 0.02120825, -9.817802, 0, 0, 32.7766, 1, 1, 1000, 1000
RFND, 74604146, 0.2, 25, 0, 0
IMU, 74616691, -0.02090777, 0.01752592, 0.03862167, 0.06786531, -0.09518698, -9.785346, 0, 0, 32.772, 1, 1, 1000, 1000
MAG, 74654089, 226, 659, 208, 0, 0, 0, 0, 0, 0, 1, 74654079
RFND, 74654139, 0.2, 25, 0, 0
BARO, 74654174, -0.348542, 987.9448, 31.33, 0.1815323, 74654, 0, 28.51
CTUN, 74654187, 0, 0, 0, 0.3072872, 0.03291886, 0.03291886, -0.34, 0, 0.19, 0, 0, -2
ATT, 74654257, 0, 0.48, 0, -0.54, 3.99, 4, 0, 1
RATE, 74654262, -2.184763, 0.5824004, -0.005811573, 2.450635, -0.640322, 0.008008885, -0.01038315, -0.03005632, -0.0008003701, 1080.255, 0.00705719, 0
NKF1, 74654269, 0.48, -0.54, 4, 0.01305418, -0.05279617, 0.02667296, 0, 0, 0, -0.03291886, -0.02, 0, -0.02
NKF2, 74654269, 1, 0, 0, 0, 0, 0, 0, 0, 0, 0, 0, 0, 0
NKF3, 74654269, 0, 0, 0, 0, -0.09, 0.02, 0, 0, 0, 0, 0
NKF4, 74654269, 0, 0, 0.01, 0, 0, 4.164791E-06, 0, 0, 0, 19, 229, 0, 0
NKF5, 74654269, 0, 0, 0, 0, 0.17, 0.13, 0, 0.19, 0.5, 2.502128E-05, 0.002631098, 0.005194804
NKQ1, 74654269, 0.9993719, 0.003031122, 0.005200349, 0.03492346
AHR2, 74654312, 0.67, -0.5, 1.1, -0.34, 0, 0, 0.9999263, 0.005918402, -0.004386753, 0.009648004
MOTB, 74654319, 1, 1, 0, 1
RCIN, 74654323, 0, 0, 0, 0, 0, 0, 0, 0, 0, 0, 0, 0, 0, 0
RCOU, 74654329, 1244, 1221, 1236, 1232, 0, 0, 0, 0, 0, 0, 0, 0, 0, 0
VIBE, 74654337, 0.4111899, 0.6464573, 0.415906, 0, 0, 0
CTRL, 74654344, 0.005344524, 0.002967896, 0.005857606, 0.002116882, 0.0007319016
PRX, 74654373, 2, 0.52, 0, 0.56, 0, 3.59, 0, 2.39, 0, 0, 0, 0.52
IMU, 74657079, 0.006975056, -0.007054431, -0.0005483337, 0.2718459, -0.176443, -9.788277, 0, 0, 32.76718, 1, 1, 1000, 1000
IMU, 74696587, 0.01225741, 9.942835E-05, -0.0065043, 0.04496767, -0.08005786, -9.765093, 0, 0, 32.76255, 1, 1, 1000, 1000
RFND, 74704256, 0.2, 25, 0, 0
IMU, 74736574, -0.01529499, 0.00707878, -0.003742178, -0.09261562, -0.0766021, -9.748668, 0, 0, 32.75817, 1, 1, 1000, 1000
MAG, 74754162, 227, 657, 209, 0, 0, 0, 0, 0, 0, 1, 74754154
RFND, 74754193, 0.2, 25, 0, 0
BARO, 74754230, -0.3153476, 987.9409, 31.32, 0.20055, 74754, 0, 28.51
CTUN, 74754244, 0, 0, 0, 0.3072872, 0.03267272, 0.03267272, -0.31, 0, 0.19, 0, 0, -2
ATT, 74754405, 0, 0.48, 0, -0.53, 3.95, 3.96, 0, 1
RATE, 74754411, -2.172876, 0.3155952, -0.009572805, 2.395875, -0.09443945, 0.007078559, -0.01009839, 0.2018364, 0.0003910773, 1129.113, -2.291489, 0
NKF1, 74754419, 0.48, -0.53, 3.96, 0.009711721, -0.05256666, 0.02787933, 0, 0, 0, -0.03267272, -0.02, 0, -0.02
NKF2, 74754419, 1, 0, 0, 0, 0, 0, 0, 0, 0, 0, 0, 0, 0
NKF3, 74754419, 0, 0, 0, 0, -0.1, 0.02, 0, 0, 0, 0, 0
NKF4, 74754419, 0, 0, 0.01, 0, 0, 4.582909E-06, 0, 0, 0, 19, 229, 0, 0
NKF5, 74754419, 0, 0, 0, 0, 0.17, 0.13, 0, 0.19, 0.5, 2.113893E-05, 0.00233564, 0.004354727
NKQ1, 74754419, 0.9993828, 0.003010568, 0.005308191, 0.03459659
AHR2, 74754465, 0.67, -0.49, 1.06, -0.31, 0, 0, 0.9999303, 0.005888748, -0.004282161, 0.009299415
MOTB, 74754472, 1, 1, 0, 1
RCIN, 74754477, 0, 0, 0, 0, 0, 0, 0, 0, 0, 0, 0, 0, 0, 0
RCOU, 74754482, 1249, 1221, 1232, 1237, 0, 0, 0, 0, 0, 0, 0, 0, 0, 0
