FMT, 128, 89, FMT, BBnNZ, Type,Length,Name,Format,Columns
FMT, 129, 31, PARM, QNf, TimeUS,Name,Value
FMT, 130, 46, GPS, QBIHBcLLefffB, TimeUS,Status,GMS,GWk,NSats,HDop,Lat,Lng,Alt,Spd,GCrs,VZ,U
FMT, 131, 46, GPS2, QBIHBcLLefffB, TimeUS,Status,GMS,GWk,NSats,HDop,Lat,Lng,Alt,Spd,GCrs,VZ,U
FMT, 132, 46, GPSB, QBIHBcLLefffB, TimeUS,Status,GMS,GWk,NSats,HDop,Lat,Lng,Alt,Spd,GCrs,VZ,U
FMT, 193, 24, GPA, QCCCCBI, TimeUS,VDop,HAcc,VAcc,SAcc,VV,SMS
FMT, 194, 24, GPA2, QCCCCBI, TimeUS,VDop,HAcc,VAcc,SAcc,VV,SMS
FMT, 195, 24, GPAB, QCCCCBI, TimeUS,VDop,HAcc,VAcc,SAcc,VV,SMS
FMT, 133, 53, IMU, QffffffIIfBBHH, TimeUS,GyrX,GyrY,GyrZ,AccX,AccY,AccZ,EG,EA,T,GH,AH,GHz,AHz
FMT, 134, 75, MSG, QZ, TimeUS,Message
FMT, 135, 39, RCIN, QHHHHHHHHHHHHHH, TimeUS,C1,C2,C3,C4,C5,C6,C7,C8,C9,C10,C11,C12,C13,C14
FMT, 136, 39, RCOU, QHHHHHHHHHHHHHH, TimeUS,C1,C2,C3,C4,C5,C6,C7,C8,C9,C10,C11,C12,C13,C14
FMT, 137, 15, RSSI, Qf, TimeUS,RXRSSI
FMT, 139, 37, BARO, QffcfIff, TimeUS,Alt,Press,Temp,CRt,SMS,Offset,GndTemp
FMT, 140, 22, POWR, QffHB, TimeUS,Vcc,VServo,Flags,Safety
FMT, 143, 45, CMD, QHHHfffffff, TimeUS,CTot,CNum,CId,Prm1,Prm2,Prm3,Prm4,Lat,Lng,Alt
FMT, 144, 20, RAD, QBBBBBHH, TimeUS,RSSI,RemRSSI,TxBuf,Noise,RemNoise,RxErrors,Fixed
FMT, 146, 43, CAM, QIHLLeeeccC, TimeUS,GPSTime,GPSWeek,Lat,Lng,Alt,RelAlt,GPSAlt,Roll,Pitch,Yaw
FMT, 232, 43, TRIG, QIHLLeeeccC, TimeUS,GPSTime,GPSWeek,Lat,Lng,Alt,RelAlt,GPSAlt,Roll,Pitch,Yaw
FMT, 162, 30, ARSP, QffcffB, TimeUS,Airspeed,DiffPress,Temp,RawPress,Offset,U
FMT, 164, 45, CURR, QfffcHHHHHHHHHH, TimeUS,Volt,Curr,CurrTot,Temp,V1,V2,V3,V4,V5,V6,V7,V8,V9,V10
FMT, 165, 45, CUR2, QfffcHHHHHHHHHH, TimeUS,Volt,Curr,CurrTot,Temp,V1,V2,V3,V4,V5,V6,V7,V8,V9,V10
FMT, 163, 27, ATT, QccccCCCC, TimeUS,DesRoll,Roll,DesPitch,Pitch,DesYaw,Yaw,ErrRP,ErrYaw
FMT, 166, 34, MAG, QhhhhhhhhhBI, TimeUS,MagX,MagY,MagZ,OfsX,OfsY,OfsZ,MOfsX,MOfsY,MOfsZ,Health,S
FMT, 169, 14, MODE, QMBB, TimeUS,Mode,ModeNum,Rsn
FMT, 196, 17, RFND, QCBCB, TimeUS,Dist1,Orient1,Dist2,Orient2
FMT, 223, 33, DMS, IIIIIBBBBBBBBBB, TimeMS,N,Dp,RT,RS,Er,Fa,Fmn,Fmx,Pa,Pmn,Pmx,Sa,Smn,Smx
FMT, 240, 41, BCN, QBBfffffff, TimeUS,Health,Cnt,D0,D1,D2,D3,PosX,PosY,PosZ
FMT, 138, 53, IMU2, QffffffIIfBBHH, TimeUS,GyrX,GyrY,GyrZ,AccX,AccY,AccZ,EG,EA,T,GH,AH,GHz,AHz
FMT, 147, 53, IMU3, QffffffIIfBBHH, TimeUS,GyrX,GyrY,GyrZ,AccX,AccY,AccZ,EG,EA,T,GH,AH,GHz,AHz
FMT, 141, 45, AHR2, QccCfLLffff, TimeUS,Roll,Pitch,Yaw,Alt,Lat,Lng,Q1,Q2,Q3,Q4
FMT, 180, 31, POS, QLLfff, TimeUS,Lat,Lng,Alt,RelHomeAlt,RelOriginAlt
FMT, 142, 45, SIM, QccCfLLffff, TimeUS,Roll,Pitch,Yaw,Alt,Lat,Lng,Q1,Q2,Q3,Q4
FMT, 198, 51, NKF1, QccCfffffffccc, TimeUS,Roll,Pitch,Yaw,VN,VE,VD,dPD,PN,PE,PD,GX,GY,GZ
FMT, 199, 35, NKF2, QbccccchhhhhhB, TimeUS,AZbias,GSX,GSY,GSZ,VWN,VWE,MN,ME,MD,MX,MY,MZ,MI
FMT, 200, 33, NKF3, Qcccccchhhcc, TimeUS,IVN,IVE,IVD,IPN,IPE,IPD,IMX,IMY,IMZ,IYAW,IVT
FMT, 201, 35, NKF4, QcccccfbbHBHHb, TimeUS,SV,SP,SH,SM,SVT,errRP,OFN,OFE,FS,TS,SS,GPS,PI
FMT, 202, 40, NKF5, QBhhhcccCCfff, TimeUS,NI,FIX,FIY,AFI,HAGL,offset,RI,rng,Herr,eAng,eVel,ePos
FMT, 203, 51, NKF6, QccCfffffffccc, TimeUS,Roll,Pitch,Yaw,VN,VE,VD,dPD,PN,PE,PD,GX,GY,GZ
FMT, 204, 35, NKF7, QbccccchhhhhhB, TimeUS,AZbias,GSX,GSY,GSZ,VWN,VWE,MN,ME,MD,MX,MY,MZ,MI
FMT, 205, 33, NKF8, Qcccccchhhcc, TimeUS,IVN,IVE,IVD,IPN,IPE,IPD,IMX,IMY,IMZ,IYAW,IVT
FMT, 206, 35, NKF9, QcccccfbbHBHHb, TimeUS,SV,SP,SH,SM,SVT,errRP,OFN,OFE,FS,TS,SS,GPS,PI
FMT, 207, 36, NKF0, QBccCCcccccccc, TimeUS,ID,rng,innov,SIV,TR,BPN,BPE,BPD,OFH,OFL,OFN,OFE,OFD
FMT, 208, 27, NKQ1, Qffff, TimeUS,Q1,Q2,Q3,Q4
FMT, 209, 27, NKQ2, Qffff, TimeUS,Q1,Q2,Q3,Q4
FMT, 210, 51, XKF1, QccCfffffffccc, TimeUS,Roll,Pitch,Yaw,VN,VE,VD,dPD,PN,PE,PD,GX,GY,GZ
FMT, 211, 34, XKF2, QccccchhhhhhB, TimeUS,AX,AY,AZ,VWN,VWE,MN,ME,MD,MX,MY,MZ,MI
FMT, 212, 33, XKF3, Qcccccchhhcc, TimeUS,IVN,IVE,IVD,IPN,IPE,IPD,IMX,IMY,IMZ,IYAW,IVT
FMT, 213, 35, XKF4, QcccccfbbHBHHb, TimeUS,SV,SP,SH,SM,SVT,errRP,OFN,OFE,FS,TS,SS,GPS,PI
FMT, 214, 40, XKF5, QBhhhcccCCfff, TimeUS,NI,FIX,FIY,AFI,HAGL,offset,RI,rng,Herr,eAng,eVel,ePos
FMT, 215, 51, XKF6, QccCfffffffccc, TimeUS,Roll,Pitch,Yaw,VN,VE,VD,dPD,PN,PE,PD,GX,GY,GZ
FMT, 216, 34, XKF7, QccccchhhhhhB, TimeUS,AX,AY,AZ,VWN,VWE,MN,ME,MD,MX,MY,MZ,MI
FMT, 217, 33, XKF8, Qcccccchhhcc, TimeUS,IVN,IVE,IVD,IPN,IPE,IPD,IMX,IMY,IMZ,IYAW,IVT
FMT, 218, 35, XKF9, QcccccfbbHBHHb, TimeUS,SV,SP,SH,SM,SVT,errRP,OFN,OFE,FS,TS,SS,GPS,PI
FMT, 219, 36, XKF0, QBccCCcccccccc, TimeUS,ID,rng,innov,SIV,TR,BPN,BPE,BPD,OFH,OFL,OFN,OFE,OFD
FMT, 220, 27, XKQ1, Qffff, TimeUS,Q1,Q2,Q3,Q4
FMT, 221, 27, XKQ2, Qffff, TimeUS,Q1,Q2,Q3,Q4
FMT, 222, 35, XKFD, Qffffff, TimeUS,IX,IY,IZ,IVX,IVY,IVZ
FMT, 148, 34, TERR, QBLLHffHH, TimeUS,Status,Lat,Lng,Spacing,TerrH,CHeight,Pending,Loaded
FMT, 149, 18, UBX1, QBHBBH, TimeUS,Instance,noisePerMS,jamInd,aPower,agcCnt
FMT, 150, 16, UBX2, QBbBbB, TimeUS,Instance,ofsI,magI,ofsQ,magQ
FMT, 151, 18, UBY1, QBHBBH, TimeUS,Instance,noisePerMS,jamInd,aPower,agcCnt
FMT, 152, 16, UBY2, QBbBbB, TimeUS,Instance,ofsI,magI,ofsQ,magQ
FMT, 170, 42, GRAW, QIHBBddfBbB, TimeUS,WkMS,Week,numSV,sv,cpMes,prMes,doMes,mesQI,cno,lli
FMT, 171, 24, GRXH, QdHbBB, TimeUS,rcvTime,week,leapS,numMeas,recStat
FMT, 172, 41, GRXS, QddfBBBHBBBBB, TimeUS,prMes,cpMes,doMes,gnss,sv,freq,lock,cno,prD,cpD,doD,trk
FMT, 173, 63, SBFE, QIHBBdddfffff, TimeUS,TOW,WN,Mode,Err,Lat,Lng,Height,Undul,Vn,Ve,Vu,COG
FMT, 153, 19, ESC1, Qcccc, TimeUS,RPM,Volt,Curr,Temp
FMT, 154, 19, ESC2, Qcccc, TimeUS,RPM,Volt,Curr,Temp
FMT, 155, 19, ESC3, Qcccc, TimeUS,RPM,Volt,Curr,Temp
FMT, 156, 19, ESC4, Qcccc, TimeUS,RPM,Volt,Curr,Temp
FMT, 157, 19, ESC5, Qcccc, TimeUS,RPM,Volt,Curr,Temp
FMT, 158, 19, ESC6, Qcccc, TimeUS,RPM,Volt,Curr,Temp
FMT, 159, 19, ESC7, Qcccc, TimeUS,RPM,Volt,Curr,Temp
FMT, 160, 19, ESC8, Qcccc, TimeUS,RPM,Volt,Curr,Temp
FMT, 167, 34, MAG2, QhhhhhhhhhBI, TimeUS,MagX,MagY,MagZ,OfsX,OfsY,OfsZ,MOfsX,MOfsY,MOfsZ,Health,S
FMT, 168, 34, MAG3, QhhhhhhhhhBI, TimeUS,MagX,MagY,MagZ,OfsX,OfsY,OfsZ,MOfsX,MOfsY,MOfsZ,Health,S
FMT, 174, 31, ACC1, QQfff, TimeUS,SampleUS,AccX,AccY,AccZ
FMT, 175, 31, ACC2, QQfff, TimeUS,SampleUS,AccX,AccY,AccZ
FMT, 176, 31, ACC3, QQfff, TimeUS,SampleUS,AccX,AccY,AccZ
FMT, 177, 31, GYR1, QQfff, TimeUS,SampleUS,GyrX,GyrY,GyrZ
FMT, 178, 31, GYR2, QQfff, TimeUS,SampleUS,GyrX,GyrY,GyrZ
FMT, 179, 31, GYR3, QQfff, TimeUS,SampleUS,GyrX,GyrY,GyrZ
FMT, 181, 35, PIDR, Qffffff, TimeUS,Des,P,I,D,FF,AFF
FMT, 182, 35, PIDP, Qffffff, TimeUS,Des,P,I,D,FF,AFF
FMT, 183, 35, PIDY, Qffffff, TimeUS,Des,P,I,D,FF,AFF
FMT, 184, 35, PIDA, Qffffff, TimeUS,Des,P,I,D,FF,AFF
FMT, 185, 35, PIDS, Qffffff, TimeUS,Des,P,I,D,FF,AFF
FMT, 186, 35, PIDL, Qffffff, TimeUS,Des,P,I,D,FF,AFF
FMT, 161, 37, BAR2, QffcfIff, TimeUS,Alt,Press,Temp,CRt,SMS,Offset,GndTemp
FMT, 197, 37, BAR3, QffcfIff, TimeUS,Alt,Press,Temp,CRt,SMS,Offset,GndTemp
FMT, 187, 35, VIBE, QfffIII, TimeUS,VibeX,VibeY,VibeZ,Clip0,Clip1,Clip2
FMT, 188, 47, IMT, Qfffffffff, TimeUS,DelT,DelvT,DelaT,DelAX,DelAY,DelAZ,DelVX,DelVY,DelVZ
FMT, 189, 47, IMT2, Qfffffffff, TimeUS,DelT,DelvT,DelaT,DelAX,DelAY,DelAZ,DelVX,DelVY,DelVZ
FMT, 190, 47, IMT3, Qfffffffff, TimeUS,DelT,DelvT,DelaT,DelAX,DelAY,DelAZ,DelVX,DelVY,DelVZ
FMT, 191, 24, ORGN, QBLLe, TimeUS,Type,Lat,Lng,Alt
FMT, 192, 19, RPM, Qff, TimeUS,rpm1,rpm2
FMT, 233, 47, GMB1, Iffffffffff, TimeMS,dt,dax,day,daz,dvx,dvy,dvz,jx,jy,jz
FMT, 234, 44, GMB2, IBfffffffff, TimeMS,es,ex,ey,ez,rx,ry,rz,tx,ty,tz
FMT, 235, 13, GMB3, Ihhh, TimeMS,rl_torque_cmd,el_torque_cmd,az_torque_cmd
FMT, 236, 59, RATE, Qffffffffffff, TimeUS,RDes,R,ROut,PDes,P,POut,YDes,Y,YOut,ADes,A,AOut
FMT, 237, 23, RALY, QBBLLh, TimeUS,Tot,Seq,Lat,Lng,Alt
FMT, 238, 43, VISO, Qffffffff, TimeUS,dt,AngDX,AngDY,AngDZ,PosDX,PosDY,PosDZ,conf
FMT, 224, 23, SBPH, QIII, TimeUS,CrcError,LastInject,IARhyp
FMT, 229, 80, SBR1, QHHBZ, TimeUS,msg_type,sender_id,msg_len,d1
FMT, 230, 205, SBR2, QHZZZ, TimeUS,msg_type,d2,d3,d4
FMT, 25, 41, ATUN, QBBfffffff, TimeUS,Axis,TuneStep,Targ,Min,Max,RP,RD,SP,ddt
FMT, 26, 19, ATDE, Qff, TimeUS,Angle,Rate
FMT, 31, 22, PTUN, QBfHHH, TimeUS,Param,TunVal,CtrlIn,TunLo,TunHi
FMT, 12, 28, OF, QBffff, TimeUS,Qual,flowX,flowY,bodyX,bodyY
FMT, 5, 51, NTUN, Qffffffffff, TimeUS,DPosX,DPosY,PosX,PosY,DVelX,DVelY,VelX,VelY,DAccX,DAccY
FMT, 4, 51, CTUN, Qffffffeccfhh, TimeUS,ThI,ABst,ThO,ThH,DAlt,Alt,BAlt,DSAlt,SAlt,TAlt,DCRt,CRt
FMT, 6, 32, PM, QHHIhBHII, TimeUS,NLon,NLoop,MaxT,PMT,I2CErr,INSErr,LogDrop,Mem
FMT, 30, 27, MOTB, Qffff, TimeUS,LiftMax,BatVolt,BatRes,ThLimit
FMT, 13, 12, EV, QB, TimeUS,Id
FMT, 20, 14, D16, QBh, TimeUS,Id,Value
FMT, 21, 14, DU16, QBH, TimeUS,Id,Value
FMT, 22, 16, D32, QBi, TimeUS,Id,Value
FMT, 23, 16, DU32, QBI, TimeUS,Id,Value
FMT, 24, 16, DFLT, QBf, TimeUS,Id,Value
FMT, 19, 13, ERR, QBB, TimeUS,Subsys,ECode
FMT, 32, 19, HELI, Qff, TimeUS,DRRPM,ERRPM
FMT, 33, 29, PL, QBBffff, TimeUS,Heal,TAcq,pX,pY,vX,vY
FMT, 34, 36, GUID, QBffffff, TimeUS,Type,pX,pY,pZ,vX,vY,vZ
FMT, 35, 32, THRO, QBffffbbbb, TimeUS,Stage,Vel,VelZ,Acc,AccEfZ,Throw,AttOk,HgtOk,PosOk
FMT, 36, 56, PRX, QBfffffffffff, TimeUS,Health,D0,D45,D90,D135,D180,D225,D270,D315,DUp,CAn,CDis
MODE, 16902803, 100, 100, 2
FMT, 254, 47, NKT1, QIffffffff, TimeUS,Cnt,IMUMin,IMUMax,EKFMin,EKFMax,AngMin,AngMax,VelMin,VelM
FMT, 253, 31, CTRL, Qfffff, TimeUS,RMSRollP,RMSRollD,RMSPitchP,RMSPitchD,RMSYaw
MSG, 17008917, APM:Copter V3.5.7 (870dd8f0)
MSG, 17008923, New mission
MSG, 17008934, Frame: QUAD
MODE, 17008938, Autonomous, 100, 2
IMU, 17034013, 0.0003719081, -0.0008001749, 0.0003133011, 0.09348209, -0.07205442, -9.779002, 0, 0, 34.50498, 1, 1, 1000, 1000
RFND, 17043956, 0.2, 25, 0, 0
IMU, 17073898, -0.0005391733, 0.0008477739, -0.0007270187, 0.07845878, -0.05731554, -9.768015, 0, 0, 34.50541, 1, 1, 1000, 1000
MAG, 17093849, 264, 656, 198, 0, 0, 0, 0, 0, 0, 1, 17093841
RFND, 17093880, 0.2, 25, 0, 0
BARO, 17093919, -0.06736171, 987.9294, 33.19, -0.297519, 17093, 0, 32.93
CTUN, 17093932, 0, 0, 0, 0.3061381, 0.06199072, 0.06199072, -0.06, 0, 0.19, 0, 0, 0
ATT, 17094033, 0, 0.68, 0, -0.03, 355.07, 355.1, 0, 1
RATE, 17094039, -3.088956, 0.0596871, -0.00731011, 0.1531022, 0.1755538, 7.271614E-05, -0.00103917, 0.02024557, -2.609462E-06, 193.4126, -0.1226425, 0
NKF1, 17094048, 0.68, -0.03, 355.09, -0.1491253, 0.06045732, 0.00477562, 0, 0, 0, -0.06199072, -0.06, -0.18, 0
NKF2, 17094048, 3, 0, 0, 0, 0, 0, 0, 0, 0, 0, 0, 0, 0
NKF3, 17094048, 0, 0, 0, -0.04, 0.01, 0, 0, 0, 0, 0, 0
NKF4, 17094048, 0, 0, 0, 0, 0, 0.0008683358, 0, 0, 0, 19, 229, 0, 0
NKF5, 17094048, 0, 0, 0, 0, 0.19, 0.13, 0, 0.19, 0.5, 0.002436238, 0.02357142, 0.02348946
NKQ1, 17094048, 0.9990224, 0.005373086, 0.009324857, -0.04287853
AHR2, 17094093, 0.51, -0.62, 343.26, -0.06, 0, 0, 0.9893323, 0.003662518, -0.006093792, -0.1455027
MOTB, 17094100, 1, 1, 0, 1
RCIN, 17094105, 0, 0, 0, 0, 0, 0, 0, 0, 0, 0, 0, 0, 0, 0
RCOU, 17094110, 1101, 1101, 1101, 1101, 0, 0, 0, 0, 0, 0, 0, 0, 0, 0
VIBE, 17094119, 0.02111914, 0.01783574, 0.03279809, 0, 0, 0
CTRL, 17094125, 0.007554347, 0.0001416054, 0.0009465805, 0.0001894083, 4.48252E-05
PRX, 17094155, 2, 0.58, 0, 0.5, 0, 3.59, 0, 2.45, 0, 0, 90, 0.5
IMU, 17114258, 0.0008762543, -0.001244145, 0.0009852049, 0.09468647, -0.0591789, -9.80942, 0, 0, 34.50535, 1, 1, 1000, 1000
RFND, 17143896, 0.2, 25, 0, 0
IMU, 17153886, 0.0002517432, -0.0005793392, -0.001073973, 0.09668988, -0.0734312, -9.754108, 0, 0, 34.50542, 1, 1, 1000, 1000
MAG, 17193865, 263, 654, 191, 0, 0, 0, 0, 0, 0, 1, 17193857
RFND, 17193895, 0.2, 25, 0, 0
BARO, 17193936, -0.08420213, 987.9317, 33.2, -0.4091281, 17193, 0, 32.93
CTUN, 17193949, 0, 0, 0, 0.3061381, 0.06169147, 0.06169147, -0.08, 0, 0.19, 0, 0, 0
ATT, 17194050, 0, 0.68, 0, -0.04, 355.07, 355.09, 0, 1
RATE, 17194056, -3.084835, 0.03048858, -0.007549877, 0.1821097, 0.1460973, 0.000309269, -0.003571209, -0.009009482, 4.36479E-05, 180.0452, -0.1848221, 0
NKF1, 17194064, 0.68, -0.04, 355.08, -0.1497756, 0.06117443, 0.004445559, 0, 0, 0, -0.06169147, -0.06, -0.18, 0
NKF2, 17194064, 3, 0, 0, 0, 0, 0, 0, 0, 0, 0, 0, 0, 0
NKF3, 17194064, 0, 0, 0, -0.06, 0.02, 0, 0, 0, 0, 0, 0
NKF4, 17194064, 0, 0, 0, 0, 0, 0.0005758104, 0, 0, 0, 19, 229, 0, 0
NKF5, 17194064, 0, 0, 0, 0, 0.19, 0.13, 0, 0.19, 0.5, 0.001643055, 0.01660526, 0.01563313
NKQ1, 17194064, 0.9990227, 0.005361882, 0.009268365, -0.0428848
AHR2, 17194109, 0.51, -0.63, 343.26, -0.08, 0, 0, 0.9893314, 0.003651531, -0.006112266, -0.1455083
MOTB, 17194116, 1, 1, 0, 1
RCIN, 17194120, 0, 0, 0, 0, 0, 0, 0, 0, 0, 0, 0, 0, 0, 0
RCOU, 17194126, 1101, 1101, 1101, 1101, 0, 0, 0, 0, 0, 0, 0, 0, 0, 0
VIBE, 17194135, 0.02332577, 0.02290552, 0.03465361, 0, 0, 0
CTRL, 17194141, 0.007501571, 0.0001465136, 0.000775101, 0.0001769509, 4.194651E-05
PRX, 17194171, 2, 0.58, 0, 0.5, 0, 3.59, 0, 2.45, 0, 0, 90, 0.5
IMU, 17194178, -0.0005403209, -0.0006895704, -0.0001382447, 0.08003387, -0.05097295, -9.771616, 0, 0, 34.50528, 1, 1, 1000, 1000
IMU, 17233991, 0.0001414968, 0.000922061, -0.0009454304, 0.08354338, -0.06202748, -9.777752, 0, 0, 34.50542, 1, 1, 1000, 1000
RFND, 17243918, 0.2, 25, 0, 0
IMU, 17273955, -0.001129186, 0.000208822, 0.0006173379, 0.09486404, -0.06541512, -9.771605, 0, 0, 34.50545, 1, 1, 1000, 1000
MAG, 17293841, 264, 653, 193, 0, 0, 0, 0, 0, 0, 1, 17293833
RFND, 17293871, 0.2, 25, 0, 0
BARO, 17293911, -0.09542909, 987.9327, 33.2, -0.2107364, 17293, 0, 32.93
CTUN, 17293924, 0, 0, 0, 0.3061381, 0.06137499, 0.06137499, -0.09, 0, 0.19, 0, 0, 0
ATT, 17294078, 0, 0.68, 0, -0.03, 355.07, 355.09, 0, 1
RATE, 17294083, -3.086346, 0.05271811, -0.007597899, 0.1539698, 0.1727926, -0.0001154719, 0.0002997252, -0.04690824, 4.333822E-05, 190.9012, -0.4099846, 0
NKF1, 17294091, 0.68, -0.03, 355.08, -0.1531172, 0.0628122, 0.00471361, 0, 0, 0, -0.06137499, -0.06, -0.18, 0
NKF2, 17294091, 3, 0, 0, 0, 0, 0, 0, 0, 0, 0, 0, 0, 0
NKF3, 17294091, 0, 0, 0, -0.06, 0.02, 0, 0, 0, 0, 0, 0
NKF4, 17294091, 0, 0, 0, 0, 0, 0.0003870816, 0, 0, 0, 19, 229, 0, 0
NKF5, 17294091, 0, 0, 0, 0, 0.19, 0.13, 0, 0.19, 0.5, 0.001008971, 0.01115271, 0.009050373
NKQ1, 17294091, 0.9990214, 0.005367596, 0.009321751, -0.04290282
AHR2, 17294133, 0.51, -0.62, 343.26, -0.09, 0, 0, 0.9893291, 0.003640031, -0.006089398, -0.1455255
MOTB, 17294140, 1, 1, 0, 1
RCIN, 17294144, 0, 0, 0, 0, 0, 0, 0, 0, 0, 0, 0, 0, 0, 0
RCOU, 17294150, 1101, 1101, 1101, 1101, 0, 0, 0, 0, 0, 0, 0, 0, 0, 0
VIBE, 17294158, 0.02148487, 0.0222475, 0.03286862, 0, 0, 0
CTRL, 17294165, 0.007457199, 0.0001464624, 0.0006370623, 0.0001630937, 4.157444E-05
PRX, 17294194, 2, 0.58, 0, 0.5, 0, 3.59, 0, 2.46, 0, 0, 90, 0.5
IMU, 17313929, -0.0004342503, -0.0002041652, -0.0001411771, 0.1033725, -0.06685955, -9.776455, 0, 0, 34.5054, 1, 1, 1000, 1000
RFND, 17343853, 0.2, 25, 0, 0
IMU, 17353894, 0.0003090822, -0.001249018, 0.0006300919, 0.08265547, -0.06909736, -9.753901, 0, 0, 34.50532, 1, 1, 1000, 1000
MAG, 17393897, 261, 656, 193, 0, 0, 0, 0, 0, 0, 1, 17393889
RFND, 17393925, 0.2, 25, 0, 0
BARO, 17393963, -0.05613476, 987.9285, 33.21, -0.01883454, 17393, 0, 32.93
CTUN, 17393976, 0, 0, 0, 0.3061381, 0.06103712, 0.06103712, -0.05, 0, 0.19, 0, 0, 0
ATT, 17394079, 0, 0.69, 0, -0.02, 355.07, 355.09, 0, 1
RATE, 17394085, -3.10584, 0.09937137, -0.007580105, 0.1174991, 0.2030819, -0.0003029291, -0.00112338, 0.002170301, 4.069154E-06, 205.2021, -0.6896973, 0
NKF1, 17394092, 0.69, -0.02, 355.08, -0.1581024, 0.06479247, 0.005066718, 0, 0, 0, -0.06103712, -0.06, -0.18, 0
NKF2, 17394092, 3, 0, 0, 0, 0, 0, 0, 0, 0, 0, 0, 0, 0
NKF3, 17394092, 0, 0, 0, -0.08, 0.03, 0, 0, 0, 0, 0, 0
NKF4, 17394092, 0, 0, 0, 0, 0, 0.0002618475, 0, 0, 0, 19, 229, 0, 0
NKF5, 17394092, 0, 0, 0, 0, 0.19, 0.13, 0, 0.19, 0.5, 0.000539697, 0.007252449, 0.004117384
NKQ1, 17394092, 0.999021, 0.005407628, 0.009392044, -0.04289175
AHR2, 17394139, 0.51, -0.63, 343.26, -0.05, 0, 0, 0.9893307, 0.003642197, -0.006104904, -0.1455138
MOTB, 17394146, 1, 1, 0, 1
RCIN, 17394151, 0, 0, 0, 0, 0, 0, 0, 0, 0, 0, 0, 0, 0, 0
RCOU, 17394156, 1101, 1101, 1101, 1101, 0, 0, 0, 0, 0, 0, 0, 0, 0, 0
VIBE, 17394165, 0.02065819, 0.02086754, 0.037628, 0, 0, 0
CTRL, 17394171, 0.0074583, 0.0001408498, 0.0005237259, 0.0001510605, 3.771763E-05
PRX, 17394201, 2, 0.58, 0, 0.5, 0, 3.59, 0, 2.46, 0, 0, 90, 0.5
IMU, 17394208, 0.0006608031, 0.000302241, 5.690418E-05, 0.08707921, -0.06328079, -9.766166, 0, 0, 34.50541, 1, 1, 1000, 1000
IMU, 17433922, -0.0004844485, 0.0004983105, 0.0007190531, 0.09112529, -0.06499663, -9.766497, 0, 0, 34.50541, 1, 1, 1000, 1000
RFND, 17443840, 0.2, 25, 0, 0
IMU, 17473891, -1.307831E-05, -0.0008866823, -0.0001559737, 0.08019555, -0.06436229, -9.763086, 0, 0, 34.50548, 1, 1, 1000, 1000
MAG, 17493748, 264, 653, 192, 0, 0, 0, 0, 0, 0, 1, 17493739
RFND, 17493778, 0.2, 25, 0, 0
BARO, 17493838, 0.005613476, 987.9216, 33.21, 0.05427581, 17493, 0, 32.93
CTUN, 17493853, 0, 0, 0, 0.3061381, 0.06067778, 0.06067778, 0, 0, 0.19, 0, 0, 0
ATT, 17493949, 0, 0.69, 0, -0.01, 355.07, 355.1, 0, 1
RATE, 17493956, -3.125312, -0.01222053, -0.007217889, 0.05622391, 0.175324, -0.0005164723, -0.001176695, 0.0874929, -4.309982E-05, 215.2088, -1.11227, 0
NKF1, 17493964, 0.69, -0.01, 355.09, -0.1644121, 0.06772429, 0.005313796, 0, 0, 0, -0.06067778, -0.06, -0.18, 0
NKF2, 17493964, 3, 0, 0, 0, 0, 0, 0, 0, 0, 0, 0, 0, 0
NKF3, 17493964, 0, 0, 0, -0.08, 0.03, 0, 0, 0, 0, 0, 0
NKF4, 17493964, 0, 0, 0, 0, 0, 0.000179737, 0, 0, 0, 19, 229, 0, 0
NKF5, 17493964, 0, 0, 0, 0, 0.19, 0.13, 0, 0.19, 0.5, 0.0002100114, 0.004519599, 0.003128764
NKQ1, 17493964, 0.9990203, 0.005452334, 0.009511104, -0.04287474
AHR2, 17494007, 0.51, -0.63, 343.26, 0, 0, 0, 0.9893333, 0.003640998, -0.006106608, -0.1454963
MOTB, 17494015, 1, 1, 0, 1
RCIN, 17494019, 0, 0, 0, 0, 0, 0, 0, 0, 0, 0, 0, 0, 0, 0
RCOU, 17494024, 1101, 1101, 1101, 1101, 0, 0, 0, 0, 0, 0, 0, 0, 0, 0
VIBE, 17494033, 0.02086535, 0.02271007, 0.03623181, 0, 0, 0
CTRL, 17494039, 0.007468726, 0.0001469377, 0.0004449533, 0.0001417905, 3.221991E-05
PRX, 17494070, 2, 0.58, 0, 0.5, 0, 3.59, 0, 2.46, 0, 0, 90, 0.5
IMU, 17513900, -2.572323E-05, -0.0007805502, 0.001235274, 0.0764493, -0.06690951, -9.767513, 0, 0, 34.50529, 1, 1, 1000, 1000
RFND, 17543737, 0.2, 25, 0, 0
IMU, 17553804, -2.694698E-05, 0.000671962, -0.0005871407, 0.08494072, -0.05984788, -9.775973, 0, 0, 34.50599, 1, 1, 1000, 1000
MAG, 17593710, 265, 655, 192, 0, 0, 0, 0, 0, 0, 1, 17593702
RFND, 17593738, 0.2, 25, 0, 0
BARO, 17593775, 0.0224539, 987.9199, 33.21, 0.1789295, 17593, 0, 32.93
CTUN, 17593789, 0, 0, 0, 0.3061381, 0.06035786, 0.06035786, 0.02, 0, 0.19, 0, 0, 0
DU32, 17593849, 7, 50389208
ATT, 17593983, 0, 0.69, 0, 0, 355.07, 355.1, 0, 1
RATE, 17593990, -3.144727, 0.06372289, -0.007429809, -0.006099553, 0.1421732, -0.0005833603, -0.0007978032, 0.03764924, -2.047496E-05, 206.4425, -0.005531311, 0
NKF1, 17593998, 0.69, 0, 355.09, -0.1723673, 0.07072604, 0.005097346, 0, 0, 0, -0.06035786, -0.06, -0.18, 0
NKF2, 17593998, 3, 0, 0, 0, 0, 0, 0, 0, 0, 0, 0, 0, 0
NKF3, 17593998, 0, 0, 0, -0.11, 0.04, 0, 0, 0, 0, 0, 0
NKF4, 17593998, 0, 0, 0, 0, 0, 0.0001267907, 0, 0, 0, 19, 229, 0, 0
NKF5, 17593998, 0, 0, 0, 0, 0.19, 0.13, 0, 0.19, 0.5, 4.28115E-05, 0.003184346, 0.005049729
NKQ1, 17593998, 0.9990193, 0.005494241, 0.009629157, -0.04286899
AHR2, 17594041, 0.51, -0.63, 343.26, 0.02, 0, 0, 0.9893341, 0.003628801, -0.006130397, -0.1454898
MOTB, 17594048, 1, 1, 0, 1
RCIN, 17594052, 0, 0, 0, 0, 0, 0, 0, 0, 0, 0, 0, 0, 0, 0
RCOU, 17594058, 1101, 1101, 1101, 1101, 0, 0, 0, 0, 0, 0, 0, 0, 0, 0
VIBE, 17594066, 0.02107438, 0.0229218, 0.03297379, 0, 0, 0
CTRL, 17594073, 0.007480701, 0.0001551931, 0.0004057864, 0.0001730986, 4.495126E-05
PRX, 17594104, 2, 0.58, 0, 0.5, 0, 3.59, 0, 2.46, 0, 0, 90, 0.5
IMU, 17594111, 4.072624E-05, -0.0007536036, 0.0006761012, 0.08548091, -0.07063882, -9.772931, 0, 0, 34.50568, 1, 1, 1000, 1000
IMU, 17633812, 0.0001581826, -0.00028383, 0.0001039928, 0.07509294, -0.06220813, -9.779842, 0, 0, 34.50532, 1, 1, 1000, 1000
RFND, 17643863, 0.2, 25, 0, 0
IMU, 17673788, -0.0005762095, -7.875796E-06, -0.0002093536, 0.07670745, -0.06589337, -9.776203, 0, 0, 34.50541, 1, 1, 1000, 1000
MAG, 17693899, 260, 656, 195, 0, 0, 0, 0, 0, 0, 1, 17693890
RFND, 17693928, 0.2, 25, 0, 0
BARO, 17693966, 0.09262235, 987.912, 33.21, 0.3411941, 17693, 0, 32.93
CTUN, 17693980, 0, 0, 0, 0.3061381, 0.06004679, 0.06004679, 0.09, 0, 0.19, 0, 0, 0
ATT, 17694079, 0, 0.7, 0, 0.01, 355.07, 355.1, 0, 1
RATE, 17694085, -3.162601, 0.05205167, -0.007609252, -0.07658529, 0.2047437, -0.0007162844, 0.001058352, -0.004894187, 1.218271E-05, 162.583, 1.269341, 0
NKF1, 17694093, 0.7, 0.01, 355.09, -0.1818185, 0.0742204, 0.004014396, 0, 0, 0, -0.06004679, -0.06, -0.18, 0
NKF2, 17694093, 3, 0, 0, 0, 0, 0, 0, 0, 0, 0, 0, 0, 0
NKF3, 17694093, 0, 0, 0, -0.11, 0.04, 0, 0, 0, 0, 0, 0
NKF4, 17694093, 0, 0, 0, 0, 0, 9.230444E-05, 0, 0, 0, 19, 229, 0, 0
NKF5, 17694093, 0, 0, 0, 0, 0.19, 0.13, 0, 0.19, 0.5, 9.182275E-05, 0.003161236, 0.007693909
NKQ1, 17694093, 0.9990174, 0.005533872, 0.009763213, -0.04287602
AHR2, 17694138, 0.51, -0.63, 343.26, 0.09, 0, 0, 0.9893332, 0.003609911, -0.006155372, -0.1454958
MOTB, 17694146, 1, 1, 0, 1
RCIN, 17694150, 0, 0, 0, 0, 0, 0, 0, 0, 0, 0, 0, 0, 0, 0
RCOU, 17694155, 1101, 1101, 1101, 1101, 0, 0, 0, 0, 0, 0, 0, 0, 0, 0
VIBE, 17694163, 0.01877414, 0.02206525, 0.03458735, 0, 0, 0
CTRL, 17694170, 0.007493723, 0.0001433504, 0.0004283845, 0.0002039736, 4.129386E-05
PRX, 17694201, 2, 0.58, 0, 0.5, 0, 3.59, 0, 2.46, 0, 0, 90, 0.5
IMU, 17714016, 0.0004752428, 0.0006988018, 0.0007111679, 0.08574626, -0.06712481, -9.75897, 0, 0, 34.50542, 1, 1, 1000, 1000
RFND, 17743771, 0.2, 25, 0, 0
IMU, 17753889, -0.0005251372, -0.0009226447, 0.001019135, 0.07690204, -0.06525923, -9.776939, 0, 0, 34.50544, 1, 1, 1000, 1000
MAG, 17793857, 258, 655, 191, 0, 0, 0, 0, 0, 0, 1, 17793849
RFND, 17793888, 0.2, 25, 0, 0
BARO, 17793929, 0.0813954, 987.9131, 33.22, 0.4096083, 17793, 0, 32.93
CTUN, 17793943, 0, 0, 0, 0.3061381, 0.05993014, 0.05993014, 0.08, 0, 0.19, 0, 0, 0
ATT, 17794043, 0, 0.7, 0, 0.03, 355.07, 355.1, 0, 1
RATE, 17794050, -3.190962, 0.02621184, -0.007271486, -0.1532423, 0.1007871, -0.0004340722, 1.586502E-05, -0.001899095, -4.25841E-05, 159.155, -0.05741119, 0
NKF1, 17794059, 0.7, 0.03, 355.09, -0.1918474, 0.07794115, 0.003929753, 0, 0, 0, -0.05993014, -0.06, -0.18, 0
NKF2, 17794059, 3, 0, 0, 0, 0, 0, 0, 0, 0, 0, 0, 0, 0
NKF3, 17794059, 0, 0, 0, -0.13, 0.05, 0, 0, 0, 0, 0, 0
NKF4, 17794059, 0, 0, 0, 0, 0, 7.298665E-05, 0, 0, 0, 19, 229, 0, 0
NKF5, 17794059, 0, 0, 0, 0, 0.19, 0.13, 0, 0.19, 0.5, 9.774547E-05, 0.003254395, 0.00894233
NKQ1, 17794059, 0.9990166, 0.005594626, 0.009909553, -0.04285302
AHR2, 17794107, 0.51, -0.63, 343.26, 0.08, 0, 0, 0.9893365, 0.003613855, -0.006172547, -0.1454722
MOTB, 17794114, 1, 1, 0, 1
RCIN, 17794118, 0, 0, 0, 0, 0, 0, 0, 0, 0, 0, 0, 0, 0, 0
RCOU, 17794124, 1101, 1101, 1101, 1101, 0, 0, 0, 0, 0, 0, 0, 0, 0, 0
VIBE, 17794132, 0.01975712, 0.02171977, 0.03310403, 0, 0, 0
CTRL, 17794138, 0.007548862, 0.0001682952, 0.0005285283, 0.0001802787, 4.189384E-05
PRX, 17794168, 2, 0.58, 0, 0.5, 0, 3.59, 0, 2.46, 0, 0, 90, 0.5
IMU, 17794175, -0.00061282, -0.001471285, -1.414993E-05, 0.07912801, -0.06500516, -9.772524, 0, 0, 34.5055, 1, 1, 1000, 1000
IMU, 17833993, 0.0002471562, -0.001520137, 0.0008543496, 0.08768021, -0.06394669, -9.791476, 0, 0, 34.50636, 1, 1, 1000, 1000
RFND, 17843933, 0.2, 25, 0, 0
IMU, 17873926, -0.0007317527, 0.001423388, -0.0007756486, 0.08903003, -0.06134784, -9.776762, 0, 0, 34.50779, 1, 1, 1000, 1000
MAG, 17893799, 264, 659, 192, 0, 0, 0, 0, 0, 0, 1, 17893791
RFND, 17893828, 0.2, 25, 0, 0
BARO, 17893867, 0.1627908, 987.9043, 33.22, 0.3885578, 17893, 0, 32.93
CTUN, 17893879, 0, 0, 0, 0.3061381, 0.05975811, 0.05975811, 0.16, 0, 0.19, 0, 0, 0
ATT, 17893984, 0, 0.71, 0, 0.05, 355.08, 355.1, 0, 1
RATE, 17893990, -3.208283, -0.04218823, -0.007411766, -0.2343608, 0.1541914, -0.0007332642, 0.003093813, -0.03521972, -5.137171E-06, 136.4043, 0.1911163, 0
NKF1, 17893998, 0.71, 0.05, 355.09, -0.2021476, 0.08241439, 0.003368008, 0, 0, 0, -0.05975811, -0.06, -0.18, 0
NKF2, 17893998, 3, 0, 0, 0, 0, 0, 0, 0, 0, 0, 0, 0, 0
NKF3, 17893998, 0, 0, 0, -0.16, 0.06, 0, 0, 0, 0, 0, 0
NKF4, 17893998, 0, 0, 0, 0, 0, 6.102126E-05, 0, 0, 0, 19, 229, 0, 0
NKF5, 17893998, 0, 0, 0, 0, 0.19, 0.13, 0, 0.19, 0.5, 5.47815E-05, 0.002994571, 0.009150574
NKQ1, 17893998, 0.9990149, 0.005633996, 0.01006443, -0.04285128
AHR2, 17894043, 0.51, -0.64, 343.26, 0.16, 0, 0, 0.9893369, 0.003596551, -0.006180532, -0.1454696
MOTB, 17894051, 1, 1, 0, 1
RCIN, 17894055, 0, 0, 0, 0, 0, 0, 0, 0, 0, 0, 0, 0, 0, 0
RCOU, 17894061, 1101, 1101, 1101, 1101, 0, 0, 0, 0, 0, 0, 0, 0, 0, 0
VIBE, 17894069, 0.01893415, 0.0189414, 0.03187471, 0, 0, 0
CTRL, 17894076, 0.007578394, 0.0001854574, 0.0006622518, 0.0002170871, 4.74989E-05
PRX, 17894105, 2, 0.58, 0, 0.5, 0, 3.59, 0, 2.46, 0, 0, 90, 0.5
IMU, 17913922, 0.0004888433, 0.0005439108, 0.0007394236, 0.07632872, -0.067794, -9.777708, 0, 0, 34.50914, 1, 1, 1000, 1000
RFND, 17943929, 0.2, 25, 0, 0
IMU, 17953941, -0.001161472, -0.001042155, 0.0008239539, 0.07533197, -0.0699462, -9.768347, 0, 0, 34.51091, 1, 1, 1000, 1000
MAG, 17993809, 267, 657, 190, 0, 0, 0, 0, 0, 0, 1, 17993801
RFND, 17993863, 0.2, 25, 0, 0
BARO, 17993903, 0.1740177, 987.9031, 33.22, 0.3604904, 17993, 0, 32.93
CTUN, 17993917, 0, 0, 0, 0.3061381, 0.05976352, 0.05976352, 0.17, 0, 0.19, 0, 0, 0
ATT, 17994017, 0, 0.71, 0, 0.06, 355.08, 355.1, 0, 1
RATE, 17994024, -3.228575, -0.02866907, -0.007246639, -0.3135506, 0.1346686, -0.0007988744, 0.003044413, -0.03503811, -4.899682E-05, 149.8149, -2.615166, 0
NKF1, 17994031, 0.71, 0.06, 355.09, -0.2136576, 0.08657669, 0.003699133, 0, 0, 0, -0.05976352, -0.06, -0.18, 0
NKF2, 17994031, 3, 0, 0, 0, 0, 0, 0, 0, 0, 0, 0, 0, 0
NKF3, 17994031, 0, 0, 0, -0.16, 0.06, 0, 0, 0, 0, 0, 0
NKF4, 17994031, 0, 0, 0, 0, 0, 5.833864E-05, 0, 0, 0, 19, 229, 0, 0
NKF5, 17994031, 0, 0, 0, 0, 0.19, 0.13, 0, 0.19, 0.5, 4.312113E-05, 0.003613701, 0.01063244
NKQ1, 17994031, 0.999014, 0.0056796, 0.01021623, -0.04283046
AHR2, 17994077, 0.5, -0.64, 343.27, 0.17, 0, 0, 0.9893401, 0.003585231, -0.006191294, -0.1454481
MOTB, 17994084, 1, 1, 0, 1
RCIN, 17994089, 0, 0, 0, 0, 0, 0, 0, 0, 0, 0, 0, 0, 0, 0
RCOU, 17994094, 1101, 1101, 1101, 1101, 0, 0, 0, 0, 0, 0, 0, 0, 0, 0
VIBE, 17994103, 0.01969765, 0.02052241, 0.03439253, 0, 0, 0
CTRL, 17994109, 0.007626818, 0.0002090301, 0.0008208384, 0.0002010303, 4.732831E-05
PRX, 17994139, 2, 0.58, 0, 0.5, 0, 3.59, 0, 2.46, 0, 0, 90, 0.5
IMU, 17994146, -0.001568056, -0.000870442, -0.0005925509, 0.07261285, -0.06279359, -9.747053, 0, 0, 34.51329, 1, 1, 1000, 1000
IMU, 18033964, -0.0004203974, -1.129479E-05, 0.000684082, 0.08070148, -0.06749099, -9.786011, 0, 0, 34.51643, 1, 1, 1000, 1000
RFND, 18043662, 0.2, 25, 0, 0
IMU, 18074236, 0.000330895, -0.0005783733, 0.0006634883, 0.09572539, -0.0756487, -9.768148, 0, 0, 34.52052, 1, 1, 1000, 1000
MAG, 18094000, 265, 654, 190, 0, 0, 0, 0, 0, 0, 1, 18093992
RFND, 18094029, 0.2, 25, 0, 0
BARO, 18094068, 0.2133121, 987.8987, 33.22, 0.3638908, 18094, 0, 32.93
CTUN, 18094080, 0, 0, 0, 0.3061381, 0.05968142, 0.05968142, 0.21, 0, 0.19, 0, 0, 0
ATT, 18094177, 0, 0.72, 0, 0.08, 355.08, 355.1, 0, 1
RATE, 18094183, -3.253216, 0.03222518, -0.007598782, -0.3901851, 0.1369091, -0.001266912, 0.001902003, -0.01599571, -2.106702E-05, 141.4392, -0.2038002, 0
NKF1, 18094191, 0.72, 0.08, 355.09, -0.2249723, 0.09058375, 0.003492325, 0, 0, 0, -0.05968142, -0.06, -0.18, 0
NKF2, 18094191, 3, 0, 0, 0, 0, 0, 0, 0, 0, 0, 0, 0, 0
NKF3, 18094191, 0, 0, 0, -0.19, 0.07, 0, 0, 0, 0, 0, 0
NKF4, 18094191, 0, 0, 0, 0, 0, 5.900491E-05, 0, 0, 0, 19, 229, 0, 0
NKF5, 18094191, 0, 0, 0, 0, 0.19, 0.13, 0, 0.19, 0.5, 8.366204E-05, 0.002846188, 0.009578024
NKQ1, 18094191, 0.9990121, 0.005734149, 0.01036309, -0.04283244
AHR2, 18094237, 0.5, -0.64, 343.27, 0.21, 0, 0, 0.9893398, 0.003585719, -0.006202614, -0.1454493
MOTB, 18094244, 1, 1, 0, 1
RCIN, 18094248, 0, 0, 0, 0, 0, 0, 0, 0, 0, 0, 0, 0, 0, 0
RCOU, 18094253, 1101, 1101, 1101, 1101, 0, 0, 0, 0, 0, 0, 0, 0, 0, 0
VIBE, 18094262, 0.0210397, 0.02152989, 0.03221784, 0, 0, 0
CTRL, 18094268, 0.007670557, 0.0001881588, 0.000965403, 0.0001783687, 3.978476E-05
PRX, 18094298, 2, 0.58, 0, 0.5, 0, 3.59, 0, 2.46, 0, 0, 90, 0.5
IMU, 18114475, -0.0005432171, -0.0001779622, 0.0002905799, 0.09663595, -0.05749379, -9.774551, 0, 0, 34.52526, 1, 1, 1000, 1000
RFND, 18143771, 0.2, 25, 0, 0
IMU, 18153856, -0.001157772, -6.89546E-05, -3.645724E-05, 0.08685518, -0.05377779, -9.78893, 0, 0, 34.52899, 1, 1, 1000, 1000
MAG, 18193669, 268, 654, 189, 0, 0, 0, 0, 0, 0, 1, 18193661
RFND, 18193697, 0.2, 25, 0, 0
BARO, 18193734, 0.117883, 987.9092, 33.22, 0.3250299, 18193, 0, 32.93
CTUN, 18193747, 0, 0, 0, 0.3061381, 0.05968297, 0.05968297, 0.11, 0, 0.19, 0, 0, 0
ATT, 18193862, 0, 0.72, 0, 0.1, 355.08, 355.1, 0, 1
RATE, 18193869, -3.262644, 0.01544418, -0.007535353, -0.4575762, 0.1871681, -0.001535252, 0.003070354, 0.02918409, -4.777211E-05, 112.1436, 1.010895, 0
NKF1, 18193876, 0.72, 0.1, 355.09, -0.23569, 0.09568974, 0.002768978, 0, 0, 0, -0.05968297, -0.06, -0.18, 0
NKF2, 18193876, 3, 0, 0, 0, 0, 0, 0, 0, 0, 0, 0, 0, 0
NKF3, 18193876, 0, 0, 0, -0.19, 0.07, 0, 0, 0, 0, 0, 0
NKF4, 18193876, 0, 0, 0, 0, 0, 6.484504E-05, 0, 0, 0, 19, 229, 0, 0
NKF5, 18193876, 0, 0, 0, 0, 0.19, 0.13, 0, 0.19, 0.5, 0.0001002953, 0.003376433, 0.01068961
NKQ1, 18193876, 0.9990116, 0.005756991, 0.01049403, -0.04280864
AHR2, 18193921, 0.5, -0.64, 343.27, 0.11, 0, 0, 0.9893434, 0.003556711, -0.006220176, -0.1454247
MOTB, 18193928, 1, 1, 0, 1
RCIN, 18193932, 0, 0, 0, 0, 0, 0, 0, 0, 0, 0, 0, 0, 0, 0
RCOU, 18193938, 1101, 1101, 1101, 1101, 0, 0, 0, 0, 0, 0, 0, 0, 0, 0
VIBE, 18193947, 0.02028056, 0.02346031, 0.02959657, 0, 0, 0
CTRL, 18193953, 0.00769609, 0.0001766006, 0.001125423, 0.0001900336, 4.055692E-05
PRX, 18193983, 2, 0.58, 0, 0.5, 0, 3.59, 0, 2.45, 0, 0, 90, 0.5
IMU, 18193989, -0.0007940995, 6.015586E-05, 0.0005283128, 0.08368534, -0.04736359, -9.783214, 0, 0, 34.53281, 1, 1, 1000, 1000
IMU, 18233747, -0.0003762063, -0.0008827128, -0.0002626761, 0.07601633, -0.06650309, -9.765392, 0, 0, 34.53648, 1, 1, 1000, 1000
RFND, 18243759, 0.2, 25, 0, 0
IMU, 18273809, -0.0002023198, -0.0009522942, -0.0001755332, 0.08912997, -0.05940315, -9.774536, 0, 0, 34.53859, 1, 1, 1000, 1000
MAG, 18293690, 262, 659, 194, 0, 0, 0, 0, 0, 0, 1, 18293682
RFND, 18293718, 0.2, 25, 0, 0
BARO, 18293754, 0.01964716, 987.92, 33.23, 0.1013515, 18293, 0, 32.93
CTUN, 18293767, 0, 0, 0, 0.3061381, 0.05971326, 0.05971326, 0.01, 0, 0.19, 0, 0, 0
ATT, 18293885, 0, 0.72, 0, 0.11, 355.08, 355.1, 0, 1
RATE, 18293891, -3.279847, 0.06474122, -0.007863775, -0.5204753, 0.1811478, -0.001818276, 0.002075726, -0.1066231, 0.0001034056, 131.5463, -1.104355, 0
NKF1, 18293899, 0.72, 0.11, 355.09, -0.2468965, 0.1005731, 0.003248057, 0, 0, 0, -0.05971325, -0.06, -0.18, 0
NKF2, 18293899, 3, 0, 0, 0, 0, 0, 0, 0, 0, 0, 0, 0, 0
NKF3, 18293899, 0, 0, 0, -0.23, 0.08, 0, 0, 0, 0, 0, 0
NKF4, 18293899, 0, 0, 0, 0, 0, 7.417425E-05, 0, 0, 0, 19, 229, 0, 0
NKF5, 18293899, 0, 0, 0, 0, 0.19, 0.13, 0, 0.19, 0.5, 0.0002160087, 0.002349422, 0.008521431
NKQ1, 18293899, 0.9990085, 0.005797443, 0.01061095, -0.04284837
AHR2, 18293944, 0.5, -0.64, 343.26, 0.01, 0, 0, 0.9893376, 0.003544773, -0.006241706, -0.1454632
MOTB, 18293951, 1, 1, 0, 1
RCIN, 18293955, 0, 0, 0, 0, 0, 0, 0, 0, 0, 0, 0, 0, 0, 0
RCOU, 18293960, 1101, 1101, 1101, 1101, 0, 0, 0, 0, 0, 0, 0, 0, 0, 0
VIBE, 18293969, 0.02014205, 0.02145772, 0.03239877, 0, 0, 0
CTRL, 18293975, 0.007738216, 0.0001587402, 0.001265472, 0.0001809766, 4.457942E-05
PRX, 18294006, 2, 0.58, 0, 0.5, 0, 3.59, 0, 2.46, 0, 0, 90, 0.5
IMU, 18313782, 0.0007588336, -0.0009971219, -9.382796E-05, 0.0894332, -0.06659684, -9.771783, 0, 0, 34.54099, 1, 1, 1000, 1000
RFND, 18343860, 0.2, 25, 0, 0
IMU, 18353940, -0.0004724574, -0.0004244674, 0.001547718, 0.08095326, -0.06032257, -9.750778, 0, 0, 34.54293, 1, 1, 1000, 1000
MAG, 18393973, 263, 659, 197, 0, 0, 0, 0, 0, 0, 1, 18393965
RFND, 18394007, 0.2, 25, 0, 0
BARO, 18394045, 0.01964716, 987.92, 33.23, -0.2859043, 18394, 0, 32.93
CTUN, 18394059, 0, 0, 0, 0.3061381, 0.05966018, 0.05966018, 0.01, 0, 0.19, 0, 0, 0
ATT, 18394161, 0, 0.73, 0, 0.12, 355.08, 355.1, 0, 1
RATE, 18394168, -3.304884, 0.04379356, -0.007913896, -0.5585314, 0.03244957, -0.001080062, 0.005111303, 0.008433577, 5.913872E-05, 162.7912, -1.74942, 0
NKF1, 18394176, 0.73, 0.12, 355.09, -0.2587923, 0.1057726, 0.004019537, 0, 0, 0, -0.05966018, -0.06, -0.18, 0
NKF2, 18394176, 3, 0, 0, 0, 0, 0, 0, 0, 0, 0, 0, 0, 0
NKF3, 18394176, 0, 0, 0, -0.23, 0.08, 0, 0, 0, 0, 0, 0
NKF4, 18394176, 0, 0, 0, 0, 0, 8.531875E-05, 0, 0, 0, 19, 229, 0, 0
NKF5, 18394176, 0, 0, 0, 0, 0.19, 0.13, 0, 0.19, 0.5, 0.0002108194, 0.002813518, 0.009633547
NKQ1, 18394176, 0.9990075, 0.005848307, 0.01068539, -0.04284593
AHR2, 18394221, 0.5, -0.65, 343.26, 0.01, 0, 0, 0.9893378, 0.003540373, -0.006295769, -0.1454598
MOTB, 18394228, 1, 1, 0, 1
RCIN, 18394233, 0, 0, 0, 0, 0, 0, 0, 0, 0, 0, 0, 0, 0, 0
RCOU, 18394238, 1101, 1101, 1101, 1101, 0, 0, 0, 0, 0, 0, 0, 0, 0, 0
VIBE, 18394247, 0.02175642, 0.0218565, 0.0366717, 0, 0, 0
CTRL, 18394253, 0.007798166, 0.0001823291, 0.001376657, 0.0001762572, 5.282195E-05
PRX, 18395008, 2, 0.58, 0, 0.5, 0, 3.59, 0, 2.46, 0, 0, 90, 0.5
IMU, 18395021, -0.0002934058, -0.002619611, 0.0001661106, 0.0710643, -0.05379539, -9.755772, 0, 0, 34.54458, 1, 1, 1000, 1000
IMU, 18433984, -0.001671162, -0.00100073, -0.0001732644, 0.08978586, -0.05844322, -9.782097, 0, 0, 34.5469, 1, 1, 1000, 1000
RFND, 18443801, 0.2, 25, 0, 0
IMU, 18473931, -0.0004335061, -7.195777E-06, -0.0006377281, 0.07277542, -0.06984667, -9.787109, 0, 0, 34.54907, 1, 1, 1000, 1000
MAG, 18493843, 261, 656, 191, 0, 0, 0, 0, 0, 0, 1, 18493835
RFND, 18493877, 0.2, 25, 0, 0
BARO, 18493914, -0.01684043, 987.9244, 33.23, -0.5527388, 18493, 0, 32.93
CTUN, 18493927, 0, 0, 0, 0.3061381, 0.0596686, 0.0596686, -0.01, 0, 0.19, 0, 0, 0
ATT, 18494079, 0, 0.73, 0, 0.13, 355.08, 355.1, 0, 1
RATE, 18494086, -3.320683, 0.06805436, -0.008159525, -0.6111274, 0.137446, -0.001671387, 0.002706609, 0.0146572, 3.845625E-05, 118.9313, 0.9218216, 0
NKF1, 18494094, 0.73, 0.13, 355.09, -0.2699502, 0.1103463, 0.002936576, 0, 0, 0, -0.0596686, -0.06, -0.18, 0
NKF2, 18494094, 3, 0, 0, 0, 0, 0, 0, 0, 0, 0, 0, 0, 0
NKF3, 18494094, 0, 0, 0, -0.27, 0.1, 0, 0, 0, 0, 0, 0
NKF4, 18494094, 0, 0, 0, 0, 0, 0.000102213, 0, 0, 0, 19, 229, 0, 0
NKF5, 18494094, 0, 0, 0, 0, 0.19, 0.13, 0, 0.19, 0.5, 0.0003466704, 0.002126008, 0.006421531
NKQ1, 18494094, 0.9990062, 0.005883591, 0.01078616, -0.0428451
AHR2, 18494135, 0.5, -0.65, 343.26, -0.01, 0, 0, 0.989338, 0.003527934, -0.006311745, -0.145458
MOTB, 18494143, 1, 1, 0, 1
RCIN, 18494147, 0, 0, 0, 0, 0, 0, 0, 0, 0, 0, 0, 0, 0, 0
RCOU, 18494152, 1101, 1101, 1101, 1101, 0, 0, 0, 0, 0, 0, 0, 0, 0, 0
VIBE, 18494161, 0.02151896, 0.02190168, 0.03682254, 0, 0, 0
CTRL, 18494168, 0.007834039, 0.0001832677, 0.001499631, 0.0001725342, 4.865469E-05
PRX, 18494197, 2, 0.58, 0, 0.5, 0, 3.59, 0, 2.45, 0, 0, 90, 0.5
IMU, 18514190, 9.481931E-05, -0.0006326952, 0.0002197156, 0.09234019, -0.05790266, -9.771202, 0, 0, 34.55263, 1, 1, 1000, 1000
RFND, 18543805, 0.2, 25, 0, 0
IMU, 18553967, -0.0003647764, -0.001330793, 0.0001702135, 0.08108889, -0.06609814, -9.771267, 0, 0, 34.55622, 1, 1, 1000, 1000
MAG, 18593863, 264, 655, 191, 0, 0, 0, 0, 0, 0, 1, 18593855
RFND, 18593896, 0.2, 25, 0, 0
BARO, 18593933, 0.08700887, 987.9127, 33.23, -0.4683318, 18593, 0, 32.93
CTUN, 18593947, 0, 0, 0, 0.3061381, 0.0596269, 0.0596269, 0.08, 0, 0.19, 0, 0, 0
DU32, 18593985, 7, 50389208
ATT, 18594122, 0, 0.74, 0, 0.14, 355.08, 355.1, 0, 1
RATE, 18594128, -3.334804, 0.08491832, -0.008211499, -0.6616438, 0.1727383, -0.002091653, 0.004049742, 0.01820945, 2.02301E-05, 127.5776, -0.5632401, 0
NKF1, 18594137, 0.74, 0.14, 355.09, -0.2815006, 0.1148137, 0.003150064, 0, 0, 0, -0.0596269, -0.06, -0.18, 0
NKF2, 18594137, 3, 0, 0, 0, 0, 0, 0, 0, 0, 0, 0, 0, 0
NKF3, 18594137, 0, 0, 0, -0.27, 0.1, 0, 0, 0, 0, 0, 0
NKF4, 18594137, 0, 0, 0, 0, 0, 0.0001171936, 0, 0, 0, 19, 229, 0, 0
NKF5, 18594137, 0, 0, 0, 0, 0.19, 0.13, 0, 0.19, 0.5, 0.0003122683, 0.002246052, 0.007862539
NKQ1, 18594137, 0.9990049, 0.005915289, 0.01088294, -0.04284741
AHR2, 18594183, 0.5, -0.65, 343.26, 0.08, 0, 0, 0.9893377, 0.003509686, -0.006334663, -0.1454593
MOTB, 18594190, 1, 1, 0, 1
RCIN, 18594194, 0, 0, 0, 0, 0, 0, 0, 0, 0, 0, 0, 0, 0, 0
RCOU, 18594200, 1101, 1101, 1101, 1101, 0, 0, 0, 0, 0, 0, 0, 0, 0, 0
VIBE, 18594208, 0.0186105, 0.0203861, 0.03286341, 0, 0, 0
CTRL, 18594214, 0.007872559, 0.0001647053, 0.001618909, 0.0001626734, 4.239478E-05
PRX, 18594243, 2, 0.58, 0, 0.5, 0, 3.59, 0, 2.45, 0, 0, 90, 0.5
IMU, 18594250, 0.0004322293, -0.0001438136, 0.000336685, 0.08594031, -0.06677799, -9.767139, 0, 0, 34.55803, 1, 1, 1000, 1000
IMU, 18634024, 0.0004688438, -0.00051454, -0.0004273265, 0.09041846, -0.06447797, -9.765294, 0, 0, 34.55999, 1, 1, 1000, 1000
RFND, 18643794, 0.2, 25, 0, 0
IMU, 18673990, -0.0005346075, -0.001121837, -0.000117651, 0.09108187, -0.07925719, -9.756951, 0, 0, 34.56312, 1, 1, 1000, 1000
MAG, 18693893, 265, 651, 194, 0, 0, 0, 0, 0, 0, 1, 18693885
RFND, 18693928, 0.2, 25, 0, 0
BARO, 18693965, 0.0813954, 987.9133, 33.24, -0.1368973, 18693, 0, 32.93
CTUN, 18693979, 0, 0, 0, 0.3061381, 0.05965525, 0.05965525, 0.08, 0, 0.19, 0, 0, 0
ATT, 18694081, 0, 0.74, 0, 0.15, 355.08, 355.1, 0, 1
RATE, 18694087, -3.359738, 0.09261969, -0.00837948, -0.7074625, 0.1786107, -0.002322261, 0.005656136, -0.02518987, 2.465917E-05, 127.4678, 2.47345, 0
NKF1, 18694095, 0.74, 0.15, 355.09, -0.291838, 0.1184556, 0.003147353, 0, 0, 0, -0.05965525, -0.05, -0.17, 0
NKF2, 18694095, 3, 0, 0, 0, 0, 0, 0, 0, 0, 0, 0, 0, 0
NKF3, 18694095, 0, 0, 0, -0.3, 0.11, 0, 0, 0, 0, 0, 0
NKF4, 18694095, 0, 0, 0, 0, 0, 0.0001417042, 0, 0, 0, 19, 229, 0, 0
NKF5, 18694095, 0, 0, 0, 0, 0.19, 0.13, 0, 0.19, 0.5, 0.0004728633, 0.002720296, 0.003647428
NKQ1, 18694095, 0.9990033, 0.005968532, 0.01096862, -0.04285396
AHR2, 18694140, 0.5, -0.66, 343.26, 0.08, 0, 0, 0.9893367, 0.003522137, -0.006355765, -0.145465
MOTB, 18694149, 1, 1, 0, 1
RCIN, 18694153, 0, 0, 0, 0, 0, 0, 0, 0, 0, 0, 0, 0, 0, 0
RCOU, 18694158, 1101, 1101, 1101, 1101, 0, 0, 0, 0, 0, 0, 0, 0, 0, 0
VIBE, 18694167, 0.02027942, 0.02205978, 0.03553827, 0, 0, 0
CTRL, 18694173, 0.00793252, 0.0001693833, 0.001739351, 0.0001479233, 3.658906E-05
PRX, 18694203, 2, 0.58, 0, 0.5, 0, 3.59, 0, 2.45, 0, 0, 90, 0.5
IMU, 18713946, 0.0002085743, 0.0006592962, 0.0001591721, 0.08794092, -0.05530385, -9.79027, 0, 0, 34.5666, 1, 1, 1000, 1000
RFND, 18744199, 0.2, 25, 0, 0
IMU, 18753890, -0.0003022605, 0.0002505028, 0.0007266668, 0.09583542, -0.0691202, -9.777439, 0, 0, 34.56964, 1, 1, 1000, 1000
MAG, 18793835, 267, 653, 196, 0, 0, 0, 0, 0, 0, 1, 18793827
RFND, 18793868, 0.2, 25, 0, 0
BARO, 18793904, 0.01684043, 987.9205, 33.24, 0.1513911, 18793, 0, 32.93
CTUN, 18793918, 0, 0, 0, 0.3061381, 0.05965753, 0.05965753, 0.01, 0, 0.19, 0, 0, 0
ATT, 18794020, 0, 0.74, 0, 0.17, 355.08, 355.1, 0, 1
RATE, 18794027, -3.365657, 0.01792484, -0.00796532, -0.7714349, 0.206738, -0.002381716, 0.004557665, -0.02039885, -1.577387E-05, 111.9821, -1.389408, 0
NKF1, 18794034, 0.74, 0.17, 355.09, -0.3025555, 0.1229566, 0.00276499, 0, 0, 0, -0.05965753, -0.05, -0.17, 0
NKF2, 18794034, 3, 0, 0, 0, 0, 0, 0, 0, 0, 0, 0, 0, 0
NKF3, 18794034, 0, 0, 0, -0.34, 0.13, 0, 0, 0, 0, 0, 0
NKF4, 18794034, 0, 0, 0, 0, 0, 0.000161512, 0, 0, 0, 19, 229, 0, 0
NKF5, 18794034, 0, 0, 0, 0, 0.19, 0.13, 0, 0.19, 0.5, 0.0006671263, 0.00681532, 0.004195515
NKQ1, 18794034, 0.9990024, 0.005983914, 0.01109203, -0.04284051
AHR2, 18794079, 0.5, -0.65, 343.26, 0.01, 0, 0, 0.9893391, 0.003507022, -0.006330101, -0.145451
MOTB, 18794086, 1, 1, 0, 1
RCIN, 18794091, 0, 0, 0, 0, 0, 0, 0, 0, 0, 0, 0, 0, 0, 0
RCOU, 18794096, 1101, 1101, 1101, 1101, 0, 0, 0, 0, 0, 0, 0, 0, 0, 0
VIBE, 18794105, 0.01990093, 0.01995316, 0.03422759, 0, 0, 0
CTRL, 18794111, 0.00796316, 0.0001526999, 0.001906471, 0.0001677857, 3.292698E-05
PRX, 18794142, 2, 0.58, 0, 0.5, 0, 3.59, 0, 2.45, 0, 0, 90, 0.5
IMU, 18794149, -0.0007132078, 0.0005310727, -0.0003372681, 0.08859681, -0.06420954, -9.758768, 0, 0, 34.57291, 1, 1, 1000, 1000
IMU, 18834167, 0.0006770322, -0.001355433, 0.001117652, 0.07465433, -0.06316578, -9.781471, 0, 0, 34.57611, 1, 1, 1000, 1000
RFND, 18843791, 0.2, 25, 0, 0
IMU, 18874303, -0.0006398814, -0.001182307, -0.0006746431, 0.08369849, -0.06422892, -9.772901, 0, 0, 34.57925, 1, 1, 1000, 1000
MAG, 18893835, 267, 652, 196, 0, 0, 0, 0, 0, 0, 1, 18893827
RFND, 18893871, 0.2, 25, 0, 0
BARO, 18893909, 0.01122695, 987.921, 33.24, 0.1473449, 18893, 0, 32.93
CTUN, 18893923, 0, 0, 0, 0.3061381, 0.05976884, 0.05976884, 0.01, 0, 0.19, 0, 0, 0
ATT, 18894024, 0, 0.75, 0, 0.17, 355.08, 355.1, 0, 1
RATE, 18894031, -3.378107, 0.06056898, -0.00804322, -0.8035864, 0.100595, -0.001956647, 0.004169897, 0.05745289, 1.707081E-05, 89.1358, 0.4508972, 0
NKF1, 18894038, 0.75, 0.17, 355.09, -0.3127064, 0.1271354, 0.002200884, 0, 0, 0, -0.05976884, -0.05, -0.17, 0
NKF2, 18894038, 3, 0, 0, 0, 0, 0, 0, 0, 0, 0, 0, 0, 0
NKF3, 18894038, 0, 0, 0, -0.34, 0.13, 0, 0, 0, 0, 0, 0
NKF4, 18894038, 0, 0, 0, 0, 0, 0.0001925391, 0, 0, 0, 19, 229, 0, 0
NKF5, 18894038, 0, 0, 0, 0, 0.19, 0.13, 0, 0.19, 0.5, 0.0006028114, 0.003915663, 0.001277754
NKQ1, 18894038, 0.9990021, 0.006011627, 0.01115561, -0.04282852
AHR2, 18894084, 0.5, -0.66, 343.27, 0.01, 0, 0, 0.9893408, 0.003505258, -0.006350728, -0.1454382
MOTB, 18894092, 1, 1, 0, 1
RCIN, 18894096, 0, 0, 0, 0, 0, 0, 0, 0, 0, 0, 0, 0, 0, 0
RCOU, 18894101, 1101, 1101, 1101, 1101, 0, 0, 0, 0, 0, 0, 0, 0, 0, 0
VIBE, 18894110, 0.02361564, 0.02053929, 0.03815708, 0, 0, 0
CTRL, 18894117, 0.007999441, 0.000185982, 0.002019123, 0.000165298, 3.312211E-05
PRX, 18894147, 2, 0.58, 0, 0.5, 0, 3.59, 0, 2.46, 0, 0, 90, 0.5
EV, 18903750, 57
IMU, 18913947, -0.0002263594, -0.0009397164, -0.0001019274, 0.07270829, -0.06213311, -9.760295, 0, 0, 34.58139, 1, 1, 1000, 1000
RFND, 18943990, 0.2, 25, 0, 0
IMU, 18953930, -0.0007097623, -0.0007688359, 0.0003322907, 0.07835129, -0.06320058, -9.773508, 0, 0, 34.58263, 1, 1, 1000, 1000
MAG, 18993995, 266, 652, 188, 0, 0, 0, 0, 0, 0, 1, 18993986
RFND, 18994028, 0.2, 25, 0, 0
BARO, 18994064, 0.005613476, 987.9216, 33.24, -0.0789395, 18994, 0, 32.93
CTUN, 18994078, 0, 0, 0, 0.3061381, 0.05980235, 0.05980235, 0, 0, 0.19, 0, 0, 0
ATT, 18994179, 0, 0.75, 0, 0.18, 355.08, 355.11, 0, 1
RATE, 18994185, -3.385665, 0.09900819, -0.008327773, -0.8304317, 0.1068939, -0.002235008, 0.005514775, 0.07297801, -8.094504E-05, 103.6102, 0.5170822, 0
NKF1, 18994193, 0.75, 0.18, 355.1, -0.3235906, 0.1312222, 0.002558276, 0, 0, 0, -0.05980235, -0.05, -0.17, 0
NKF2, 18994193, 3, 0, 0, 0, 0, 0, 0, 0, 0, 0, 0, 0, 0
NKF3, 18994193, 0, 0, 0, -0.39, 0.15, 0, 0, 0, 0, 0, 0
NKF4, 18994193, 0, 0, 0, 0, 0, 0.0002203948, 0, 0, 0, 19, 229, 0, 0
NKF5, 18994193, 0, 0, 0, 0, 0.19, 0.13, 0, 0.19, 0.5, 0.0008419015, 0.009110015, 0.009320523
NKQ1, 18994193, 0.9990026, 0.006026806, 0.01120731, -0.04279961
AHR2, 18994238, 0.5, -0.66, 343.27, 0, 0, 0, 0.989345, 0.003489579, -0.006383909, -0.1454086
MOTB, 18994245, 1, 1, 0, 1
RCIN, 18994249, 0, 0, 0, 0, 0, 0, 0, 0, 0, 0, 0, 0, 0, 0
RCOU, 18994255, 1122, 1122, 1122, 1122, 0, 0, 0, 0, 0, 0, 0, 0, 0, 0
VIBE, 18994263, 0.02002969, 0.02262476, 0.03860152, 0, 0, 0
CTRL, 18994269, 0.008015214, 0.0001769447, 0.002090569, 0.0001517643, 3.420264E-05
PRX, 18994300, 2, 0.58, 0, 0.5, 0, 3.59, 0, 2.46, 0, 0, 90, 0.5
IMU, 18994307, 0.0007182268, -0.001156284, 0.001292416, 0.08725467, -0.07253964, -9.77775, 0, 0, 34.58413, 1, 1, 1000, 1000
IMU, 19033941, 0.0003625221, -0.0004067435, 0.0003275783, 0.09073587, -0.06889605, -9.764304, 0, 0, 34.58462, 1, 1, 1000, 1000
RFND, 19043929, 0.2, 25, 0, 0
IMU, 19073947, -0.000427184, -0.001119185, 0.0005833358, 0.0857759, -0.0533717, -9.777774, 0, 0, 34.58532, 1, 1, 1000, 1000
MAG, 19093789, 262, 657, 191, 0, 0, 0, 0, 0, 0, 1, 19093780
RFND, 19093851, 0.2, 25, 0, 0
BARO, 19093889, -0.06736171, 987.9299, 33.24, -0.2269166, 19093, 0, 32.93
CTUN, 19093904, 0, 0, 0, 0.3061381, 0.05987199, 0.05987199, -0.06, 0, 0.19, 0, 0, 0
ATT, 19094007, 0, 0.75, 0, 0.18, 355.08, 355.11, 0, 1
RATE, 19094014, -3.404935, 0.092741, -0.008417021, -0.8422104, 0.08630215, -0.002067692, 0.005618745, 0.07841086, -0.0001126749, 101.7025, -0.8696556, 0
NKF1, 19094022, 0.75, 0.18, 355.1, -0.3328755, 0.1350287, 0.002511173, 0, 0, 0, -0.05987199, -0.05, -0.17, 0
NKF2, 19094022, 3, 0, 0, 0, 0, 0, 0, 0, 0, 0, 0, 0, 0
NKF3, 19094022, 0, 0, 0, -0.39, 0.15, 0, 0, 0, 0, 0, 0
NKF4, 19094022, 0, 0, 0, 0, 0, 0.0002541764, 0, 0, 0, 19, 229, 0, 0
NKF5, 19094022, 0, 0, 0, 0, 0.19, 0.13, 0, 0.19, 0.5, 0.0007442858, 0.005327212, 0.003950879
NKQ1, 19094022, 0.9990035, 0.006064529, 0.01122881, -0.04276965
AHR2, 19094068, 0.5, -0.67, 343.27, -0.06, 0, 0, 0.9893491, 0.003500811, -0.006430637, -0.1453779
MOTB, 19094076, 1, 1, 0, 1
RCIN, 19094080, 0, 0, 0, 0, 0, 0, 0, 0, 0, 0, 0, 0, 0, 0
RCOU, 19094086, 1146, 1146, 1146, 1146, 0, 0, 0, 0, 0, 0, 0, 0, 0, 0
VIBE, 19094094, 0.02007927, 0.02207608, 0.03597286, 0, 0, 0
CTRL, 19094100, 0.008063819, 0.0001752388, 0.002141031, 0.0001497592, 5.251187E-05
PRX, 19094130, 2, 0.58, 0, 0.5, 0, 3.59, 0, 2.45, 0, 0, 90, 0.5
IMU, 19114192, 0.0006634913, 0.0004529529, -4.568857E-05, 0.08591016, -0.06354077, -9.776736, 0, 0, 34.58603, 1, 1, 1000, 1000
RFND, 19143800, 0.2, 25, 0, 0
IMU, 19154461, 0.0001166992, 0.0003726562, 0.0001040909, 0.08237193, -0.06839941, -9.776176, 0, 0, 34.5872, 1, 1, 1000, 1000
MAG, 19193956, 258, 651, 189, 0, 0, 0, 0, 0, 0, 1, 19193948
RFND, 19194429, 0.2, 25, 0, 0
BARO, 19194470, -0.1515638, 987.9387, 33.25, -0.2778311, 19194, 0, 32.93
CTUN, 19194486, 0, 0, 0, 0.3061381, 0.05993987, 0.05993987, -0.15, 0, 0.19, 0, 0, 0
ATT, 19194593, 0, 0.75, 0, 0.19, 355.08, 355.11, 0, 1
RATE, 19194599, -3.414232, 0.03258494, -0.008307645, -0.8699169, 0.1143283, -0.002559822, 0.005811051, -0.03732096, -5.175273E-05, 91.33993, 0.09031296, 0
NKF1, 19194608, 0.75, 0.19, 355.1, -0.341767, 0.1386689, 0.002255307, 0, 0, 0, -0.05993987, -0.05, -0.16, 0
NKF2, 19194608, 3, 0, 0, 0, 0, 0, 0, 0, 0, 0, 0, 0, 0
NKF3, 19194608, 0, 0, 0, -0.43, 0.16, 0, 0, 0, 0, 0, 0
NKF4, 19194608, 0, 0, 0, 0, 0, 0.0002902652, 0, 0, 0, 19, 229, 0, 0
NKF5, 19194608, 0, 0, 0, 0, 0.19, 0.13, 0, 0.19, 0.5, 0.00103507, 0.0114786, 0.0149015
NKQ1, 19194608, 0.9990026, 0.006085132, 0.0112786, -0.04277489
AHR2, 19194656, 0.5, -0.67, 343.27, -0.15, 0, 0, 0.9893484, 0.003500594, -0.006438446, -0.1453823
MOTB, 19194663, 1, 1, 0, 1
RCIN, 19194668, 0, 0, 0, 0, 0, 0, 0, 0, 0, 0, 0, 0, 0, 0
RCOU, 19194673, 1170, 1170, 1170, 1170, 0, 0, 0, 0, 0, 0, 0, 0, 0, 0
VIBE, 19194682, 0.02144392, 0.0233307, 0.03380098, 0, 0, 0
CTRL, 19194689, 0.008097335, 0.000157269, 0.002216874, 0.0001799312, 5.926031E-05
PRX, 19194720, 2, 0.58, 0, 0.5, 0, 3.59, 0, 2.47, 0, 0, 90, 0.5
IMU, 19194727, -0.0004195005, -0.0009543382, -0.0006327461, 0.08195198, -0.06815904, -9.773697, 0, 0, 34.58885, 1, 1, 1000, 1000
IMU, 19233984, -0.0005228657, -0.0007320528, -0.01102474, 0.07101707, -0.06319813, -9.799322, 0, 0, 34.59106, 1, 1, 1000, 1000
RFND, 19243807, 0.2, 25, 0, 0
IMU, 19273948, -0.001994539, 0.00545539, 0.0059272, 0.09286138, -0.0636801, -9.76729, 0, 0, 34.5936, 1, 1, 1000, 1000
MAG, 19293976, 260, 660, 200, 0, 0, 0, 0, 0, 0, 1, 19293968
RFND, 19294011, 0.2, 25, 0, 0
BARO, 19294049, -0.117883, 987.9353, 33.25, -0.394946, 19294, 0, 32.93
CTUN, 19294062, 0, 0, 0, 0.3061381, 0.06006468, 0.06006468, -0.11, 0, 0.19, 0, 0, 0
ATT, 19294163, 0, 0.76, 0, 0.2, 355.07, 355.1, 0, 1
RATE, 19294169, -3.421943, 0.2995879, -0.01035695, -0.9413068, 0.3212386, -0.003549224, 0.006251336, -0.6411597, 0.0005749956, 66.46843, 5.073357, 0
NKF1, 19294178, 0.76, 0.2, 355.09, -0.3501721, 0.1435483, 0.001641196, 0, 0, 0, -0.06006468, -0.05, -0.16, 0
NKF2, 19294178, 3, 0, 0, 0, 0, 0, 0, 0, 0, 0, 0, 0, 0
NKF3, 19294178, 0, 0, 0, -0.43, 0.16, 0, 0, 0, 0, 0, 0
NKF4, 19294178, 0, 0, 0, 0, 0, 0.0003261474, 0, 0, 0, 19, 229, 0, 0
NKF5, 19294178, 0, 0, 0, 0, 0.19, 0.13, 0, 0.19, 0.5, 0.0008967055, 0.00677324, 0.007770858
NKQ1, 19294178, 0.998996, 0.006111154, 0.01139983, -0.04289436
AHR2, 19294223, 0.5, -0.66, 343.26, -0.11, 0, 0, 0.9893315, 0.003515054, -0.006364552, -0.1455001
MOTB, 19294230, 1, 1, 0, 1
RCIN, 19294234, 0, 0, 0, 0, 0, 0, 0, 0, 0, 0, 0, 0, 0, 0
RCOU, 19294239, 1194, 1194, 1194, 1194, 0, 0, 0, 0, 0, 0, 0, 0, 0, 0
VIBE, 19294248, 0.1321753, 0.2117997, 0.1493038, 0, 0, 0
CTRL, 19294255, 0.00810374, 0.0004634895, 0.002365516, 0.0003704197, 0.0002098272
PRX, 19294285, 2, 0.58, 0, 0.5, 0, 3.59, 0, 2.46, 0, 0, 90, 0.5
IMU, 19313949, 0.001499261, 0.003921207, 0.02302863, 0.02627104, -0.06517099, -9.761246, 0, 0, 34.5961, 1, 1, 1000, 1000
RFND, 19343800, 0.2, 25, 0, 0
IMU, 19354446, 0.006638944, -3.795952E-05, -0.004313722, 0.04970914, -0.05925955, -9.762017, 0, 0, 34.59806, 1, 1, 1000, 1000
MAG, 19393896, 259, 662, 195, 0, 0, 0, 0, 0, 0, 1, 19393843
RFND, 19393929, 0.2, 25, 0, 0
BARO, 19393968, -0.1515638, 987.9387, 33.25, -0.4592009, 19393, 0, 32.93
CTUN, 19393981, 0, 0, 0, 0.3061381, 0.06026058, 0.06026058, -0.15, 0, 0.19, 0, 0, 0
ATT, 19394085, 0, 0.76, 0, 0.21, 355.09, 355.12, 0, 1
RATE, 19394091, -3.424348, -0.1580344, -0.007474159, -0.9658091, 0.1722416, -0.002961753, 0.006466643, 0.004781247, -2.286072E-05, 44.31945, 2.248383, 0
NKF1, 19394099, 0.76, 0.21, 355.11, -0.357532, 0.1459934, 0.001094308, 0, 0, 0, -0.06026058, -0.05, -0.16, 0
NKF2, 19394099, 3, 0, 0, 0, 0, 0, 0, 0, 0, 0, 0, 0, 0
NKF3, 19394099, 0, 0, 0, -0.46, 0.18, 0, 0, 0, 0, 0, 0
NKF4, 19394099, 0, 0, 0, 0, 0, 0.0003690705, 0, 0, 0, 19, 229, 0, 0
NKF5, 19394099, 0, 0, 0, 0, 0.19, 0.13, 0, 0.19, 0.5, 0.00124294, 0.01370415, 0.02058455
NKQ1, 19394099, 0.9990029, 0.006113709, 0.01146542, -0.04271336
AHR2, 19394144, 0.5, -0.65, 343.28, -0.15, 0, 0, 0.9893582, 0.003502663, -0.006330065, -0.14532
MOTB, 19394152, 1, 1, 0, 1
RCIN, 19394156, 0, 0, 0, 0, 0, 0, 0, 0, 0, 0, 0, 0, 0, 0
RCOU, 19394161, 1217, 1217, 1217, 1217, 0, 0, 0, 0, 0, 0, 0, 0, 0, 0
VIBE, 19394170, 0.3944082, 0.387834, 0.3917251, 0, 0, 0
CTRL, 19394176, 0.008152821, 0.0008815178, 0.002509382, 0.0004187913, 0.0002676707
PRX, 19394205, 2, 0.58, 0, 0.5, 0, 3.59, 0, 2.46, 0, 0, 90, 0.5
IMU, 19394212, -0.003725675, 0.0001272542, 0.0001020812, 0.1051516, -0.002372281, -9.795419, 0, 0, 34.59956, 1, 1, 1000, 1000
IMU, 19433906, 0.001329132, 0.001431897, -0.03318071, 0.09595254, -0.07054819, -9.754362, 0, 0, 34.60072, 1, 1, 1000, 1000
RFND, 19444285, 0.2, 25, 0, 0
IMU, 19473769, -4.406035E-05, -0.003997122, -0.002291709, 0.1684304, -0.05181536, -9.814054, 0, 0, 34.60139, 1, 1, 1000, 1000
MAG, 19493805, 257, 660, 198, 0, 0, 0, 0, 0, 0, 1, 19493796
RFND, 19493838, 0.2, 25, 0, 0
BARO, 19493874, -0.1796312, 987.942, 33.25, -0.335154, 19493, 0, 32.93
CTUN, 19493889, 0, 0, 0, 0.3061381, 0.06050362, 0.06050362, -0.17, 0, 0.19, 0, 0, 0
ATT, 19494129, 0, 0.77, 0, 0.21, 355.06, 355.09, 0, 1
RATE, 19494136, -3.48074, 0.2590421, -0.009157356, -0.9856002, 0.1945822, -0.002985018, 0.006670885, -0.3713568, 0.0006378707, 6.900756, -0.7141113, 0
NKF1, 19494144, 0.77, 0.21, 355.08, -0.3647432, 0.148146, 0.000170389, 0, 0, 0, -0.06050363, -0.05, -0.16, 0
NKF2, 19494144, 3, 0, 0, 0, 0, 0, 0, 0, 0, 0, 0, 0, 0
NKF3, 19494144, 0, 0, 0, -0.46, 0.18, 0, 0, 0, 0, 0, 0
NKF4, 19494144, 0, 0, 0, 0, 0, 0.0004061362, 0, 0, 0, 19, 229, 0, 0
NKF5, 19494144, 0, 0, 0, 0, 0.19, 0.13, 0, 0.19, 0.5, 0.001054729, 0.008088253, 0.01159394
NKQ1, 19494144, 0.9989908, 0.006229217, 0.01148731, -0.0429735
AHR2, 19494188, 0.51, -0.65, 343.25, -0.17, 0, 0, 0.98932, 0.003607446, -0.006342493, -0.1455769
MOTB, 19494197, 1, 1, 0, 1
RCIN, 19494201, 0, 0, 0, 0, 0, 0, 0, 0, 0, 0, 0, 0, 0, 0
RCOU, 19494207, 1238, 1227, 1221, 1241, 0, 0, 0, 0, 0, 0, 0, 0, 0, 0
VIBE, 19494216, 0.4551748, 0.4155284, 0.4816598, 0, 0, 0
CTRL, 19494222, 0.008284249, 0.001006077, 0.002573352, 0.0005146892, 0.0005545944
PRX, 19494252, 2, 0.58, 0, 0.5, 0, 3.59, 0, 2.46, 0, 0, 90, 0.5
IMU, 19513929, -0.00648367, -0.002547239, 0.001818217, 0.112042, -0.1253366, -9.771564, 0, 0, 34.60197, 1, 1, 1000, 1000
RFND, 19543706, 0.2, 25, 0, 0
IMU, 19553900, -0.0009678496, 0.003500296, 0.005354969, 0.06937129, -0.0817648, -9.798029, 0, 0, 34.6025, 1, 1, 1000, 1000
MAG, 19593753, 258, 666, 201, 0, 0, 0, 0, 0, 0, 1, 19593745
RFND, 19593786, 0.2, 25, 0, 0
BARO, 19593843, -0.1908582, 987.9431, 33.24, -0.2018368, 19593, 0, 32.93
CTUN, 19593856, 0, 0, 0, 0.3061381, 0.06089556, 0.06089556, -0.19, 0, 0.19, 0, 0, 0
DU32, 19593892, 7, 33611992
ATT, 19594028, 0, 0.76, 0, 0.21, 355.07, 355.09, 0, 1
RATE, 19594033, -3.436126, -0.05660478, -0.009301297, -0.9650249, 0.2591626, -0.003096765, 0.006478273, -0.01787915, -0.0001841957, -84.0767, -1.659679, 0
NKF1, 19594041, 0.76, 0.21, 355.08, -0.3700184, 0.1505335, -0.002075968, 0, 0, 0, -0.06089556, -0.05, -0.15, 0
NKF2, 19594041, 3, 0, 0, 0, 0, 0, 0, 0, 0, 0, 0, 0, 0
NKF3, 19594041, 0, 0, 0, -0.5, 0.19, 0, 0, 0, 0, 0, 0
NKF4, 19594041, 0, 0, 0, 0, 0, 0.000454849, 0, 0, 0, 19, 229, 0, 0
NKF5, 19594041, 0, 0, 0, 0, 0.19, 0.13, 0, 0.19, 0.5, 0.001446342, 0.01566417, 0.02611973
NKQ1, 19594041, 0.9989938, 0.006137958, 0.01146078, -0.04292445
AHR2, 19594084, 0.5, -0.66, 343.26, -0.19, 0, 0, 0.9893277, 0.003527073, -0.006345023, -0.1455272
MOTB, 19594092, 1, 1, 0, 1
RCIN, 19594096, 0, 0, 0, 0, 0, 0, 0, 0, 0, 0, 0, 0, 0, 0
RCOU, 19594101, 1236, 1226, 1221, 1242, 0, 0, 0, 0, 0, 0, 0, 0, 0, 0
VIBE, 19594110, 0.3469003, 0.4535022, 0.5194786, 0, 0, 0
CTRL, 19594116, 0.008188996, 0.001032162, 0.002583013, 0.000557658, 0.0004777852
PRX, 19594146, 2, 0.58, 0, 0.5, 0, 3.59, 0, 2.44, 0, 0, 90, 0.5
IMU, 19594154, -0.001927449, 0.001737533, -0.0002934769, 0.05591707, -0.05419101, -9.756927, 0, 0, 34.60291, 1, 1, 1000, 1000
PM, 19594166, 46, 4000, 4018, 14, 0, 0, 23, 262144
IMU, 19634250, -0.01177033, -0.004118521, 0.009517473, 0.0461009, -0.08062838, -9.761619, 0, 0, 34.60279, 1, 1, 1000, 1000
RFND, 19643725, 0.2, 25, 0, 0
IMU, 19673776, -0.001856301, -0.008822091, 0.00451348, 0.01916274, -0.07561321, -9.73828, 0, 0, 34.60277, 1, 1, 1000, 1000
MAG, 19693708, 254, 667, 199, 0, 0, 0, 0, 0, 0, 1, 19693700
RFND, 19693736, 0.2, 25, 0, 0
BARO, 19693774, -0.1684043, 987.9409, 33.24, -0.1777833, 19693, 0, 32.93
CTUN, 19693788, 0, 0, 0, 0.3061381, 0.06123762, 0.06123762, -0.16, 0, 0.19, 0, 0, 0
ATT, 19694009, 0, 0.75, 0, 0.21, 355.05, 355.08, 0, 1
RATE, 19694015, -3.407871, -0.1678124, -0.006494926, -0.9584259, 0.03697117, -0.003207729, 0.006372311, -0.2316963, 9.311127E-05, -21.03441, 2.626514, 0
NKF1, 19694023, 0.75, 0.21, 355.07, -0.3753672, 0.1514908, -0.0005193682, 0, 0, 0, -0.06123762, -0.05, -0.15, 0
NKF2, 19694023, 3, 0, 0, 0, 0, 0, 0, 0, 0, 0, 0, 0, 0
NKF3, 19694023, 0, 0, 0, -0.53, 0.21, 0, 0, 0, 0, 0, 0
NKF4, 19694023, 0, 0, 0, 0, 0, 0.00049275, 0, 0, 0, 19, 229, 0, 0
NKF5, 19694023, 0, 0, 0, 0, 0.19, 0.13, 0, 0.19, 0.5, 0.001855347, 0.02773075, 0.04923512
NKQ1, 19694023, 0.9989896, 0.006084585, 0.01144401, -0.04303367
AHR2, 19694065, 0.5, -0.66, 343.24, -0.16, 0, 0, 0.989312, 0.003475852, -0.006352133, -0.1456343
MOTB, 19694072, 1, 1, 0, 1
RCIN, 19694077, 0, 0, 0, 0, 0, 0, 0, 0, 0, 0, 0, 0, 0, 0
RCOU, 19694082, 1232, 1226, 1221, 1237, 0, 0, 0, 0, 0, 0, 0, 0, 0, 0
VIBE, 19694091, 0.3562893, 0.3544899, 0.5486104, 0, 0, 0
CTRL, 19694097, 0.008223767, 0.00153283, 0.002574971, 0.0009201696, 0.0004188085
PRX, 19694128, 2, 0.58, 0, 0.5, 0, 3.59, 0, 2.46, 0, 0, 90, 0.5
IMU, 19713877, 0.005938344, 0.00498282, 0.007974537, 0.1161113, -0.06226971, -9.739062, 0, 0, 34.60171, 1, 1, 1000, 1000
RFND, 19743740, 0.2, 25, 0, 0
IMU, 19753847, 0.001802502, 0.007542381, 0.006978945, 0.2027745, -0.03659446, -9.79725, 0, 0, 34.59835, 1, 1, 1000, 1000
MAG, 19793693, 256, 666, 195, 0, 0, 0, 0, 0, 0, 1, 19793684
RFND, 19793722, 0.2, 25, 0, 0
BARO, 19793811, -0.117883, 987.9355, 33.24, -0.1141644, 19793, 0, 32.93
CTUN, 19793842, 0, 0, 0, 0.3061381, 0.06153071, 0.06153071, -0.11, 0, 0.19, 0, 0, 0
ATT, 19793941, 0, 0.75, 0, 0.19, 355.06, 355.08, 0, 1
RATE, 19793947, -3.383948, -0.05342386, -0.006305412, -0.9010233, -0.1168002, -0.0008581735, 0.00594921, -0.1671307, 6.571105E-05, 33.52698, 2.289772, 0
NKF1, 19793955, 0.75, 0.19, 355.07, -0.3805439, 0.1525871, 0.0008278267, 0, 0, 0, -0.06153071, -0.05, -0.15, 0
NKF2, 19793955, 3, 0, 0, 0, 0, 0, 0, 0, 0, 0, 0, 0, 0
NKF3, 19793955, 0, 0, 0, -0.53, 0.21, 0, 0, 0, 0, 0, 0
NKF4, 19793955, 0, 0, 0, 0, 0, 0.0005430492, 0, 0, 0, 19, 229, 0, 0
NKF5, 19793955, 0, 0, 0, 0, 0.19, 0.13, 0, 0.19, 0.5, 0.001627985, 0.01715158, 0.03106613
NKQ1, 19793955, 0.998992, 0.00603292, 0.01133671, -0.04301143
AHR2, 19793999, 0.49, -0.67, 343.25, -0.11, 0, 0, 0.9893152, 0.003424772, -0.006418342, -0.1456108
MOTB, 19794007, 1, 1, 0, 1
RCIN, 19794012, 0, 0, 0, 0, 0, 0, 0, 0, 0, 0, 0, 0, 0, 0
RCOU, 19794017, 1232, 1222, 1221, 1233, 0, 0, 0, 0, 0, 0, 0, 0, 0, 0
VIBE, 19794026, 0.4024789, 0.4496236, 0.4844511, 0, 0, 0
CTRL, 19794032, 0.008186193, 0.00154815, 0.002592199, 0.001232279, 0.0003516924
PRX, 19794062, 2, 0.58, 0, 0.5, 0, 3.59, 0, 2.44, 0, 0, 90, 0.5
IMU, 19794069, -0.001842926, -0.004726992, -0.002898417, 0.01092545, -0.0492501, -9.797445, 0, 0, 34.59182, 1, 1, 1000, 1000
IMU, 19833865, -0.002971993, -0.005869084, -0.004937516, -0.07841852, -0.1160793, -9.77169, 0, 0, 34.58313, 1, 1, 1000, 1000
RFND, 19843745, 0.2, 25, 0, 0
IMU, 19873835, 0.001910808, 0.01318039, 0.006670642, 0.1991886, -0.1126797, -9.698817, 0, 0, 34.57194, 1, 1, 1000, 1000
MAG, 19893959, 254, 660, 198, 0, 0, 0, 0, 0, 0, 1, 19893951
RFND, 19893989, 0.2, 25, 0, 0
BARO, 19894027, -0.1459504, 987.9383, 33.23, 0.05087212, 19894, 0, 32.93
CTUN, 19894040, 0, 0, 0, 0.3061381, 0.06160749, 0.06160749, -0.14, 0, 0.19, 0, 0, 0
ATT, 19894140, 0, 0.74, 0, 0.2, 355.06, 355.08, 0, 1
RATE, 19894146, -3.372193, -0.03545196, -0.006781843, -0.9098496, -0.5277343, 0.003423582, 0.005964503, -0.5148199, -5.191896E-06, 83.79716, -2.890873, 0
NKF1, 19894155, 0.74, 0.2, 355.07, -0.3838411, 0.1527334, 0.002069066, 0, 0, 0, -0.06160749, -0.05, -0.14, 0
NKF2, 19894155, 3, 0, 0, 0, 0, 0, 0, 0, 0, 0, 0, 0, 0
NKF3, 19894155, 0, 0, 0, -0.56, 0.22, 0, 0, 0, 0, 0, 0
NKF4, 19894155, 0, 0, 0, 0, 0, 0.0005837866, 0, 0, 0, 19, 229, 0, 0
NKF5, 19894155, 0, 0, 0, 0, 0.19, 0.13, 0, 0.19, 0.5, 0.002073199, 0.02950467, 0.05568761
NKQ1, 19894155, 0.9989914, 0.006014144, 0.01134606, -0.04302524
AHR2, 19894200, 0.49, -0.66, 343.24, -0.14, 0, 0, 0.9893136, 0.003420212, -0.00637697, -0.1456236
MOTB, 19894207, 1, 1, 0, 1
RCIN, 19894212, 0, 0, 0, 0, 0, 0, 0, 0, 0, 0, 0, 0, 0, 0
RCOU, 19894217, 1238, 1221, 1227, 1232, 0, 0, 0, 0, 0, 0, 0, 0, 0, 0
VIBE, 19894226, 0.468897, 0.5207015, 0.4649806, 0, 0, 0
CTRL, 19894232, 0.008120661, 0.00152115, 0.002708647, 0.001664027, 0.0002946304
PRX, 19894262, 2, 0.58, 0, 0.5, 0, 3.59, 0, 2.46, 0, 0, 90, 0.5
IMU, 19913969, 0.0009208609, 0.005049563, 0.006712785, 0.2111818, 0.01004908, -9.78417, 0, 0, 34.55946, 1, 1, 1000, 1000
RFND, 19943783, 0.2, 25, 0, 0
IMU, 19953812, -0.004364803, -0.01189995, -0.006222944, -0.1366132, -0.1004942, -9.712151, 0, 0, 34.54609, 1, 1, 1000, 1000
MAG, 19993701, 254, 661, 199, 0, 0, 0, 0, 0, 0, 1, 19993693
RFND, 19993809, 0.2, 25, 0, 0
BARO, 19993869, -0.1234965, 987.9357, 33.21, 0.1647909, 19993, 0, 32.93
CTUN, 19993884, 0, 0, 0, 0.3061381, 0.06144684, 0.06144684, -0.12, 0, 0.19, 0, 0, 0
ATT, 19993979, 0, 0.74, 0, 0.2, 355.07, 355.09, 0, 1
RATE, 19993986, -3.374913, 0.1564741, -0.009422568, -0.9341969, 0.2469515, -0.003047206, 0.006191327, 0.2481922, -1.426076E-05, 205.7465, -6.287289, 0
NKF1, 19993994, 0.74, 0.2, 355.08, -0.3808473, 0.1534453, 0.005080159, 0, 0, 0, -0.06144684, -0.05, -0.14, 0
NKF2, 19993994, 3, 0, 0, 0, 0, 0, 0, 0, 0, 0, 0, 0, 0
NKF3, 19993994, 0, 0, 0, -0.56, 0.22, 0, 0, 0, 0, 0, 0
NKF4, 19993994, 0, 0, 0, 0, 0, 0.0006285807, 0, 0, 0, 19, 229, 0, 0
NKF5, 19993994, 0, 0, 0, 0, 0.19, 0.13, 0, 0.19, 0.5, 0.001782768, 0.01797394, 0.03489582
NKQ1, 19993994, 0.998996, 0.006014611, 0.01141307, -0.04290256
AHR2, 19994038, 0.49, -0.65, 343.26, -0.12, 0, 0, 0.9893322, 0.003459603, -0.006253454, -0.1455017
MOTB, 19994046, 1, 1, 0, 1
RCIN, 19994050, 0, 0, 0, 0, 0, 0, 0, 0, 0, 0, 0, 0, 0, 0
RCOU, 19994055, 1237, 1226, 1221, 1242, 0, 0, 0, 0, 0, 0, 0, 0, 0, 0
