FMT, 128, 89, FMT, BBnNZ, Type,Length,Name,Format,Columns
FMT, 129, 31, PARM, QNf, TimeUS,Name,Value
FMT, 130, 46, GPS, QBIHBcLLefffB, TimeUS,Status,GMS,GWk,NSats,HDop,Lat,Lng,Alt,Spd,GCrs,VZ,U
FMT, 131, 46, GPS2, QBIHBcLLefffB, TimeUS,Status,GMS,GWk,NSats,HDop,Lat,Lng,Alt,Spd,GCrs,VZ,U
FMT, 132, 46, GPSB, QBIHBcLLefffB, TimeUS,Status,GMS,GWk,NSats,HDop,Lat,Lng,Alt,Spd,GCrs,VZ,U
FMT, 193, 24, GPA, QCCCCBI, TimeUS,VDop,HAcc,VAcc,SAcc,VV,SMS
FMT, 194, 24, GPA2, QCCCCBI, TimeUS,VDop,HAcc,VAcc,SAcc,VV,SMS
FMT, 195, 24, GPAB, QCCCCBI, TimeUS,VDop,HAcc,VAcc,SAcc,VV,SMS
FMT, 133, 53, IMU, QffffffIIfBBHH, TimeUS,GyrX,GyrY,GyrZ,AccX,AccY,AccZ,EG,EA,T,GH,AH,GHz,AHz
FMT, 134, 75, MSG, QZ, TimeUS,Message
FMT, 135, 39, RCIN, QHHHHHHHHHHHHHH, TimeUS,C1,C2,C3,C4,C5,C6,C7,C8,C9,C10,C11,C12,C13,C14
FMT, 136, 39, RCOU, QHHHHHHHHHHHHHH, TimeUS,C1,C2,C3,C4,C5,C6,C7,C8,C9,C10,C11,C12,C13,C14
FMT, 137, 15, RSSI, Qf, TimeUS,RXRSSI
FMT, 139, 37, BARO, QffcfIff, TimeUS,Alt,Press,Temp,CRt,SMS,Offset,GndTemp
FMT, 140, 22, POWR, QffHB, TimeUS,Vcc,VServo,Flags,Safety
FMT, 143, 45, CMD, QHHHfffffff, TimeUS,CTot,CNum,CId,Prm1,Prm2,Prm3,Prm4,Lat,Lng,Alt
FMT, 144, 20, RAD, QBBBBBHH, TimeUS,RSSI,RemRSSI,TxBuf,Noise,RemNoise,RxErrors,Fixed
FMT, 146, 43, CAM, QIHLLeeeccC, TimeUS,GPSTime,GPSWeek,Lat,Lng,Alt,RelAlt,GPSAlt,Roll,Pitch,Yaw
FMT, 232, 43, TRIG, QIHLLeeeccC, TimeUS,GPSTime,GPSWeek,Lat,Lng,Alt,RelAlt,GPSAlt,Roll,Pitch,Yaw
FMT, 162, 30, ARSP, QffcffB, TimeUS,Airspeed,DiffPress,Temp,RawPress,Offset,U
FMT, 164, 45, CURR, QfffcHHHHHHHHHH, TimeUS,Volt,Curr,CurrTot,Temp,V1,V2,V3,V4,V5,V6,V7,V8,V9,V10
FMT, 165, 45, CUR2, QfffcHHHHHHHHHH, TimeUS,Volt,Curr,CurrTot,Temp,V1,V2,V3,V4,V5,V6,V7,V8,V9,V10
FMT, 163, 27, ATT, QccccCCCC, TimeUS,DesRoll,Roll,DesPitch,Pitch,DesYaw,Yaw,ErrRP,ErrYaw
FMT, 166, 34, MAG, QhhhhhhhhhBI, TimeUS,MagX,MagY,MagZ,OfsX,OfsY,OfsZ,MOfsX,MOfsY,MOfsZ,Health,S
FMT, 169, 14, MODE, QMBB, TimeUS,Mode,ModeNum,Rsn
FMT, 196, 17, RFND, QCBCB, TimeUS,Dist1,Orient1,Dist2,Orient2
FMT, 223, 33, DMS, IIIIIBBBBBBBBBB, TimeMS,N,Dp,RT,RS,Er,Fa,Fmn,Fmx,Pa,Pmn,Pmx,Sa,Smn,Smx
FMT, 240, 41, BCN, QBBfffffff, TimeUS,Health,Cnt,D0,D1,D2,D3,PosX,PosY,PosZ
FMT, 138, 53, IMU2, QffffffIIfBBHH, TimeUS,GyrX,GyrY,GyrZ,AccX,AccY,AccZ,EG,EA,T,GH,AH,GHz,AHz
FMT, 147, 53, IMU3, QffffffIIfBBHH, TimeUS,GyrX,GyrY,GyrZ,AccX,AccY,AccZ,EG,EA,T,GH,AH,GHz,AHz
FMT, 141, 45, AHR2, QccCfLLffff, TimeUS,Roll,Pitch,Yaw,Alt,Lat,Lng,Q1,Q2,Q3,Q4
FMT, 180, 31, POS, QLLfff, TimeUS,Lat,Lng,Alt,RelHomeAlt,RelOriginAlt
FMT, 142, 45, SIM, QccCfLLffff, TimeUS,Roll,Pitch,Yaw,Alt,Lat,Lng,Q1,Q2,Q3,Q4
FMT, 198, 51, NKF1, QccCfffffffccc, TimeUS,Roll,Pitch,Yaw,VN,VE,VD,dPD,PN,PE,PD,GX,GY,GZ
FMT, 199, 35, NKF2, QbccccchhhhhhB, TimeUS,AZbias,GSX,GSY,GSZ,VWN,VWE,MN,ME,MD,MX,MY,MZ,MI
FMT, 200, 33, NKF3, Qcccccchhhcc, TimeUS,IVN,IVE,IVD,IPN,IPE,IPD,IMX,IMY,IMZ,IYAW,IVT
FMT, 201, 35, NKF4, QcccccfbbHBHHb, TimeUS,SV,SP,SH,SM,SVT,errRP,OFN,OFE,FS,TS,SS,GPS,PI
FMT, 202, 40, NKF5, QBhhhcccCCfff, TimeUS,NI,FIX,FIY,AFI,HAGL,offset,RI,rng,Herr,eAng,eVel,ePos
FMT, 203, 51, NKF6, QccCfffffffccc, TimeUS,Roll,Pitch,Yaw,VN,VE,VD,dPD,PN,PE,PD,GX,GY,GZ
FMT, 204, 35, NKF7, QbccccchhhhhhB, TimeUS,AZbias,GSX,GSY,GSZ,VWN,VWE,MN,ME,MD,MX,MY,MZ,MI
FMT, 205, 33, NKF8, Qcccccchhhcc, TimeUS,IVN,IVE,IVD,IPN,IPE,IPD,IMX,IMY,IMZ,IYAW,IVT
FMT, 206, 35, NKF9, QcccccfbbHBHHb, TimeUS,SV,SP,SH,SM,SVT,errRP,OFN,OFE,FS,TS,SS,GPS,PI
FMT, 207, 36, NKF0, QBccCCcccccccc, TimeUS,ID,rng,innov,SIV,TR,BPN,BPE,BPD,OFH,OFL,OFN,OFE,OFD
FMT, 208, 27, NKQ1, Qffff, TimeUS,Q1,Q2,Q3,Q4
FMT, 209, 27, NKQ2, Qffff, TimeUS,Q1,Q2,Q3,Q4
FMT, 210, 51, XKF1, QccCfffffffccc, TimeUS,Roll,Pitch,Yaw,VN,VE,VD,dPD,PN,PE,PD,GX,GY,GZ
FMT, 211, 34, XKF2, QccccchhhhhhB, TimeUS,AX,AY,AZ,VWN,VWE,MN,ME,MD,MX,MY,MZ,MI
FMT, 212, 33, XKF3, Qcccccchhhcc, TimeUS,IVN,IVE,IVD,IPN,IPE,IPD,IMX,IMY,IMZ,IYAW,IVT
FMT, 213, 35, XKF4, QcccccfbbHBHHb, TimeUS,SV,SP,SH,SM,SVT,errRP,OFN,OFE,FS,TS,SS,GPS,PI
FMT, 214, 40, XKF5, QBhhhcccCCfff, TimeUS,NI,FIX,FIY,AFI,HAGL,offset,RI,rng,Herr,eAng,eVel,ePos
FMT, 215, 51, XKF6, QccCfffffffccc, TimeUS,Roll,Pitch,Yaw,VN,VE,VD,dPD,PN,PE,PD,GX,GY,GZ
FMT, 216, 34, XKF7, QccccchhhhhhB, TimeUS,AX,AY,AZ,VWN,VWE,MN,ME,MD,MX,MY,MZ,MI
FMT, 217, 33, XKF8, Qcccccchhhcc, TimeUS,IVN,IVE,IVD,IPN,IPE,IPD,IMX,IMY,IMZ,IYAW,IVT
FMT, 218, 35, XKF9, QcccccfbbHBHHb, TimeUS,SV,SP,SH,SM,SVT,errRP,OFN,OFE,FS,TS,SS,GPS,PI
FMT, 219, 36, XKF0, QBccCCcccccccc, TimeUS,ID,rng,innov,SIV,TR,BPN,BPE,BPD,OFH,OFL,OFN,OFE,OFD
FMT, 220, 27, XKQ1, Qffff, TimeUS,Q1,Q2,Q3,Q4
FMT, 221, 27, XKQ2, Qffff, TimeUS,Q1,Q2,Q3,Q4
FMT, 222, 35, XKFD, Qffffff, TimeUS,IX,IY,IZ,IVX,IVY,IVZ
FMT, 148, 34, TERR, QBLLHffHH, TimeUS,Status,Lat,Lng,Spacing,TerrH,CHeight,Pending,Loaded
FMT, 149, 18, UBX1, QBHBBH, TimeUS,Instance,noisePerMS,jamInd,aPower,agcCnt
FMT, 150, 16, UBX2, QBbBbB, TimeUS,Instance,ofsI,magI,ofsQ,magQ
FMT, 151, 18, UBY1, QBHBBH, TimeUS,Instance,noisePerMS,jamInd,aPower,agcCnt
FMT, 152, 16, UBY2, QBbBbB, TimeUS,Instance,ofsI,magI,ofsQ,magQ
FMT, 170, 42, GRAW, QIHBBddfBbB, TimeUS,WkMS,Week,numSV,sv,cpMes,prMes,doMes,mesQI,cno,lli
FMT, 171, 24, GRXH, QdHbBB, TimeUS,rcvTime,week,leapS,numMeas,recStat
FMT, 172, 41, GRXS, QddfBBBHBBBBB, TimeUS,prMes,cpMes,doMes,gnss,sv,freq,lock,cno,prD,cpD,doD,trk
FMT, 173, 63, SBFE, QIHBBdddfffff, TimeUS,TOW,WN,Mode,Err,Lat,Lng,Height,Undul,Vn,Ve,Vu,COG
FMT, 153, 19, ESC1, Qcccc, TimeUS,RPM,Volt,Curr,Temp
FMT, 154, 19, ESC2, Qcccc, TimeUS,RPM,Volt,Curr,Temp
FMT, 155, 19, ESC3, Qcccc, TimeUS,RPM,Volt,Curr,Temp
FMT, 156, 19, ESC4, Qcccc, TimeUS,RPM,Volt,Curr,Temp
FMT, 157, 19, ESC5, Qcccc, TimeUS,RPM,Volt,Curr,Temp
FMT, 158, 19, ESC6, Qcccc, TimeUS,RPM,Volt,Curr,Temp
FMT, 159, 19, ESC7, Qcccc, TimeUS,RPM,Volt,Curr,Temp
FMT, 160, 19, ESC8, Qcccc, TimeUS,RPM,Volt,Curr,Temp
FMT, 167, 34, MAG2, QhhhhhhhhhBI, TimeUS,MagX,MagY,MagZ,OfsX,OfsY,OfsZ,MOfsX,MOfsY,MOfsZ,Health,S
FMT, 168, 34, MAG3, QhhhhhhhhhBI, TimeUS,MagX,MagY,MagZ,OfsX,OfsY,OfsZ,MOfsX,MOfsY,MOfsZ,Health,S
FMT, 174, 31, ACC1, QQfff, TimeUS,SampleUS,AccX,AccY,AccZ
FMT, 175, 31, ACC2, QQfff, TimeUS,SampleUS,AccX,AccY,AccZ
FMT, 176, 31, ACC3, QQfff, TimeUS,SampleUS,AccX,AccY,AccZ
FMT, 177, 31, GYR1, QQfff, TimeUS,SampleUS,GyrX,GyrY,GyrZ
FMT, 178, 31, GYR2, QQfff, TimeUS,SampleUS,GyrX,GyrY,GyrZ
FMT, 179, 31, GYR3, QQfff, TimeUS,SampleUS,GyrX,GyrY,GyrZ
FMT, 181, 35, PIDR, Qffffff, TimeUS,Des,P,I,D,FF,AFF
FMT, 182, 35, PIDP, Qffffff, TimeUS,Des,P,I,D,FF,AFF
FMT, 183, 35, PIDY, Qffffff, TimeUS,Des,P,I,D,FF,AFF
FMT, 184, 35, PIDA, Qffffff, TimeUS,Des,P,I,D,FF,AFF
FMT, 185, 35, PIDS, Qffffff, TimeUS,Des,P,I,D,FF,AFF
FMT, 186, 35, PIDL, Qffffff, TimeUS,Des,P,I,D,FF,AFF
FMT, 161, 37, BAR2, QffcfIff, TimeUS,Alt,Press,Temp,CRt,SMS,Offset,GndTemp
FMT, 197, 37, BAR3, QffcfIff, TimeUS,Alt,Press,Temp,CRt,SMS,Offset,GndTemp
FMT, 187, 35, VIBE, QfffIII, TimeUS,VibeX,VibeY,VibeZ,Clip0,Clip1,Clip2
FMT, 188, 47, IMT, Qfffffffff, TimeUS,DelT,DelvT,DelaT,DelAX,DelAY,DelAZ,DelVX,DelVY,DelVZ
FMT, 189, 47, IMT2, Qfffffffff, TimeUS,DelT,DelvT,DelaT,DelAX,DelAY,DelAZ,DelVX,DelVY,DelVZ
FMT, 190, 47, IMT3, Qfffffffff, TimeUS,DelT,DelvT,DelaT,DelAX,DelAY,DelAZ,DelVX,DelVY,DelVZ
FMT, 191, 24, ORGN, QBLLe, TimeUS,Type,Lat,Lng,Alt
FMT, 192, 19, RPM, Qff, TimeUS,rpm1,rpm2
FMT, 233, 47, GMB1, Iffffffffff, TimeMS,dt,dax,day,daz,dvx,dvy,dvz,jx,jy,jz
FMT, 234, 44, GMB2, IBfffffffff, TimeMS,es,ex,ey,ez,rx,ry,rz,tx,ty,tz
FMT, 235, 13, GMB3, Ihhh, TimeMS,rl_torque_cmd,el_torque_cmd,az_torque_cmd
FMT, 236, 59, RATE, Qffffffffffff, TimeUS,RDes,R,ROut,PDes,P,POut,YDes,Y,YOut,ADes,A,AOut
FMT, 237, 23, RALY, QBBLLh, TimeUS,Tot,Seq,Lat,Lng,Alt
FMT, 238, 43, VISO, Qffffffff, TimeUS,dt,AngDX,AngDY,AngDZ,PosDX,PosDY,PosDZ,conf
FMT, 224, 23, SBPH, QIII, TimeUS,CrcError,LastInject,IARhyp
FMT, 229, 80, SBR1, QHHBZ, TimeUS,msg_type,sender_id,msg_len,d1
FMT, 230, 205, SBR2, QHZZZ, TimeUS,msg_type,d2,d3,d4
FMT, 25, 41, ATUN, QBBfffffff, TimeUS,Axis,TuneStep,Targ,Min,Max,RP,RD,SP,ddt
FMT, 26, 19, ATDE, Qff, TimeUS,Angle,Rate
FMT, 31, 22, PTUN, QBfHHH, TimeUS,Param,TunVal,CtrlIn,TunLo,TunHi
FMT, 12, 28, OF, QBffff, TimeUS,Qual,flowX,flowY,bodyX,bodyY
FMT, 5, 51, NTUN, Qffffffffff, TimeUS,DPosX,DPosY,PosX,PosY,DVelX,DVelY,VelX,VelY,DAccX,DAccY
FMT, 4, 51, CTUN, Qffffffeccfhh, TimeUS,ThI,ABst,ThO,ThH,DAlt,Alt,BAlt,DSAlt,SAlt,TAlt,DCRt,CRt
FMT, 6, 32, PM, QHHIhBHII, TimeUS,NLon,NLoop,MaxT,PMT,I2CErr,INSErr,LogDrop,Mem
FMT, 30, 27, MOTB, Qffff, TimeUS,LiftMax,BatVolt,BatRes,ThLimit
FMT, 13, 12, EV, QB, TimeUS,Id
FMT, 20, 14, D16, QBh, TimeUS,Id,Value
FMT, 21, 14, DU16, QBH, TimeUS,Id,Value
FMT, 22, 16, D32, QBi, TimeUS,Id,Value
FMT, 23, 16, DU32, QBI, TimeUS,Id,Value
FMT, 24, 16, DFLT, QBf, TimeUS,Id,Value
FMT, 19, 13, ERR, QBB, TimeUS,Subsys,ECode
FMT, 32, 19, HELI, Qff, TimeUS,DRRPM,ERRPM
FMT, 33, 29, PL, QBBffff, TimeUS,Heal,TAcq,pX,pY,vX,vY
FMT, 34, 36, GUID, QBffffff, TimeUS,Type,pX,pY,pZ,vX,vY,vZ
FMT, 35, 32, THRO, QBffffbbbb, TimeUS,Stage,Vel,VelZ,Acc,AccEfZ,Throw,AttOk,HgtOk,PosOk
FMT, 36, 56, PRX, QBfffffffffff, TimeUS,Health,D0,D45,D90,D135,D180,D225,D270,D315,DUp,CAn,CDis
MODE, 262548185, 100, 100, 2
FMT, 254, 47, NKT1, QIffffffff, TimeUS,Cnt,IMUMin,IMUMax,EKFMin,EKFMax,AngMin,AngMax,VelMin,VelM
FMT, 253, 31, CTRL, Qfffff, TimeUS,RMSRollP,RMSRollD,RMSPitchP,RMSPitchD,RMSYaw
MSG, 262693667, APM:Copter V3.5.7 (870dd8f0)
MSG, 262693671, New mission
MSG, 262693683, Frame: QUAD
MODE, 262693688, Autonomous, 100, 2
IMU, 262730896, 6.531624E-06, -0.0005777071, 0.0002164188, 0.08850145, -0.07884367, -9.725586, 0, 0, 38.80516, 1, 1, 1000, 1000
RFND, 262733115, 0.2, 25, 0, 0
IMU, 262770829, -0.001054185, -0.0008323619, -0.0001638569, 0.08763237, -0.08694398, -9.754554, 0, 0, 38.80705, 1, 1, 1000, 1000
MAG, 262783213, 180, 630, 136, 0, 0, 0, 0, 0, 0, 1, 262783205
RFND, 262783237, 0.2, 25, 0, 0
BARO, 262783343, -0.1299156, 987.9731, 37.59, 0.002083205, 262783, 0, 34.84
CTUN, 262783357, 0, 0, 0, 0.3041818, 0.05514909, 0.05514909, -0.12, 0, 0.19, 0, 0, 0
ATT, 262783409, 0, 0.52, 0, -0.56, 12.97, 12.98, 0, 1
RATE, 262783415, -2.360105, 0.04588605, -0.005953062, 2.552936, -0.005177122, 0.005955993, -0.01112448, -0.08819975, 0.0001015195, 363.9495, -0.7610321, 0
NKF1, 262783423, 0.52, -0.56, 12.98, -0.01231166, -0.02037827, 0.008986407, 0, 0, 0, -0.05514909, 0, 0, 0.03
NKF2, 262783423, 4, 0, 0, 0, 0, 0, 0, 0, 0, 0, 0, 0, 0
NKF3, 262783423, 0, 0, 0, -0.01, -0.01, 0.01, 0, 0, 0, 0, 0
NKF4, 262783423, 0, 0, 0, 0, 0, 2.975092E-05, 0, 0, 0, 19, 229, 0, 0
NKF5, 262783423, 0, 0, 0, 0, 0.18, 0.13, 0, 0.19, 0.5, 6.418606E-05, 0.00220594, 0.003844094
NKQ1, 262783423, -0.9935745, -0.002977213, -0.005259142, -0.1130191
AHR2, 262783468, 0.78, -0.33, 18.75, -0.12, 0, 0, 0.9866011, 0.007192445, -0.001756923, 0.1629832
MOTB, 262783475, 1, 1, 0, 1
RCIN, 262783480, 0, 0, 0, 0, 0, 0, 0, 0, 0, 0, 0, 0, 0, 0
RCOU, 262783486, 1101, 1101, 1101, 1101, 0, 0, 0, 0, 0, 0, 0, 0, 0, 0
VIBE, 262783495, 0.02025582, 0.02158295, 0.03133687, 0, 0, 0
CTRL, 262783501, 0.005551954, 0.0001770585, 0.005986951, 0.0001814868, 6.091382E-05
PRX, 262783534, 2, 0.72, 0, 0.56, 0, 3.57, 0, 2.39, 0, 0, 90, 0.56
IMU, 262811476, -0.0009465923, -0.0005507763, 0.0001036724, 0.08615519, -0.08804977, -9.73521, 0, 0, 38.80857, 1, 1, 1000, 1000
RFND, 262833119, 0.2, 25, 0, 0
IMU, 262850847, 0.0004016728, -3.447908E-05, 0.0003112053, 0.08878167, -0.07057835, -9.763268, 0, 0, 38.80907, 1, 1, 1000, 1000
MAG, 262883095, 176, 631, 135, 0, 0, 0, 0, 0, 0, 1, 262883087
RFND, 262883117, 0.2, 25, 0, 0
BARO, 262883147, -0.1299156, 987.9736, 37.59, -0.3740401, 262883, 0, 34.84
CTUN, 262883160, 0, 0, 0, 0.3041818, 0.05519475, 0.05519475, -0.12, 0, 0.19, 0, 0, 0
ATT, 262883206, 0, 0.52, 0, -0.56, 12.96, 12.97, 0, 1
RATE, 262883212, -2.354391, -0.06362588, -0.005045834, 2.558205, 0.02715448, 0.006087356, -0.01040994, -0.04409422, 4.807926E-05, 366.3456, 1.737118, 0
NKF1, 262883220, 0.52, -0.56, 12.97, -0.01233863, -0.02123054, 0.009045571, 0, 0, 0, -0.05519475, 0, 0, 0.03
NKF2, 262883220, 4, 0, 0, 0, 0, 0, 0, 0, 0, 0, 0, 0, 0
NKF3, 262883220, 0, 0, 0, -0.01, -0.01, 0.01, 0, 0, 0, 0, 0
NKF4, 262883220, 0, 0, 0, 0, 0, 1.965371E-05, 0, 0, 0, 19, 229, 0, 0
NKF5, 262883220, 0, 0, 0, 0, 0.19, 0.13, 0, 0.19, 0.5, 3.973594E-05, 0.002266097, 0.004129617
NKQ1, 262883220, -0.9935768, -0.002967702, -0.005248991, -0.1129995
AHR2, 262883322, 0.78, -0.33, 18.75, -0.12, 0, 0, 0.9866015, 0.007190425, -0.001742154, 0.162981
MOTB, 262883329, 1, 1, 0, 1
RCIN, 262883334, 0, 0, 0, 0, 0, 0, 0, 0, 0, 0, 0, 0, 0, 0
RCOU, 262883340, 1101, 1101, 1101, 1101, 0, 0, 0, 0, 0, 0, 0, 0, 0, 0
VIBE, 262883350, 0.02162408, 0.01953504, 0.0349559, 0, 0, 0
CTRL, 262883356, 0.00555298, 0.0001713422, 0.00600281, 0.0001660728, 6.753027E-05
PRX, 262883388, 2, 0.72, 0, 0.56, 0, 3.59, 0, 2.39, 0, 0, 90, 0.56
IMU, 262890926, -0.00130378, -0.0003021912, 0.0001100863, 0.083566, -0.07997562, -9.752891, 0, 0, 38.80996, 1, 1, 1000, 1000
IMU, 262930879, -0.0009676326, 0.001111279, 0.0003614763, 0.08255715, -0.07817261, -9.752902, 0, 0, 38.80967, 1, 1, 1000, 1000
RFND, 262933139, 0.2, 25, 0, 0
IMU, 262971123, -0.001725954, -0.001092688, -9.417669E-05, 0.07831263, -0.08073569, -9.757236, 0, 0, 38.80993, 1, 1, 1000, 1000
MAG, 262983179, 176, 626, 136, 0, 0, 0, 0, 0, 0, 1, 262983171
RFND, 262983203, 0.2, 25, 0, 0
BARO, 262983235, -0.05083654, 987.9648, 37.59, -0.4229932, 262983, 0, 34.84
CTUN, 262983329, 0, 0, 0, 0.3041818, 0.05512724, 0.05512724, -0.05, 0, 0.19, 0, 0, 0
ATT, 262983385, 0, 0.52, 0, -0.56, 12.96, 12.97, 0, 1
RATE, 262983392, -2.340867, 0.01649901, -0.005938567, 2.561308, 0.01716383, 0.005672691, -0.01143969, -0.007439617, 2.609633E-05, 366.9594, 0.3454208, 0
NKF1, 262983400, 0.52, -0.56, 12.97, -0.01310126, -0.02238521, 0.009060727, 0, 0, 0, -0.05512724, 0, 0, 0.03
NKF2, 262983400, 4, 0, 0, 0, 0, 0, 0, 0, 0, 0, 0, 0, 0
NKF3, 262983400, 0, 0, 0, -0.01, -0.02, 0.01, 0, 0, 0, 0, 0
NKF4, 262983400, 0, 0, 0, 0, 0, 1.317027E-05, 0, 0, 0, 19, 229, 0, 0
NKF5, 262983400, 0, 0, 0, 0, 0.19, 0.13, 0, 0.19, 0.5, 2.728976E-05, 0.002373602, 0.004541965
NKQ1, 262983400, -0.9935779, -0.002943519, -0.005240289, -0.1129902
AHR2, 262983446, 0.77, -0.32, 18.75, -0.05, 0, 0, 0.9866003, 0.007174866, -0.001729988, 0.1629886
MOTB, 262983454, 1, 1, 0, 1
RCIN, 262983458, 0, 0, 0, 0, 0, 0, 0, 0, 0, 0, 0, 0, 0, 0
RCOU, 262983465, 1101, 1101, 1101, 1101, 0, 0, 0, 0, 0, 0, 0, 0, 0, 0
VIBE, 262983474, 0.02144577, 0.01973198, 0.03651448, 0, 0, 0
CTRL, 262983481, 0.005509725, 0.0001859956, 0.006024518, 0.0001749063, 5.781674E-05
PRX, 262983512, 2, 0.72, 0, 0.56, 0, 3.59, 0, 2.4, 0, 0, 90, 0.56
IMU, 263010973, -0.0004496648, -0.0003781162, 0.0003210058, 0.1063307, -0.08225675, -9.767123, 0, 0, 38.8097, 1, 1, 1000, 1000
RFND, 263033079, 0.2, 25, 0, 0
IMU, 263050848, 0.0001184923, 0.001113213, 0.0007882004, 0.1023956, -0.08280087, -9.764255, 0, 0, 38.80974, 1, 1, 1000, 1000
MAG, 263083181, 179, 630, 135, 0, 0, 0, 0, 0, 0, 1, 263083174
RFND, 263083205, 0.2, 25, 0, 0
BARO, 263083237, -0.09602457, 987.9698, 37.59, -0.1503795, 263083, 0, 34.84
CTUN, 263083309, 0, 0, 0, 0.3041818, 0.05518179, 0.05518179, -0.09, 0, 0.19, 0, 0, 0
ATT, 263083359, 0, 0.51, 0, -0.56, 12.96, 12.97, 0, 1
RATE, 263083365, -2.329617, -0.04752269, -0.005269089, 2.549866, 0.07711166, 0.005647315, -0.01147038, -0.02860921, -3.641529E-06, 369.9734, -2.014637, 0
NKF1, 263083373, 0.51, -0.56, 12.97, -0.01253134, -0.02378476, 0.009135146, 0, 0, 0, -0.05518179, 0, 0, 0.03
NKF2, 263083373, 4, 0, 0, 0, 0, 0, 0, 0, 0, 0, 0, 0, 0
NKF3, 263083373, 0, 0, 0, -0.01, -0.02, 0.01, 0, 0, 0, 0, 0
NKF4, 263083373, 0, 0, 0, 0, 0, 8.898605E-06, 0, 0, 0, 19, 229, 0, 0
NKF5, 263083373, 0, 0, 0, 0, 0.18, 0.13, 0, 0.19, 0.5, 2.822096E-05, 0.002395375, 0.004665453
NKQ1, 263083373, -0.9935784, -0.002916664, -0.005261484, -0.1129861
AHR2, 263083416, 0.77, -0.32, 18.76, -0.09, 0, 0, 0.9865984, 0.007154951, -0.001691861, 0.163002
MOTB, 263083423, 1, 1, 0, 1
RCIN, 263083427, 0, 0, 0, 0, 0, 0, 0, 0, 0, 0, 0, 0, 0, 0
RCOU, 263083433, 1101, 1101, 1101, 1101, 0, 0, 0, 0, 0, 0, 0, 0, 0, 0
VIBE, 263083442, 0.02369982, 0.01946184, 0.03360725, 0, 0, 0
CTRL, 263083449, 0.005496894, 0.0001984382, 0.005999895, 0.0001822429, 4.791645E-05
PRX, 263083481, 2, 0.72, 0, 0.56, 0, 3.59, 0, 2.4, 0, 0, 90, 0.56
IMU, 263090906, -0.0005918979, 0.001413028, 0.0006563425, 0.08204623, -0.09727303, -9.743876, 0, 0, 38.8098, 1, 1, 1000, 1000
IMU, 263130868, -0.0007514952, -0.0008140567, 0.0004888073, 0.09072116, -0.08632982, -9.759632, 0, 0, 38.80971, 1, 1, 1000, 1000
RFND, 263133084, 0.2, 25, 0, 0
IMU, 263170942, -0.0004165193, 0.0002618836, 0.0002975361, 0.08957041, -0.07350229, -9.774939, 0, 0, 38.80967, 1, 1, 1000, 1000
MAG, 263183425, 176, 633, 137, 0, 0, 0, 0, 0, 0, 1, 263183417
RFND, 263183450, 0.2, 25, 0, 0
BARO, 263183482, -0.1581581, 987.9766, 37.59, 0.07067093, 263183, 0, 34.84
CTUN, 263183497, 0, 0, 0, 0.3041818, 0.0551271, 0.0551271, -0.15, 0, 0.19, 0, 0, 0
ATT, 263183548, 0, 0.51, 0, -0.56, 12.96, 12.97, 0, 1
RATE, 263183554, -2.317426, 0.01083983, -0.005650267, 2.560946, -0.0404754, 0.006228757, -0.01090963, -0.03382655, 6.81123E-06, 358.5952, 0.1996994, 0
NKF1, 263183562, 0.51, -0.56, 12.97, -0.01273539, -0.02488134, 0.008854204, 0, 0, 0, -0.0551271, 0, 0, 0.03
NKF2, 263183562, 4, 0, 0, 0, 0, 0, 0, 0, 0, 0, 0, 0, 0
NKF3, 263183562, 0, 0, 0, -0.02, -0.02, 0.01, 0, 0, 0, 0, 0
NKF4, 263183562, 0, 0, 0, 0, 0, 6.067846E-06, 0, 0, 0, 19, 229, 0, 0
NKF5, 263183562, 0, 0, 0, 0, 0.19, 0.13, 0, 0.19, 0.5, 3.346258E-05, 0.002433698, 0.004880217
NKQ1, 263183562, -0.9935798, -0.002896211, -0.005236773, -0.1129751
AHR2, 263183605, 0.77, -0.32, 18.76, -0.15, 0, 0, 0.9865974, 0.007145986, -0.001699985, 0.1630084
MOTB, 263183612, 1, 1, 0, 1
RCIN, 263183616, 0, 0, 0, 0, 0, 0, 0, 0, 0, 0, 0, 0, 0, 0
RCOU, 263183622, 1101, 1101, 1101, 1101, 0, 0, 0, 0, 0, 0, 0, 0, 0, 0
VIBE, 263183631, 0.02173275, 0.02244007, 0.03296053, 0, 0, 0
CTRL, 263183638, 0.00546835, 0.0001829867, 0.006023686, 0.0001913972, 3.971237E-05
PRX, 263183670, 2, 0.72, 0, 0.56, 0, 3.59, 0, 2.4, 0, 0, 90, 0.56
IMU, 263211005, -0.0003941286, -0.000835655, 0.001171435, 0.087061, -0.08384826, -9.757088, 0, 0, 38.80956, 1, 1, 1000, 1000
RFND, 263233181, 0.2, 25, 0, 0
IMU, 263250959, -0.001007082, -0.0001467575, 0.0001222727, 0.07373734, -0.0749237, -9.739867, 0, 0, 38.80892, 1, 1, 1000, 1000
DU32, 263273157, 7, 50389208
MAG, 263283205, 175, 637, 131, 0, 0, 0, 0, 0, 0, 1, 263283197
RFND, 263283226, 0.2, 25, 0, 0
BARO, 263283319, -0.1864007, 987.9799, 37.59, -0.01412124, 263283, 0, 34.84
CTUN, 263283335, 0, 0, 0, 0.3041818, 0.05512886, 0.05512886, -0.18, 0, 0.19, 0, 0, 0
ATT, 263283387, 0, 0.51, 0, -0.57, 12.96, 12.97, 0, 1
RATE, 263283394, -2.300666, -0.03678725, -0.005468189, 2.5683, 0.05601872, 0.005619376, -0.01280772, -0.005382509, -3.132517E-05, 361.9787, 0.179863, 0
NKF1, 263283401, 0.51, -0.57, 12.97, -0.01305767, -0.0262547, 0.008937745, 0, 0, 0, -0.05512885, 0, 0, 0.03
NKF2, 263283401, 4, 0, 0, 0, 0, 0, 0, 0, 0, 0, 0, 0, 0
NKF3, 263283401, 0, 0, 0, -0.02, -0.02, 0.01, 0, 0, 0, 0, 0
NKF4, 263283401, 0, 0, 0, 0, 0, 4.189603E-06, 0, 0, 0, 19, 229, 0, 0
NKF5, 263283401, 0, 0, 0, 0, 0.18, 0.13, 0, 0.19, 0.5, 3.7921E-05, 0.002404545, 0.004888612
NKQ1, 263283401, -0.993579, -0.002865493, -0.005219941, -0.1129842
AHR2, 263283446, 0.77, -0.32, 18.76, -0.18, 0, 0, 0.9865931, 0.007129442, -0.001700879, 0.1630346
MOTB, 263283454, 1, 1, 0, 1
RCIN, 263283458, 0, 0, 0, 0, 0, 0, 0, 0, 0, 0, 0, 0, 0, 0
RCOU, 263283465, 1101, 1101, 1101, 1101, 0, 0, 0, 0, 0, 0, 0, 0, 0, 0
VIBE, 263283474, 0.024895, 0.02128804, 0.03794159, 0, 0, 0
CTRL, 263283480, 0.005436943, 0.0001645214, 0.006053227, 0.0001959044, 4.066836E-05
PRX, 263283513, 2, 0.72, 0, 0.56, 0, 3.59, 0, 2.4, 0, 0, 90, 0.56
IMU, 263291133, -0.0005268007, 0.0007197444, 0.0001678266, 0.09451085, -0.0811031, -9.742063, 0, 0, 38.8091, 1, 1, 1000, 1000
IMU, 263331041, 0.0001757142, 0.0005657888, 0.0005662695, 0.09348421, -0.08381302, -9.742249, 0, 0, 38.80778, 1, 1, 1000, 1000
RFND, 263333202, 0.2, 25, 0, 0
IMU, 263370966, -0.0003948357, -0.001598547, 0.001443574, 0.08287611, -0.08660676, -9.756914, 0, 0, 38.80627, 1, 1, 1000, 1000
MAG, 263383227, 180, 636, 135, 0, 0, 0, 0, 0, 0, 1, 263383219
RFND, 263383316, 0.2, 25, 0, 0
BARO, 263383352, -0.1016731, 987.9705, 37.58, -0.2294705, 263383, 0, 34.84
CTUN, 263383367, 0, 0, 0, 0.3041818, 0.0551338, 0.0551338, -0.1, 0, 0.19, 0, 0, 0
ATT, 263383419, 0, 0.5, 0, -0.57, 12.96, 12.97, 0, 1
RATE, 263383425, -2.285926, 0.006688115, -0.005493095, 2.584491, -0.1208755, 0.006530355, -0.01208949, -0.03877132, -7.947578E-05, 349.0946, 0.5021095, 0
NKF1, 263383433, 0.5, -0.57, 12.97, -0.01295101, -0.02764464, 0.008619619, 0, 0, 0, -0.0551338, 0, 0, 0.03
NKF2, 263383433, 4, 0, 0, 0, 0, 0, 0, 0, 0, 0, 0, 0, 0
NKF3, 263383433, 0, 0, 0, -0.02, -0.03, 0.01, 0, 0, 0, 0, 0
NKF4, 263383433, 0, 0, 0, 0, 0, 2.957608E-06, 0, 0, 0, 19, 229, 0, 0
NKF5, 263383433, 0, 0, 0, 0, 0.19, 0.13, 0, 0.19, 0.5, 3.985139E-05, 0.002375553, 0.004911062
NKQ1, 263383433, -0.9935781, -0.002839665, -0.005185215, -0.1129941
AHR2, 263383478, 0.77, -0.32, 18.76, -0.09999999, 0, 0, 0.9865887, 0.007116458, -0.001720587, 0.1630622
MOTB, 263383485, 1, 1, 0, 1
RCIN, 263383489, 0, 0, 0, 0, 0, 0, 0, 0, 0, 0, 0, 0, 0, 0
RCOU, 263383495, 1101, 1101, 1101, 1101, 0, 0, 0, 0, 0, 0, 0, 0, 0, 0
VIBE, 263383504, 0.02588224, 0.0216662, 0.03542904, 0, 0, 0
CTRL, 263383511, 0.005396691, 0.0001730551, 0.006077375, 0.0002241263, 4.894106E-05
PRX, 263383543, 2, 0.72, 0, 0.56, 0, 3.59, 0, 2.4, 0, 0, 90, 0.56
IMU, 263410958, -0.001137858, -0.00248091, 0.0014575, 0.09769936, -0.06929941, -9.745832, 0, 0, 38.80505, 1, 1, 1000, 1000
RFND, 263433364, 0.2, 25, 0, 0
IMU, 263451565, 0.0002079797, 0.0006407037, 0.001409201, 0.08006001, -0.08045596, -9.754399, 0, 0, 38.80265, 1, 1, 1000, 1000
MAG, 263483337, 180, 627, 141, 0, 0, 0, 0, 0, 0, 1, 263483329
RFND, 263483358, 0.2, 25, 0, 0
BARO, 263483392, -0.1976977, 987.981, 37.58, -0.2259402, 263483, 0, 34.84
CTUN, 263483406, 0, 0, 0, 0.3041818, 0.05504893, 0.05504893, -0.19, 0, 0.19, 0, 0, 0
ATT, 263483457, 0, 0.5, 0, -0.57, 12.96, 12.97, 0, 1
RATE, 263483463, -2.278485, 0.06527721, -0.005877574, 2.603263, -0.06742854, 0.006460801, -0.01152878, -0.06042544, -2.085156E-05, 362.9351, 0.01277924, 0
NKF1, 263483470, 0.5, -0.57, 12.97, -0.01317462, -0.02887848, 0.008961361, 0, 0, 0, -0.05504893, 0, 0, 0.03
NKF2, 263483470, 4, 0, 0, 0, 0, 0, 0, 0, 0, 0, 0, 0, 0
NKF3, 263483470, 0, 0, 0, -0.02, -0.03, 0.01, 0, 0, 0, 0, 0
NKF4, 263483470, 0, 0, 0, 0, 0, 2.151519E-06, 0, 0, 0, 19, 229, 0, 0
NKF5, 263483470, 0, 0, 0, 0, 0.18, 0.13, 0, 0.19, 0.5, 4.059803E-05, 0.002314646, 0.004828383
NKQ1, 263483470, -0.9935788, -0.002829457, -0.005146649, -0.1129903
AHR2, 263483517, 0.77, -0.33, 18.76, -0.19, 0, 0, 0.9865864, 0.007114765, -0.001745136, 0.1630757
MOTB, 263483524, 1, 1, 0, 1
RCIN, 263483528, 0, 0, 0, 0, 0, 0, 0, 0, 0, 0, 0, 0, 0, 0
RCOU, 263483534, 1101, 1101, 1101, 1101, 0, 0, 0, 0, 0, 0, 0, 0, 0, 0
VIBE, 263483542, 0.02302426, 0.02114206, 0.03400127, 0, 0, 0
CTRL, 263483548, 0.00536905, 0.0001709662, 0.006125293, 0.0002286343, 5.541075E-05
PRX, 263483580, 2, 0.72, 0, 0.56, 0, 3.59, 0, 2.4, 0, 0, 90, 0.56
IMU, 263490925, 0.00118487, -0.0006314305, -0.0003196629, 0.09131186, -0.08665268, -9.759048, 0, 0, 38.79941, 1, 1, 1000, 1000
IMU, 263530976, -3.3643E-05, 0.001626418, -7.053538E-05, 0.1047983, -0.07224973, -9.759399, 0, 0, 38.79662, 1, 1, 1000, 1000
RFND, 263533215, 0.2, 25, 0, 0
IMU, 263570825, 0.001316242, 0.0008057944, 0.0008944491, 0.08324227, -0.07117997, -9.746588, 0, 0, 38.79497, 1, 1, 1000, 1000
MAG, 263583252, 177, 633, 129, 0, 0, 0, 0, 0, 0, 1, 263583244
RFND, 263583270, 0.2, 25, 0, 0
BARO, 263583305, -0.1864007, 987.9794, 37.58, -0.08119725, 263583, 0, 34.84
CTUN, 263583317, 0, 0, 0, 0.3041818, 0.05514621, 0.05514621, -0.18, 0, 0.19, 0, 0, 0
ATT, 263583433, 0, 0.5, 0, -0.57, 12.96, 12.97, 0, 1
RATE, 263583440, -2.288971, 0.00179368, -0.00509662, 2.594052, -0.03141068, 0.006548426, -0.01296552, 0.08137024, -5.866084E-05, 339.4029, -0.05130768, 0
NKF1, 263583448, 0.5, -0.57, 12.97, -0.0134007, -0.03007914, 0.008380318, 0, 0, 0, -0.05514621, 0, 0, 0.03
NKF2, 263583448, 4, 0, 0, 0, 0, 0, 0, 0, 0, 0, 0, 0, 0
NKF3, 263583448, 0, 0, 0, -0.02, -0.03, 0.01, 0, 0, 0, 0, 0
NKF4, 263583448, 0, 0, 0, 0, 0, 1.65297E-06, 0, 0, 0, 19, 229, 0, 0
NKF5, 263583448, 0, 0, 0, 0, 0.18, 0.13, 0, 0.19, 0.5, 3.973711E-05, 0.00224272, 0.004722368
NKQ1, 263583448, -0.9935773, -0.002850425, -0.005169125, -0.1130017
AHR2, 263583492, 0.77, -0.32, 18.77, -0.18, 0, 0, 0.9865816, 0.007142695, -0.001706752, 0.163104
MOTB, 263583500, 1, 1, 0, 1
RCIN, 263583504, 0, 0, 0, 0, 0, 0, 0, 0, 0, 0, 0, 0, 0, 0
RCOU, 263583511, 1101, 1101, 1101, 1101, 0, 0, 0, 0, 0, 0, 0, 0, 0, 0
VIBE, 263583520, 0.02312534, 0.02354134, 0.03348913, 0, 0, 0
CTRL, 263583526, 0.005407679, 0.0001714658, 0.006104824, 0.0002123888, 4.693377E-05
PRX, 263583558, 2, 0.72, 0, 0.56, 0, 3.59, 0, 2.4, 0, 0, 90, 0.56
IMU, 263610828, -0.001349423, 0.0001905184, 0.001487638, 0.08329214, -0.08654952, -9.743555, 0, 0, 38.79372, 1, 1, 1000, 1000
RFND, 263633222, 0.2, 25, 0, 0
IMU, 263650685, 0.0004537468, 0.000754628, -0.0001952615, 0.08441431, -0.07803822, -9.747378, 0, 0, 38.79298, 1, 1, 1000, 1000
MAG, 263685062, 181, 631, 132, 0, 0, 0, 0, 0, 0, 1, 263685054
RFND, 263685084, 0.2, 25, 0, 0
BARO, 263685115, -0.1412126, 987.9744, 37.58, -0.06702907, 263685, 0, 34.84
CTUN, 263685128, 0, 0, 0, 0.3041818, 0.0550179, 0.0550179, -0.14, 0, 0.19, 0, 0, 0
ATT, 263685174, 0, 0.5, 0, -0.57, 12.96, 12.97, 0, 1
RATE, 263685180, -2.280422, -0.01572019, -0.005308731, 2.595464, -0.0780406, 0.00618611, -0.01319995, -0.01214301, -2.938343E-05, 362.0815, -0.1852989, 0
NKF1, 263685189, 0.5, -0.57, 12.97, -0.01353381, -0.03211481, 0.008940282, 0, 0, 0, -0.0550179, 0, 0, 0.03
NKF2, 263685189, 4, 0, 0, 0, 0, 0, 0, 0, 0, 0, 0, 0, 0
NKF3, 263685189, 0, 0, 0, -0.02, -0.03, 0.01, 0, 0, 0, 0, 0
NKF4, 263685189, 0, 0, 0, 0, 0, 1.332019E-06, 0, 0, 0, 19, 229, 0, 0
NKF5, 263685189, 0, 0, 0, 0, 0.18, 0.13, 0, 0.19, 0.5, 3.910969E-05, 0.002176977, 0.004603728
NKQ1, 263685189, -0.9935773, -0.002831888, -0.005163403, -0.1130026
AHR2, 263685232, 0.77, -0.32, 18.77, -0.14, 0, 0, 0.9865786, 0.007135335, -0.001697359, 0.1631224
MOTB, 263685239, 1, 1, 0, 1
RCIN, 263685244, 0, 0, 0, 0, 0, 0, 0, 0, 0, 0, 0, 0, 0, 0
RCOU, 263685249, 1101, 1101, 1101, 1101, 0, 0, 0, 0, 0, 0, 0, 0, 0, 0
VIBE, 263685258, 0.02144811, 0.02204786, 0.0330141, 0, 0, 0
CTRL, 263685264, 0.005384022, 0.0001751927, 0.006113484, 0.000219415, 6.386122E-05
PRX, 263685296, 2, 0.72, 0, 0.56, 0, 3.59, 0, 2.4, 0, 0, 90, 0.56
IMU, 263692537, -0.0005803013, -0.0009431889, 0.00100862, 0.0945062, -0.09051158, -9.755073, 0, 0, 38.79306, 1, 1, 1000, 1000
IMU, 263732497, -0.001865794, -0.001141635, 0.0003873701, 0.08245981, -0.07758112, -9.747954, 0, 0, 38.79325, 1, 1, 1000, 1000
RFND, 263735183, 0.2, 25, 0, 0
IMU, 263772541, 0.0003499463, 0.001426101, -0.0003213469, 0.08313391, -0.07183974, -9.751992, 0, 0, 38.79303, 1, 1, 1000, 1000
MAG, 263785048, 182, 630, 131, 0, 0, 0, 0, 0, 0, 1, 263785040
RFND, 263785069, 0.2, 25, 0, 0
BARO, 263785100, -0.1073216, 987.9709, 37.58, -0.06034916, 263785, 0, 34.84
CTUN, 263785112, 0, 0, 0, 0.3041818, 0.05507262, 0.05507262, -0.1, 0, 0.19, 0, 0, -1
ATT, 263785159, 0, 0.5, 0, -0.57, 12.96, 12.97, 0, 1
RATE, 263785166, -2.267234, 0.03001212, -0.005461687, 2.59632, -0.007287567, 0.006358026, -0.01024555, -0.02657854, 2.166967E-05, 421.5047, -2.32048, 0
NKF1, 263785173, 0.5, -0.57, 12.97, -0.01411859, -0.03388829, 0.01040752, 0, 0, 0, -0.05507262, 0, 0, 0.03
NKF2, 263785173, 4, 0, 0, 0, 0, 0, 0, 0, 0, 0, 0, 0, 0
NKF3, 263785173, 0, 0, 0, -0.02, -0.04, 0.01, 0, 0, 0, 0, 0
NKF4, 263785173, 0, 0, 0, 0, 0, 1.177027E-06, 0, 0, 0, 19, 229, 0, 0
NKF5, 263785173, 0, 0, 0, 0, 0.18, 0.13, 0, 0.19, 0.5, 3.763278E-05, 0.002079739, 0.004417051
NKQ1, 263785173, -0.99358, -0.002807018, -0.005158086, -0.1129796
AHR2, 263785217, 0.77, -0.32, 18.77, -0.09999999, 0, 0, 0.9865797, 0.007121176, -0.001689007, 0.1631168
MOTB, 263785224, 1, 1, 0, 1
RCIN, 263785229, 0, 0, 0, 0, 0, 0, 0, 0, 0, 0, 0, 0, 0, 0
RCOU, 263785235, 1101, 1101, 1101, 1101, 0, 0, 0, 0, 0, 0, 0, 0, 0, 0
VIBE, 263785243, 0.02138109, 0.02072209, 0.03515991, 0, 0, 0
CTRL, 263785249, 0.005349435, 0.0001712315, 0.006123391, 0.0002139066, 5.322839E-05
PRX, 263785282, 2, 0.72, 0, 0.56, 0, 3.59, 0, 2.4, 0, 0, 90, 0.56
IMU, 263812512, -0.0007682485, 0.001220763, 0.0007104729, 0.08727971, -0.08913508, -9.761623, 0, 0, 38.79389, 1, 1, 1000, 1000
RFND, 263835268, 0.2, 25, 0, 0
IMU, 263852693, -0.0007304429, -0.0005165544, 0.0004335246, 0.08803114, -0.08236548, -9.748868, 0, 0, 38.79486, 1, 1, 1000, 1000
MAG, 263885036, 179, 637, 133, 0, 0, 0, 0, 0, 0, 1, 263885028
RFND, 263885060, 0.2, 25, 0, 0
BARO, 263885090, -0.06213355, 987.9659, 37.58, 0.119063, 263885, 0, 34.84
CTUN, 263885103, 0, 0, 0, 0.3041818, 0.0549741, 0.0549741, -0.06, 0, 0.19, 0, 0, -1
ATT, 263885147, 0, 0.5, 0, -0.57, 12.96, 12.97, 0, 1
RATE, 263885154, -2.254102, -0.0004468538, -0.005471485, 2.606203, -0.08166164, 0.006332971, -0.01217053, 0.05486127, -3.472114E-05, 420.198, -3.038979, 0
NKF1, 263885161, 0.5, -0.57, 12.97, -0.01453453, -0.03591726, 0.01037526, 0, 0, 0, -0.0549741, 0, 0, 0.03
NKF2, 263885161, 4, 0, 0, 0, 0, 0, 0, 0, 0, 0, 0, 0, 0
NKF3, 263885161, 0, 0, 0, -0.02, -0.04, 0.01, 0, 0, 0, 0, 0
NKF4, 263885161, 0, 0, 0, 0, 0, 1.100584E-06, 0, 0, 0, 19, 229, 0, 0
NKF5, 263885161, 0, 0, 0, 0, 0.19, 0.13, 0, 0.19, 0.5, 3.614545E-05, 0.001991892, 0.004268311
NKQ1, 263885161, -0.9935793, -0.002785103, -0.005137899, -0.112987
AHR2, 263885204, 0.77, -0.32, 18.77, -0.06, 0, 0, 0.9865757, 0.007111218, -0.001696954, 0.1631413
MOTB, 263885211, 1, 1, 0, 1
RCIN, 263885216, 0, 0, 0, 0, 0, 0, 0, 0, 0, 0, 0, 0, 0, 0
RCOU, 263885221, 1101, 1101, 1101, 1101, 0, 0, 0, 0, 0, 0, 0, 0, 0, 0
VIBE, 263885230, 0.02021749, 0.02068468, 0.0393049, 0, 0, 0
CTRL, 263885236, 0.005326033, 0.0001587216, 0.006135491, 0.0001977304, 4.470426E-05
PRX, 263885268, 2, 0.72, 0, 0.56, 0, 1.44, 0, 2.4, 0, 0, 90, 0.56
IMU, 263892482, 0.0003197196, -0.0004791941, 0.001648813, 0.09002114, -0.0847481, -9.740632, 0, 0, 38.79498, 1, 1, 1000, 1000
IMU, 263932617, -9.883987E-05, 4.59415E-05, 0.000630759, 0.08471288, -0.07952291, -9.755239, 0, 0, 38.79549, 1, 1, 1000, 1000
RFND, 263935206, 0.2, 25, 0, 0
IMU, 263972620, 4.530784E-05, -2.663026E-05, 0.0002677199, 0.1020307, -0.08400637, -9.739172, 0, 0, 38.79481, 1, 1, 1000, 1000
MAG, 263985212, 180, 630, 132, 0, 0, 0, 0, 0, 0, 1, 263985204
RFND, 263985235, 0.2, 25, 0, 0
BARO, 263985266, -0.02824252, 987.9621, 37.58, 0.3138205, 263985, 0, 34.84
CTUN, 263985279, 0, 0, 0, 0.3041818, 0.05481876, 0.05481876, -0.02, 0, 0.19, 0, 0, -1
ATT, 263985327, 0, 0.5, 0, -0.57, 12.96, 12.97, 0, 1
RATE, 263985333, -2.25462, 0.001100245, -0.005294599, 2.596611, 0.04097021, 0.005807934, -0.0103801, -0.08012612, -1.145846E-05, 430.203, -0.2698898, 0
NKF1, 263985341, 0.5, -0.57, 12.97, -0.01443001, -0.0378481, 0.01062229, 0, 0, 0, -0.05481876, 0, 0, 0.03
NKF2, 263985341, 4, 0, 0, 0, 0, 0, 0, 0, 0, 0, 0, 0, 0
NKF3, 263985341, 0, 0, 0, -0.02, -0.04, 0.01, 0, 0, 0, 0, 0
NKF4, 263985341, 0, 0, 0, 0, 0, 1.09819E-06, 0, 0, 0, 19, 229, 0, 0
NKF5, 263985341, 0, 0, 0, 0, 0.18, 0.13, 0, 0.19, 0.5, 3.583693E-05, 0.001910978, 0.004058443
NKQ1, 263985341, -0.9935811, -0.002782091, -0.005153541, -0.1129707
AHR2, 263985532, 0.77, -0.32, 18.77, -0.02, 0, 0, 0.9865755, 0.00711706, -0.001671216, 0.1631422
MOTB, 263985541, 1, 1, 0, 1
RCIN, 263985546, 0, 0, 0, 0, 0, 0, 0, 0, 0, 0, 0, 0, 0, 0
RCOU, 263985552, 1101, 1101, 1101, 1101, 0, 0, 0, 0, 0, 0, 0, 0, 0, 0
VIBE, 263985561, 0.02036945, 0.02145595, 0.04111676, 0, 0, 0
CTRL, 263985568, 0.00532697, 0.0001480221, 0.006130902, 0.0002039692, 4.785116E-05
PRX, 263985599, 2, 0.72, 0, 0.56, 0, 1.44, 0, 2.4, 0, 0, 90, 0.56
IMU, 264012500, -0.0002242901, 0.00112281, 0.0004488086, 0.09414992, -0.09062039, -9.765978, 0, 0, 38.79407, 1, 1, 1000, 1000
RFND, 264035189, 0.2, 25, 0, 0
IMU, 264052558, 0.0008944771, 0.0007852917, -0.001023295, 0.07916198, -0.07787456, -9.756215, 0, 0, 38.7934, 1, 1, 1000, 1000
MAG, 264085022, 175, 632, 126, 0, 0, 0, 0, 0, 0, 1, 264085014
RFND, 264085040, 0.2, 25, 0, 0
BARO, 264085072, -0.05083654, 987.9648, 37.59, 0.3660167, 264085, 0, 34.84
CTUN, 264085085, 0, 0, 0, 0.3041818, 0.05473887, 0.05473887, -0.05, 0, 0.19, 0, 0, -1
ATT, 264085130, 0, 0.5, 0, -0.57, 12.96, 12.97, 0, 1
RATE, 264085136, -2.258935, -0.05263398, -0.004849078, 2.5898, -0.06774129, 0.006528008, -0.01215116, -0.01129839, 0.0001355499, 418.7177, -0.2540588, 0
NKF1, 264085144, 0.5, -0.57, 12.97, -0.01444518, -0.03975633, 0.01033871, 0, 0, 0, -0.05473887, 0, 0, 0.03
NKF2, 264085144, 4, 0, 0, 0, 0, 0, 0, 0, 0, 0, 0, 0, 0
NKF3, 264085144, 0, 0, 0, -0.03, -0.05, 0.01, 0, 0, 0, 0, 0
NKF4, 264085144, 0, 0, 0, 0, 0, 1.153683E-06, 0, 0, 0, 19, 229, 0, 0
NKF5, 264085144, 0, 0, 0, 0, 0.18, 0.13, 0, 0.19, 0.5, 3.457203E-05, 0.001808347, 0.003840205
NKQ1, 264085144, -0.9935861, -0.002790294, -0.00516884, -0.1129266
AHR2, 264085186, 0.77, -0.32, 18.77, -0.05, 0, 0, 0.9865798, 0.007131797, -0.001651756, 0.1631155
MOTB, 264085193, 1, 1, 0, 1
RCIN, 264085198, 0, 0, 0, 0, 0, 0, 0, 0, 0, 0, 0, 0, 0, 0
RCOU, 264085204, 1101, 1101, 1101, 1101, 0, 0, 0, 0, 0, 0, 0, 0, 0, 0
VIBE, 264085212, 0.02128644, 0.02233079, 0.04123665, 0, 0, 0
CTRL, 264085219, 0.00534599, 0.0001478685, 0.006096745, 0.0001940992, 6.567744E-05
PRX, 264085251, 2, 0.72, 0, 0.56, 0, 2.95, 0, 2.4, 0, 0, 90, 0.56
IMU, 264092514, -0.001890699, -0.001267436, 0.0002626284, 0.09650189, -0.07567891, -9.75831, 0, 0, 38.79362, 1, 1, 1000, 1000
IMU, 264132531, -0.0004945733, 0.0008896774, 0.0004185054, 0.09980557, -0.0901546, -9.765091, 0, 0, 38.79315, 1, 1, 1000, 1000
RFND, 264135041, 0.2, 25, 0, 0
IMU, 264172568, 0.0006778608, -0.001038621, -0.0004394794, 0.09428176, -0.08432741, -9.742607, 0, 0, 38.79206, 1, 1, 1000, 1000
MAG, 264185292, 179, 629, 135, 0, 0, 0, 0, 0, 0, 1, 264185284
RFND, 264185309, 0.2, 25, 0, 0
BARO, 264185343, 0.02824252, 987.9559, 37.58, 0.3033843, 264185, 0, 34.84
CTUN, 264185439, 0, 0, 0, 0.3041818, 0.05455482, 0.05455482, 0.02, 0, 0.19, 0, 0, -1
ATT, 264185546, 0, 0.49, 0, -0.57, 12.95, 12.96, 0, 1
RATE, 264185553, -2.251394, -0.0634481, -0.004666323, 2.587176, -0.06787296, 0.006392994, -0.01261606, -0.01941737, 8.755302E-05, 407.6917, -1.678371, 0
NKF1, 264185561, 0.49, -0.57, 12.96, -0.0141173, -0.04156843, 0.01006646, 0, 0, 0, -0.05455482, 0, 0, 0.03
NKF2, 264185561, 4, 0, 0, 0, 0, 0, 0, 0, 0, 0, 0, 0, 0
NKF3, 264185561, 0, 0, 0, -0.03, -0.05, 0.01, 0, 0, 0, 0, 0
NKF4, 264185561, 0, 0, 0, 0, 0, 1.221877E-06, 0, 0, 0, 19, 229, 0, 0
NKF5, 264185561, 0, 0, 0, 0, 0.18, 0.13, 0, 0.19, 0.5, 3.459777E-05, 0.001745415, 0.003689377
NKQ1, 264185561, -0.9935889, -0.002773912, -0.005173185, -0.1129011
AHR2, 264185607, 0.77, -0.31, 18.77, 0.02, 0, 0, 0.9865813, 0.007122586, -0.001642904, 0.1631075
MOTB, 264185615, 1, 1, 0, 1
RCIN, 264185620, 0, 0, 0, 0, 0, 0, 0, 0, 0, 0, 0, 0, 0, 0
RCOU, 264185626, 1101, 1101, 1101, 1101, 0, 0, 0, 0, 0, 0, 0, 0, 0, 0
VIBE, 264185634, 0.02260561, 0.02128422, 0.04063224, 0, 0, 0
CTRL, 264185642, 0.005329169, 0.00016824, 0.006089647, 0.0001941521, 7.285076E-05
PRX, 264185673, 2, 0.72, 0, 0.56, 0, 3.54, 0, 2.4, 0, 0, 90, 0.56
IMU, 264212562, -0.00109638, 0.0002472999, 0.0001562009, 0.09230619, -0.0872495, -9.74612, 0, 0, 38.78969, 1, 1, 1000, 1000
RFND, 264235251, 0.2, 25, 0, 0
IMU, 264252603, -0.0005011283, 0.00151912, 0.0002720984, 0.09090825, -0.08322605, -9.741638, 0, 0, 38.7869, 1, 1, 1000, 1000
DU32, 264275054, 7, 50389208
MAG, 264285280, 180, 631, 134, 0, 0, 0, 0, 0, 0, 1, 264285272
RFND, 264285297, 0.2, 25, 0, 0
BARO, 264285329, 0.09037607, 987.9492, 37.58, 0.2594782, 264285, 0, 34.84
CTUN, 264285342, 0, 0, 0, 0.3041818, 0.05454093, 0.05454093, 0.09, 0, 0.19, 0, 0, -1
ATT, 264285523, 0, 0.49, 0, -0.57, 12.95, 12.96, 0, 1
RATE, 264285530, -2.237075, -0.05055812, -0.004973608, 2.579659, -0.03655667, 0.006357311, -0.0103762, -0.02893297, 5.149283E-05, 413.9162, 1.864243, 0
NKF1, 264285539, 0.49, -0.57, 12.96, -0.01401903, -0.04369698, 0.01022015, 0, 0, 0, -0.05454093, 0, 0, 0.03
NKF2, 264285539, 4, 0, 0, 0, 0, 0, 0, 0, 0, 0, 0, 0, 0
NKF3, 264285539, 0, 0, 0, -0.03, -0.05, 0.01, 0, 0, 0, 0, 0
NKF4, 264285539, 0, 0, 0, 0, 0, 1.363939E-06, 0, 0, 0, 19, 229, 0, 0
NKF5, 264285539, 0, 0, 0, 0, 0.18, 0.13, 0, 0.19, 0.5, 3.321431E-05, 0.001633945, 0.003427195
NKQ1, 264285539, -0.9935919, -0.002745456, -0.005183549, -0.1128756
AHR2, 264285583, 0.77, -0.31, 18.77, 0.09, 0, 0, 0.9865827, 0.00710047, -0.001625118, 0.1630997
MOTB, 264285591, 1, 1, 0, 1
RCIN, 264285596, 0, 0, 0, 0, 0, 0, 0, 0, 0, 0, 0, 0, 0, 0
RCOU, 264285602, 1101, 1101, 1101, 1101, 0, 0, 0, 0, 0, 0, 0, 0, 0, 0
VIBE, 264285611, 0.02347023, 0.02216535, 0.0347265, 0, 0, 0
CTRL, 264285617, 0.005293128, 0.0001696706, 0.006083516, 0.0002156527, 7.36027E-05
PRX, 264285649, 2, 0.72, 0, 0.56, 0, 3.58, 0, 2.4, 0, 0, 90, 0.56
IMU, 264292648, -0.001156994, -0.0003086473, 0.0002348951, 0.09450462, -0.08539838, -9.770988, 0, 0, 38.78402, 1, 1, 1000, 1000
IMU, 264332582, -0.0002266777, 0.0006888864, 0.001475579, 0.08980854, -0.07492472, -9.756704, 0, 0, 38.78125, 1, 1, 1000, 1000
RFND, 264335127, 0.2, 25, 0, 0
IMU, 264372501, 0.0002241581, -0.0006894622, 0.0001296894, 0.08391906, -0.08446053, -9.762188, 0, 0, 38.77882, 1, 1, 1000, 1000
MAG, 264385504, 179, 632, 133, 0, 0, 0, 0, 0, 0, 1, 264385441
RFND, 264385522, 0.2, 25, 0, 0
BARO, 264385557, 0.09037607, 987.9492, 37.58, 0.3406754, 264385, 0, 34.84
CTUN, 264385572, 0, 0, 0, 0.3041818, 0.05434684, 0.05434684, 0.09, 0, 0.19, 0, 0, 0
ATT, 264385671, 0, 0.49, 0, -0.57, 12.95, 12.96, 0, 1
RATE, 264385678, -2.2337, -0.03110185, -0.004977745, 2.59636, -0.07514323, 0.006340326, -0.01118702, -0.01128618, 2.830458E-05, 400.7487, 1.853943, 0
NKF1, 264385686, 0.49, -0.57, 12.96, -0.01431266, -0.04544468, 0.009895029, 0, 0, 0, -0.05434684, 0, 0, 0.03
NKF2, 264385686, 4, 0, 0, 0, 0, 0, 0, 0, 0, 0, 0, 0, 0
NKF3, 264385686, 0, 0, 0, -0.03, -0.06, 0.01, 0, 0, 0, 0, 0
NKF4, 264385686, 0, 0, 0, 0, 0, 1.483304E-06, 0, 0, 0, 19, 229, 0, 0
NKF5, 264385686, 0, 0, 0, 0, 0.18, 0.13, 0, 0.19, 0.5, 3.188562E-05, 0.001542692, 0.003242474
NKQ1, 264385686, -0.993593, -0.002743142, -0.005150774, -0.1128667
AHR2, 264385732, 0.77, -0.31, 18.77, 0.09, 0, 0, 0.9865813, 0.007106795, -0.001649871, 0.1631082
MOTB, 264385739, 1, 1, 0, 1
RCIN, 264385744, 0, 0, 0, 0, 0, 0, 0, 0, 0, 0, 0, 0, 0, 0
RCOU, 264385749, 1101, 1101, 1101, 1101, 0, 0, 0, 0, 0, 0, 0, 0, 0, 0
VIBE, 264385758, 0.02171828, 0.02107844, 0.03537117, 0, 0, 0
CTRL, 264385764, 0.005279949, 0.0001652082, 0.006117183, 0.00022683, 6.265571E-05
PRX, 264385797, 2, 0.72, 0, 0.56, 0, 3.59, 0, 2.4, 0, 0, 90, 0.56
IMU, 264412499, 0.001074056, 0.0001536742, 0.002819679, 0.100024, -0.0876336, -9.749678, 0, 0, 38.77644, 1, 1, 1000, 1000
RFND, 264435264, 0.2, 25, 0, 0
IMU, 264452503, -0.001093595, -0.001216837, 0.000205646, 0.08533277, -0.08941893, -9.756788, 0, 0, 38.77412, 1, 1, 1000, 1000
MAG, 264485037, 182, 632, 134, 0, 0, 0, 0, 0, 0, 1, 264485029
RFND, 264485056, 0.2, 25, 0, 0
BARO, 264485089, 0.0593093, 987.9526, 37.58, 0.4068688, 264485, 0, 34.84
CTUN, 264485102, 0, 0, 0, 0.3041818, 0.0543027, 0.0543027, 0.05, 0, 0.19, 0, 0, -1
ATT, 264485148, 0, 0.49, 0, -0.57, 12.95, 12.96, 0, 1
RATE, 264485154, -2.239478, 0.0316029, -0.005669624, 2.58985, 0.03411357, 0.005813458, -0.01225116, -0.001400042, -5.813165E-05, 420.8291, -1.30167, 0
NKF1, 264485162, 0.49, -0.57, 12.96, -0.01417395, -0.04750118, 0.01039084, 0, 0, 0, -0.0543027, 0, 0, 0.03
NKF2, 264485162, 4, 0, 0, 0, 0, 0, 0, 0, 0, 0, 0, 0, 0
NKF3, 264485162, 0, 0, 0, -0.03, -0.06, 0.01, 0, 0, 0, 0, 0
NKF4, 264485162, 0, 0, 0, 0, 0, 1.67704E-06, 0, 0, 0, 19, 229, 0, 0
NKF5, 264485162, 0, 0, 0, 0, 0.18, 0.13, 0, 0.19, 0.5, 3.225125E-05, 0.001473011, 0.003041396
NKQ1, 264485162, -0.9935904, -0.002752012, -0.005165653, -0.1128888
AHR2, 264485205, 0.77, -0.31, 18.77, 0.05, 0, 0, 0.9865747, 0.007121942, -0.001628247, 0.1631473
MOTB, 264485212, 1, 1, 0, 1
RCIN, 264485216, 0, 0, 0, 0, 0, 0, 0, 0, 0, 0, 0, 0, 0, 0
RCOU, 264485222, 1101, 1101, 1101, 1101, 0, 0, 0, 0, 0, 0, 0, 0, 0, 0
VIBE, 264485231, 0.02123922, 0.01925202, 0.038284, 0, 0, 0
CTRL, 264485238, 0.005280078, 0.0001828132, 0.006110591, 0.0002343365, 6.342903E-05
PRX, 264485269, 2, 0.72, 0, 0.56, 0, 3.59, 0, 2.4, 0, 0, 90, 0.56
IMU, 264492636, 0.0003914856, 0.0005769746, 0.0005682662, 0.08705184, -0.08499695, -9.739848, 0, 0, 38.77258, 1, 1, 1000, 1000
IMU, 264532486, -0.001342327, 0.001560048, 0.0002000929, 0.09206787, -0.08413882, -9.744246, 0, 0, 38.772, 1, 1, 1000, 1000
RFND, 264535025, 0.2, 25, 0, 0
EV, 264549789, 57
IMU, 264572546, -0.0004721999, -0.001039143, 0.0002521883, 0.09593573, -0.08208946, -9.757528, 0, 0, 38.77213, 1, 1, 1000, 1000
MAG, 264585205, 180, 631, 132, 0, 0, 0, 0, 0, 0, 1, 264585197
RFND, 264585224, 0.2, 25, 0, 0
BARO, 264585260, 0.07343056, 987.9509, 37.58, 0.2665388, 264585, 0, 34.84
CTUN, 264585273, 0, 0, 0, 0.3041818, 0.0541914, 0.0541914, 0.07, 0, 0.19, 0, 0, -1
ATT, 264585324, 0, 0.49, 0, -0.57, 12.95, 12.96, 0, 1
RATE, 264585330, -2.225767, 0.02940444, -0.005542699, 2.583286, 0.01778143, 0.005739632, -0.01114853, -0.02482219, 4.229285E-05, 432.8728, -0.05664825, 0
NKF1, 264585337, 0.49, -0.57, 12.96, -0.01378793, -0.04955636, 0.01068822, 0, 0, 0, -0.0541914, 0, 0, 0.03
NKF2, 264585337, 4, 0, 0, 0, 0, 0, 0, 0, 0, 0, 0, 0, 0
NKF3, 264585337, 0, 0, 0, -0.03, -0.07, 0.01, 0, 0, 0, 0, 0
NKF4, 264585337, 0, 0, 0, 0, 0, 1.874056E-06, 0, 0, 0, 19, 229, 0, 0
NKF5, 264585337, 0, 0, 0, 0, 0.18, 0.13, 0, 0.19, 0.5, 3.081357E-05, 0.001366276, 0.002799887
NKQ1, 264585337, -0.9935939, -0.002724782, -0.005173976, -0.1128579
AHR2, 264585555, 0.77, -0.31, 18.77, 0.07, 0, 0, 0.9865771, 0.007101209, -0.001614528, 0.163134
MOTB, 264585564, 1, 1, 0, 1
RCIN, 264585569, 0, 0, 0, 0, 0, 0, 0, 0, 0, 0, 0, 0, 0, 0
RCOU, 264585575, 1108, 1108, 1108, 1108, 0, 0, 0, 0, 0, 0, 0, 0, 0, 0
VIBE, 264585584, 0.02131951, 0.02132759, 0.03639685, 0, 0, 0
CTRL, 264585590, 0.005251049, 0.0001676586, 0.006099685, 0.0002196317, 5.571475E-05
PRX, 264585623, 2, 0.72, 0, 0.56, 0, 3.59, 0, 2.4, 0, 0, 90, 0.56
IMU, 264612678, 0.001251543, 0.0002589975, 0.0005899348, 0.08308646, -0.06993196, -9.757287, 0, 0, 38.77219, 1, 1, 1000, 1000
RFND, 264635508, 0.2, 25, 0, 0
IMU, 264652637, -0.0003012937, 0.001764593, 0.0003692561, 0.08488479, -0.07816907, -9.753965, 0, 0, 38.771, 1, 1, 1000, 1000
MAG, 264685192, 178, 636, 138, 0, 0, 0, 0, 0, 0, 1, 264685184
RFND, 264685212, 0.2, 25, 0, 0
BARO, 264685247, 0.02541827, 987.9564, 37.59, 0.03177284, 264685, 0, 34.84
CTUN, 264685260, 0, 0, 0, 0.3041818, 0.05402721, 0.05402721, 0.02, 0, 0.19, 0, 0, -1
ATT, 264685312, 0, 0.49, 0, -0.57, 12.95, 12.96, 0, 1
RATE, 264685318, -2.215817, -0.07137018, -0.004874192, 2.579556, -0.04065573, 0.006539759, -0.0110986, 0.02797331, -2.647956E-05, 432.5068, -1.159286, 0
NKF1, 264685326, 0.49, -0.57, 12.96, -0.01427322, -0.05112073, 0.01067918, 0, 0, 0, -0.05402721, 0, 0, 0.03
NKF2, 264685326, 4, 0, 0, 0, 0, 0, 0, 0, 0, 0, 0, 0, 0
NKF3, 264685326, 0, 0, 0, -0.03, -0.07, 0.01, 0, 0, 0, 0, 0
NKF4, 264685326, 0, 0, 0, 0, 0, 2.084331E-06, 0, 0, 0, 19, 229, 0, 0
NKF5, 264685326, 0, 0, 0, 0, 0.18, 0.13, 0, 0.19, 0.5, 3.152527E-05, 0.001330483, 0.002693091
NKQ1, 264685326, -0.9935938, -0.002704852, -0.005180774, -0.1128595
AHR2, 264685536, 0.77, -0.31, 18.77, 0.02, 0, 0, 0.9865741, 0.007089152, -0.001600636, 0.1631531
MOTB, 264685545, 1, 1, 0, 1
RCIN, 264685550, 0, 0, 0, 0, 0, 0, 0, 0, 0, 0, 0, 0, 0, 0
RCOU, 264685557, 1132, 1132, 1132, 1132, 0, 0, 0, 0, 0, 0, 0, 0, 0, 0
VIBE, 264685566, 0.02087161, 0.01943761, 0.03455449, 0, 0, 0
CTRL, 264685573, 0.00524387, 0.000172051, 0.006070895, 0.0002078422, 4.850489E-05
PRX, 264685707, 2, 0.72, 0, 0.56, 0, 3.59, 0, 2.4, 0, 0, 90, 0.56
IMU, 264692660, -0.001186225, -0.001677433, 0.001201264, 0.0843374, -0.07565952, -9.744804, 0, 0, 38.7701, 1, 1, 1000, 1000
IMU, 264733295, -0.0005238443, -0.0001427885, 0.0009900271, 0.09758682, -0.08629315, -9.75634, 0, 0, 38.76984, 1, 1, 1000, 1000
RFND, 264735524, 0.2, 25, 0, 0
IMU, 264773205, -0.001446981, 0.001611067, 0.0005700793, 0.1078681, -0.0839652, -9.755636, 0, 0, 38.77004, 1, 1, 1000, 1000
MAG, 264786055, 184, 629, 134, 0, 0, 0, 0, 0, 0, 1, 264786047
RFND, 264786075, 0.2, 25, 0, 0
BARO, 264786109, 0.05648505, 987.9531, 37.59, -0.0988635, 264786, 0, 34.84
CTUN, 264786123, 0, 0, 0, 0.3041818, 0.05391662, 0.05391662, 0.05, 0, 0.19, 0, 0, -1
ATT, 264786174, 0, 0.48, 0, -0.57, 12.95, 12.96, 0, 1
RATE, 264786180, -2.201078, -0.06091358, -0.005073502, 2.570634, 0.04354479, 0.006039987, -0.01098335, 0.01104327, -4.662788E-05, 446.9693, -1.0849, 0
NKF1, 264786188, 0.48, -0.57, 12.96, -0.01363233, -0.05331544, 0.01103628, 0, 0, 0, -0.05391661, 0, 0, 0.03
NKF2, 264786188, 4, 0, 0, 0, 0, 0, 0, 0, 0, 0, 0, 0, 0
NKF3, 264786188, 0, 0, 0, -0.04, -0.08, 0.01, 0, 0, 0, 0, 0
NKF4, 264786188, 0, 0, 0, 0, 0, 2.341891E-06, 0, 0, 0, 19, 229, 0, 0
NKF5, 264786188, 0, 0, 0, 0, 0.18, 0.13, 0, 0.19, 0.5, 2.973383E-05, 0.001206573, 0.002389616
NKQ1, 264786188, -0.9935937, -0.002674859, -0.005193817, -0.1128605
AHR2, 264786230, 0.76, -0.31, 18.78, 0.05, 0, 0, 0.9865711, 0.007065869, -0.001581707, 0.1631721
MOTB, 264786237, 1, 1, 0, 1
RCIN, 264786241, 0, 0, 0, 0, 0, 0, 0, 0, 0, 0, 0, 0, 0, 0
RCOU, 264786248, 1156, 1156, 1156, 1156, 0, 0, 0, 0, 0, 0, 0, 0, 0, 0
VIBE, 264786256, 0.01992765, 0.02014256, 0.03526302, 0, 0, 0
CTRL, 264786263, 0.005202029, 0.0001669882, 0.006067845, 0.0002050255, 4.534323E-05
PRX, 264786295, 2, 0.72, 0, 0.56, 0, 3.59, 0, 2.4, 0, 0, 90, 0.56
IMU, 264813213, -0.0003932035, 0.0001501611, -0.0001146678, 0.09225897, -0.0850475, -9.764757, 0, 0, 38.77153, 1, 1, 1000, 1000
RFND, 264835959, 0.2, 25, 0, 0
IMU, 264853224, -0.0007617302, 0.001520406, 0.01029772, 0.08912317, -0.04383189, -9.74776, 0, 0, 38.77351, 1, 1, 1000, 1000
MAG, 264886109, 180, 635, 134, 0, 0, 0, 0, 0, 0, 1, 264886101
RFND, 264886129, 0.2, 25, 0, 0
BARO, 264886163, 0.03953953, 987.9547, 37.59, -0.1110728, 264886, 0, 34.84
CTUN, 264886177, 0, 0, 0, 0.3041818, 0.05363605, 0.05363605, 0.03, 0, 0.19, 0, 0, -1
ATT, 264886293, 0, 0.49, 0, -0.56, 12.92, 12.93, 0, 1
RATE, 264886299, -2.229611, 0.2198735, -0.006768844, 2.532007, -0.04110148, 0.006741204, -0.01092547, -1.910977, 0.0004465619, 433.0804, 9.235001, 0
NKF1, 264886306, 0.49, -0.56, 12.93, -0.01299393, -0.05477289, 0.01069334, 0, 0, 0, -0.05363605, 0, 0, 0.03
NKF2, 264886306, 4, 0, 0, 0, 0, 0, 0, 0, 0, 0, 0, 0, 0
NKF3, 264886306, 0, 0, 0, -0.04, -0.08, 0.01, 0, 0, 0, 0, 0
NKF4, 264886306, 0, 0, 0, 0, 0, 2.575224E-06, 0, 0, 0, 19, 229, 0, 0
NKF5, 264886306, 0, 0, 0, 0, 0.18, 0.13, 0, 0.19, 0.5, 3.077324E-05, 0.001201608, 0.002376231
NKQ1, 264886306, -0.9936224, -0.00268965, -0.005238004, -0.1126059
AHR2, 264886436, 0.77, -0.3, 18.75, 0.03, 0, 0, 0.98661, 0.007080549, -0.001531607, 0.1629363
MOTB, 264886443, 1, 1, 0, 1
RCIN, 264886448, 0, 0, 0, 0, 0, 0, 0, 0, 0, 0, 0, 0, 0, 0
RCOU, 264886455, 1180, 1180, 1180, 1180, 0, 0, 0, 0, 0, 0, 0, 0, 0, 0
VIBE, 264886464, 0.1030823, 0.1454072, 0.1523633, 0, 0, 0
CTRL, 264886470, 0.00519899, 0.0003397883, 0.006002803, 0.0002310496, 0.0001370453
PRX, 264886502, 2, 0.72, 0, 0.56, 0, 3.59, 0, 2.39, 0, 0, 90, 0.56
IMU, 264893238, 0.003528423, 0.0001617583, -0.031661, 0.1594798, -0.04769396, -9.767029, 0, 0, 38.77568, 1, 1, 1000, 1000
IMU, 264933213, -0.003248712, -0.0002598178, -0.003053605, 0.219683, -0.06001107, -9.814984, 0, 0, 38.77667, 1, 1, 1000, 1000
RFND, 264936317, 0.2, 25, 0, 0
IMU, 264985424, -0.01216444, -0.001043536, 0.02135613, -0.02360078, -0.08284506, -9.724436, 0, 0, 38.77733, 1, 1, 1000, 1000
MAG, 264998342, 190, 636, 140, 0, 0, 0, 0, 0, 0, 1, 264998262
RFND, 264998364, 0.2, 25, 0, 0
BARO, 264998398, -0.02259402, 987.9619, 37.59, -0.0855507, 264998, 0, 34.84
CTUN, 264998412, 0, 0, 0, 0.3041818, 0.05347313, 0.05347313, -0.02, 0, 0.19, 0, 0, -1
ATT, 264998570, 0, 0.48, 0, -0.56, 12.95, 12.96, 0, 1
RATE, 264998576, -2.159785, -0.2991422, -0.005551051, 2.532888, -0.01677234, 0.005799508, -0.01064508, 0.5528038, -0.000928217, 483.1082, 1.625633, 0
NKF1, 264998584, 0.48, -0.56, 12.96, -0.01647807, -0.05745396, 0.0119286, 0, 0, 0, -0.05347313, 0, 0, 0.03
NKF2, 264998584, 4, 0, 0, 0, 0, 0, 0, 0, 0, 0, 0, 0, 0
NKF3, 264998584, 0, 0, 0, -0.04, -0.08, 0.01, 0, 0, 0, 0, 0
NKF4, 264998584, 0, 0, 0, 0, 0, 2.904534E-06, 0, 0, 0, 19, 229, 0, 0
NKF5, 264998584, 0, 0, 0, 0, 0.18, 0.13, 0, 0.19, 0.5, 2.874422E-05, 0.001064404, 0.00202528
NKQ1, 264998584, -0.9935921, -0.002597072, -0.005266658, -0.1128729
AHR2, 264998631, 0.76, -0.3, 18.78, -0.02, 0, 0, 0.9865635, 0.007002851, -0.001499645, 0.1632215
MOTB, 264998638, 1, 1, 0, 1
RCIN, 264998642, 0, 0, 0, 0, 0, 0, 0, 0, 0, 0, 0, 0, 0, 0
RCOU, 264998648, 1204, 1204, 1204, 1204, 0, 0, 0, 0, 0, 0, 0, 0, 0, 0
VIBE, 264998657, 0.4325633, 0.3220638, 0.3547149, 0, 0, 0
CTRL, 264998664, 0.005095177, 0.0009331065, 0.005991988, 0.000307651, 0.0004116376
PRX, 264998696, 2, 0.72, 0, 0.56, 0, 3.59, 0, 2.39, 0, 0, 90, 0.56
IMU, 265027008, 0.005898888, 0.001449381, -0.0001712522, 0.005447197, -0.1450336, -9.72588, 0, 0, 38.77818, 1, 1, 1000, 1000
RFND, 265049569, 0.2, 25, 0, 0
IMU, 265066956, 0.008748136, -0.004149114, -0.007484437, 0.06083297, 0.01266129, -9.761819, 0, 0, 38.77897, 1, 1, 1000, 1000
MAG, 265099645, 179, 634, 138, 0, 0, 0, 0, 0, 0, 1, 265099637
RFND, 265099664, 0.2, 25, 0, 0
BARO, 265099696, -0.07343056, 987.967, 37.59, -0.1348332, 265099, 0, 34.84
CTUN, 265099710, 0, 0, 0, 0.3041818, 0.05329442, 0.05329442, -0.07, 0, 0.19, 0, 0, -1
ATT, 265099887, 0, 0.47, 0, -0.56, 12.94, 12.95, 0, 1
RATE, 265099893, -2.161204, -0.7126811, 0.0005189772, 2.533234, 0.1705679, 0.004479475, -0.01061057, -0.05869535, -0.0004176416, 461.7451, -0.4832268, 0
NKF1, 265099901, 0.47, -0.56, 12.95, -0.01424166, -0.05954607, 0.01140111, 0, 0, 0, -0.05329442, 0, 0, 0.03
NKF2, 265099901, 4, 0, 0, 0, 0, 0, 0, 0, 0, 0, 0, 0, 0
NKF3, 265099901, 0, 0, 0, -0.04, -0.09, 0.01, 0, 0, 0, 0, 0
NKF4, 265099901, 0, 0, 0, 0, 0, 3.197275E-06, 0, 0, 0, 19, 229, 0, 0
NKF5, 265099901, 0, 0, 0, 0, 0.18, 0.13, 0, 0.19, 0.5, 2.700869E-05, 0.0009189921, 0.001794065
NKQ1, 265099901, -0.9936002, -0.002589254, -0.005255461, -0.1128025
AHR2, 265099946, 0.76, -0.3, 18.78, -0.07, 0, 0, 0.9865721, 0.007019173, -0.00150107, 0.1631687
MOTB, 265099954, 1, 1, 0, 1
RCIN, 265099959, 0, 0, 0, 0, 0, 0, 0, 0, 0, 0, 0, 0, 0, 0
RCOU, 265099965, 1228, 1221, 1229, 1221, 0, 0, 0, 0, 0, 0, 0, 0, 0, 0
VIBE, 265099973, 0.5236443, 0.546486, 0.6049197, 0, 0, 0
CTRL, 265099979, 0.005254678, 0.0017013, 0.00601624, 0.0004473075, 0.000383488
PRX, 265100010, 2, 0.72, 0, 0.56, 0, 3.59, 0, 2.41, 0, 0, 90, 0.56
IMU, 265107024, -0.01419075, 0.0009763766, -0.008865878, 0.08543438, -0.02899684, -9.737843, 0, 0, 38.78024, 1, 1, 1000, 1000
IMU, 265147104, -0.006366289, -0.007820562, 0.006148392, 0.08004352, -0.1207037, -9.74074, 0, 0, 38.7815, 1, 1, 1000, 1000
RFND, 265149587, 0.2, 25, 0, 0
IMU, 265187069, 0.01300242, -0.007759087, 0.01059379, -0.01007061, -0.118891, -9.699225, 0, 0, 38.78335, 1, 1, 1000, 1000
MAG, 265199654, 186, 631, 134, 0, 0, 0, 0, 0, 0, 1, 265199646
RFND, 265199675, 0.2, 25, 0, 0
BARO, 265199708, -0.1073216, 987.9708, 37.59, -0.2911468, 265199, 0, 34.84
CTUN, 265199722, 0, 0, 0, 0.3041818, 0.05311541, 0.05311541, -0.1, 0, 0.19, 0, 0, -1
ATT, 265199774, 0, 0.49, 0, -0.58, 12.94, 12.95, 0, 1
RATE, 265199780, -2.205875, 0.03688785, -0.003029299, 2.620034, -0.775489, 0.009879868, -0.01121809, 0.2827025, -3.961378E-05, 509.7798, -0.6741524, 0
NKF1, 265199788, 0.49, -0.58, 12.95, -0.0145557, -0.06151164, 0.01258715, 0, 0, 0, -0.05311541, 0, 0, 0.03
NKF2, 265199788, 4, 0, 0, 0, 0, 0, 0, 0, 0, 0, 0, 0, 0
NKF3, 265199788, 0, 0, 0, -0.04, -0.09, 0.01, 0, 0, 0, 0, 0
NKF4, 265199788, 0, 0, 0, 0, 0, 3.560819E-06, 0, 0, 0, 19, 229, 0, 0
NKF5, 265199788, 0, 0, 0, 0, 0.18, 0.13, 0, 0.19, 0.5, 2.861053E-05, 0.0009752049, 0.001741283
NKQ1, 265199788, -0.9936058, -0.002700785, -0.005103983, -0.1127582
AHR2, 265199832, 0.77, -0.31, 18.77, -0.09999999, 0, 0, 0.9865759, 0.007156915, -0.001614458, 0.1631387
MOTB, 265199839, 1, 1, 0, 1
RCIN, 265199843, 0, 0, 0, 0, 0, 0, 0, 0, 0, 0, 0, 0, 0, 0
RCOU, 265199849, 1243, 1221, 1238, 1226, 0, 0, 0, 0, 0, 0, 0, 0, 0, 0
VIBE, 265199858, 0.4677942, 0.5043906, 0.5815124, 0, 0, 0
CTRL, 265199865, 0.005386088, 0.002399479, 0.006127648, 0.001143996, 0.0003478796
PRX, 265199897, 2, 0.72, 0, 0.56, 0, 3.59, 0, 2.4, 0, 0, 90, 0.56
IMU, 265227057, -0.002607177, 0.0007439885, 0.003089804, 0.07195348, -0.01819253, -9.726542, 0, 0, 38.78523, 1, 1, 1000, 1000
RFND, 265249578, 0.2, 25, 0, 0
IMU, 265267352, -0.01217014, -0.009450627, -0.0085396, 0.05585823, -0.0576926, -9.732533, 0, 0, 38.78591, 1, 1, 1000, 1000
DU32, 265289895, 7, 33611992
MAG, 265299617, 181, 626, 132, 0, 0, 0, 0, 0, 0, 1, 265299609
RFND, 265299635, 0.2, 25, 0, 0
BARO, 265299670, -0.005648504, 987.9595, 37.59, -0.3735426, 265299, 0, 34.84
CTUN, 265299684, 0, 0, 0, 0.3041818, 0.05286462, 0.05286462, 0, 0, 0.19, 0, 0, -1
ATT, 265299734, 0, 0.49, 0, -0.58, 12.96, 12.97, 0, 1
RATE, 265299741, -2.211045, 0.404974, -0.007483209, 2.64432, -0.4313756, 0.01134542, -0.01134888, 0.4694685, -0.0005377419, 598.4698, -4.113865, 0
NKF1, 265299748, 0.49, -0.58, 12.97, -0.01601594, -0.06435863, 0.01477703, 0, 0, 0, -0.05286462, 0, 0, 0.03
NKF2, 265299748, 4, 0, 0, 0, 0, 0, 0, 0, 0, 0, 0, 0, 0
NKF3, 265299748, 0, 0, 0, -0.04, -0.1, 0.01, 0, 0, 0, 0, 0
NKF4, 265299748, 0, 0, 0, 0, 0, 4.00393E-06, 0, 0, 0, 19, 229, 0, 0
NKF5, 265299748, 0, 0, 0, 0, 0.18, 0.13, 0, 0.19, 0.5, 2.704611E-05, 0.0008033018, 0.001374818
NKQ1, 265299748, -0.9935861, -0.002717869, -0.005062963, -0.1129325
AHR2, 265299793, 0.78, -0.31, 18.79, 0, 0, 0, 0.9865444, 0.007189785, -0.001588945, 0.163328
MOTB, 265299800, 1, 1, 0, 1
RCIN, 265299805, 0, 0, 0, 0, 0, 0, 0, 0, 0, 0, 0, 0, 0, 0
RCOU, 265299811, 1252, 1221, 1241, 1235, 0, 0, 0, 0, 0, 0, 0, 0, 0, 0
VIBE, 265299820, 0.4211624, 0.4733928, 0.5744243, 0, 0, 0
CTRL, 265299827, 0.005322539, 0.002481999, 0.006177806, 0.001660949, 0.000346656
PRX, 265299858, 2, 0.72, 0, 0.56, 0, 3.59, 0, 2.4, 0, 0, 90, 0.56
IMU, 265307629, 0.002369155, -0.01085384, 0.005501192, -0.04272557, -0.08411675, -9.737698, 0, 0, 38.78439, 1, 1, 1000, 1000
IMU, 265347300, 0.005237656, 0.01199578, -0.01451516, 0.04369184, -0.08024844, -9.799558, 0, 0, 38.78115, 1, 1, 1000, 1000
RFND, 265349626, 0.2, 25, 0, 0
IMU, 265387099, -0.005284647, 0.0124436, -0.003957971, 0.2195041, -0.03835706, -9.78391, 0, 0, 38.77638, 1, 1, 1000, 1000
MAG, 265399787, 186, 632, 137, 0, 0, 0, 0, 0, 0, 1, 265399779
RFND, 265399844, 0.2, 25, 0, 0
BARO, 265399877, -0.06778205, 987.9662, 37.59, -0.2244452, 265399, 0, 34.84
CTUN, 265399891, 0, 0, 0, 0.3041818, 0.05235322, 0.05235322, -0.06, 0, 0.19, 0, 0, -1
ATT, 265399940, 0, 0.47, 0, -0.57, 12.95, 12.96, 0, 1
RATE, 265399946, -2.149112, -0.3651245, -0.004250081, 2.586772, 0.6344154, 0.003941935, -0.01078784, -0.03257853, 0.0002128502, 660.769, -7.3946, 0
NKF1, 265399954, 0.47, -0.57, 12.96, -0.0169038, -0.06676678, 0.01631529, 0, 0, 0, -0.05235322, 0, 0, 0.03
NKF2, 265399954, 4, 0, 0, 0, 0, 0, 0, 0, 0, 0, 0, 0, 0
NKF3, 265399954, 0, 0, 0, -0.04, -0.1, 0.01, 0, 0, 0, 0, 0
NKF4, 265399954, 0, 0, 0, 0, 0, 4.350343E-06, 0, 0, 0, 19, 229, 0, 0
NKF5, 265399954, 0, 0, 0, 0, 0.18, 0.13, 0, 0.19, 0.5, 2.873429E-05, 0.0008760151, 0.001517225
NKQ1, 265399954, -0.9935902, -0.002576841, -0.005151127, -0.1128959
AHR2, 265399998, 0.77, -0.29, 18.79, -0.06, 0, 0, 0.9865485, 0.007059614, -0.001468285, 0.1633099
MOTB, 265400005, 1, 1, 0, 1
RCIN, 265400010, 0, 0, 0, 0, 0, 0, 0, 0, 0, 0, 0, 0, 0, 0
RCOU, 265400016, 1235, 1221, 1227, 1228, 0, 0, 0, 0, 0, 0, 0, 0, 0, 0
VIBE, 265400025, 0.4238911, 0.4321747, 0.5309207, 0, 0, 0
CTRL, 265400031, 0.0051943, 0.002306378, 0.00619915, 0.002174362, 0.0004316297
PRX, 265400064, 2, 0.72, 0, 0.56, 0, 3.59, 0, 2.4, 0, 0, 90, 0.56
IMU, 265431285, -0.004776591, -0.01111443, -0.001033413, 0.1048045, -0.134854, -9.73385, 0, 0, 38.77007, 1, 1, 1000, 1000
RFND, 265452325, 0.2, 25, 0, 0
IMU, 265470049, 0.004522826, -0.00237901, -0.001521307, 0.05107375, -0.1035097, -9.635977, 0, 0, 38.76379, 1, 1, 1000, 1000
MAG, 265504731, 179, 626, 137, 0, 0, 0, 0, 0, 0, 1, 265504723
RFND, 265504750, 0.2, 25, 0, 0
BARO, 265504783, -0.09037607, 987.9689, 37.58, 0.01014915, 265504, 0, 34.84
CTUN, 265504833, 0, 0, 0, 0.3041818, 0.05178525, 0.05178525, -0.09, 0, 0.19, 0, 0, -1
ATT, 265504882, 0, 0.47, 0, -0.55, 12.96, 12.97, 0, 1
RATE, 265504888, -2.149441, -0.300873, -0.003912612, 2.513425, 0.8281227, -0.001030063, -0.01048748, 0.269618, 2.572501E-05, 650.3196, -8.396912, 0
NKF1, 265504895, 0.47, -0.55, 12.97, -0.01446011, -0.06832261, 0.01605728, 0, 0, 0, -0.05178525, 0, 0, 0.03
NKF2, 265504895, 4, 0, 0, 0, 0, 0, 0, 0, 0, 0, 0, 0, 0
NKF3, 265504895, 0, 0, 0, -0.04, -0.11, 0.01, 0, 0, 0, 0, 0
NKF4, 265504895, 0, 0, 0, 0, 0, 4.834707E-06, 0, 0, 0, 19, 229, 0, 0
NKF5, 265504895, 0, 0, 0, 0, 0.18, 0.13, 0, 0.19, 0.5, 2.543385E-05, 0.0006919306, 0.001019185
NKQ1, 265504895, -0.9935848, -0.002566785, -0.005297685, -0.1129367
AHR2, 265504937, 0.77, -0.28, 18.8, -0.09, 0, 0, 0.9865389, 0.007065423, -0.00132564, 0.1633682
MOTB, 265504946, 1, 1, 0, 1
RCIN, 265504950, 0, 0, 0, 0, 0, 0, 0, 0, 0, 0, 0, 0, 0, 0
RCOU, 265504956, 1228, 1222, 1221, 1229, 0, 0, 0, 0, 0, 0, 0, 0, 0, 0
VIBE, 265504965, 0.3930101, 0.481832, 0.49756, 0, 0, 0
CTRL, 265504972, 0.005183862, 0.00226623, 0.006161469, 0.002453381, 0.0003557613
PRX, 265505004, 2, 0.72, 0, 0.56, 0, 3.59, 0, 2.4, 0, 0, 90, 0.56
IMU, 265512092, -0.0007609062, 0.0189002, 0.008808571, 0.09280639, -0.0173425, -9.754438, 0, 0, 38.75672, 1, 1, 1000, 1000
IMU, 265552759, -0.001608529, -0.002432721, -0.005379731, 0.04869997, -0.06017069, -9.765697, 0, 0, 38.74974, 1, 1, 1000, 1000
RFND, 265554668, 0.2, 25, 0, 0
IMU, 265592218, 0.001923312, -0.01543107, -0.001691889, 0.1113487, -0.1191313, -9.693445, 0, 0, 38.74015, 1, 1, 1000, 1000
MAG, 265604732, 179, 626, 139, 0, 0, 0, 0, 0, 0, 1, 265604724
RFND, 265604755, 0.2, 25, 0, 0
BARO, 265604787, -0.1016731, 987.9699, 37.57, 0.0163926, 265604, 0, 34.84
CTUN, 265604800, 0, 0, 0, 0.3041818, 0.05080827, 0.05080827, -0.1, 0, 0.19, 0, 0, -2
ATT, 265604848, 0, 0.48, 0, -0.56, 12.95, 12.96, 0, 1
RATE, 265604854, -2.165355, 0.3795638, -0.006277591, 2.523413, 0.09737353, 0.002940121, -0.01063347, 0.2451221, -1.570316E-05, 854.4363, 0.4800797, 0
NKF1, 265604862, 0.48, -0.56, 12.96, -0.01720186, -0.06945237, 0.02109719, 0, 0, 0, -0.05080827, 0, 0, 0.03
NKF2, 265604862, 4, 0, 0, 0, 0, 0, 0, 0, 0, 0, 0, 0, 0
NKF3, 265604862, 0, 0, 0, -0.05, -0.12, 0.01, 0, 0, 0, 0, 0
NKF4, 265604862, 0, 0, 0, 0, 0, 5.212857E-06, 0, 0, 0, 19, 229, 0, 0
NKF5, 265604862, 0, 0, 0, 0, 0.18, 0.13, 0, 0.19, 0.5, 2.172374E-05, 0.0006343236, 0.001244115
NKQ1, 265604862, -0.9935894, -0.002598791, -0.005282011, -0.1128963
AHR2, 265604905, 0.77, -0.28, 18.8, -0.09999999, 0, 0, 0.9865426, 0.007105625, -0.001337392, 0.1633446
MOTB, 265604912, 1, 1, 0, 1
RCIN, 265604916, 0, 0, 0, 0, 0, 0, 0, 0, 0, 0, 0, 0, 0, 0
RCOU, 265604922, 1237, 1221, 1226, 1232, 0, 0, 0, 0, 0, 0, 0, 0, 0, 0
VIBE, 265604931, 0.4757901, 0.5569406, 0.4986508, 0, 0, 0
CTRL, 265604937, 0.005211505, 0.002094167, 0.006092921, 0.002752002, 0.0002979775
PRX, 265604970, 2, 0.72, 0, 0.56, 0, 3.59, 0, 2.4, 0, 0, 90, 0.56
IMU, 265632241, 7.503625E-05, 0.01243499, 0.005047357, 0.2210546, -0.07785884, -9.740869, 0, 0, 38.72787, 1, 1, 1000, 1000
RFND, 265654718, 0.2, 25, 0, 0
IMU, 265672079, -0.004302258, 0.002554154, -0.002999659, 0.06862219, -0.06378902, -9.761795, 0, 0, 38.71152, 1, 1, 1000, 1000
MAG, 265704842, 183, 631, 136, 0, 0, 0, 0, 0, 0, 1, 265704834
RFND, 265704881, 0.2, 25, 0, 0
BARO, 265704911, -0.1525096, 987.9756, 37.56, -0.1466924, 265704, 0, 34.84
CTUN, 265704925, 0, 0, 0, 0.3041818, 0.04982254, 0.04982254, -0.15, 0, 0.19, 0, 0, -2
ATT, 265704972, 0, 0.47, 0, -0.56, 12.95, 12.96, 0, 1
