FMT, 128, 89, FMT, BBnNZ, Type,Length,Name,Format,Columns
FMT, 129, 31, PARM, QNf, TimeUS,Name,Value
FMT, 130, 46, GPS, QBIHBcLLefffB, TimeUS,Status,GMS,GWk,NSats,HDop,Lat,Lng,Alt,Spd,GCrs,VZ,U
FMT, 131, 46, GPS2, QBIHBcLLefffB, TimeUS,Status,GMS,GWk,NSats,HDop,Lat,Lng,Alt,Spd,GCrs,VZ,U
FMT, 132, 46, GPSB, QBIHBcLLefffB, TimeUS,Status,GMS,GWk,NSats,HDop,Lat,Lng,Alt,Spd,GCrs,VZ,U
FMT, 193, 24, GPA, QCCCCBI, TimeUS,VDop,HAcc,VAcc,SAcc,VV,SMS
FMT, 194, 24, GPA2, QCCCCBI, TimeUS,VDop,HAcc,VAcc,SAcc,VV,SMS
FMT, 195, 24, GPAB, QCCCCBI, TimeUS,VDop,HAcc,VAcc,SAcc,VV,SMS
FMT, 133, 53, IMU, QffffffIIfBBHH, TimeUS,GyrX,GyrY,GyrZ,AccX,AccY,AccZ,EG,EA,T,GH,AH,GHz,AHz
FMT, 134, 75, MSG, QZ, TimeUS,Message
FMT, 135, 39, RCIN, QHHHHHHHHHHHHHH, TimeUS,C1,C2,C3,C4,C5,C6,C7,C8,C9,C10,C11,C12,C13,C14
FMT, 136, 39, RCOU, QHHHHHHHHHHHHHH, TimeUS,C1,C2,C3,C4,C5,C6,C7,C8,C9,C10,C11,C12,C13,C14
FMT, 137, 15, RSSI, Qf, TimeUS,RXRSSI
FMT, 139, 37, BARO, QffcfIff, TimeUS,Alt,Press,Temp,CRt,SMS,Offset,GndTemp
FMT, 140, 22, POWR, QffHB, TimeUS,Vcc,VServo,Flags,Safety
FMT, 143, 45, CMD, QHHHfffffff, TimeUS,CTot,CNum,CId,Prm1,Prm2,Prm3,Prm4,Lat,Lng,Alt
FMT, 144, 20, RAD, QBBBBBHH, TimeUS,RSSI,RemRSSI,TxBuf,Noise,RemNoise,RxErrors,Fixed
FMT, 146, 43, CAM, QIHLLeeeccC, TimeUS,GPSTime,GPSWeek,Lat,Lng,Alt,RelAlt,GPSAlt,Roll,Pitch,Yaw
FMT, 232, 43, TRIG, QIHLLeeeccC, TimeUS,GPSTime,GPSWeek,Lat,Lng,Alt,RelAlt,GPSAlt,Roll,Pitch,Yaw
FMT, 162, 30, ARSP, QffcffB, TimeUS,Airspeed,DiffPress,Temp,RawPress,Offset,U
FMT, 164, 45, CURR, QfffcHHHHHHHHHH, TimeUS,Volt,Curr,CurrTot,Temp,V1,V2,V3,V4,V5,V6,V7,V8,V9,V10
FMT, 165, 45, CUR2, QfffcHHHHHHHHHH, TimeUS,Volt,Curr,CurrTot,Temp,V1,V2,V3,V4,V5,V6,V7,V8,V9,V10
FMT, 163, 27, ATT, QccccCCCC, TimeUS,DesRoll,Roll,DesPitch,Pitch,DesYaw,Yaw,ErrRP,ErrYaw
FMT, 166, 34, MAG, QhhhhhhhhhBI, TimeUS,MagX,MagY,MagZ,OfsX,OfsY,OfsZ,MOfsX,MOfsY,MOfsZ,Health,S
FMT, 169, 14, MODE, QMBB, TimeUS,Mode,ModeNum,Rsn
FMT, 196, 17, RFND, QCBCB, TimeUS,Dist1,Orient1,Dist2,Orient2
FMT, 223, 33, DMS, IIIIIBBBBBBBBBB, TimeMS,N,Dp,RT,RS,Er,Fa,Fmn,Fmx,Pa,Pmn,Pmx,Sa,Smn,Smx
FMT, 240, 41, BCN, QBBfffffff, TimeUS,Health,Cnt,D0,D1,D2,D3,PosX,PosY,PosZ
FMT, 138, 53, IMU2, QffffffIIfBBHH, TimeUS,GyrX,GyrY,GyrZ,AccX,AccY,AccZ,EG,EA,T,GH,AH,GHz,AHz
FMT, 147, 53, IMU3, QffffffIIfBBHH, TimeUS,GyrX,GyrY,GyrZ,AccX,AccY,AccZ,EG,EA,T,GH,AH,GHz,AHz
FMT, 141, 45, AHR2, QccCfLLffff, TimeUS,Roll,Pitch,Yaw,Alt,Lat,Lng,Q1,Q2,Q3,Q4
FMT, 180, 31, POS, QLLfff, TimeUS,Lat,Lng,Alt,RelHomeAlt,RelOriginAlt
FMT, 142, 45, SIM, QccCfLLffff, TimeUS,Roll,Pitch,Yaw,Alt,Lat,Lng,Q1,Q2,Q3,Q4
FMT, 198, 51, NKF1, QccCfffffffccc, TimeUS,Roll,Pitch,Yaw,VN,VE,VD,dPD,PN,PE,PD,GX,GY,GZ
FMT, 199, 35, NKF2, QbccccchhhhhhB, TimeUS,AZbias,GSX,GSY,GSZ,VWN,VWE,MN,ME,MD,MX,MY,MZ,MI
FMT, 200, 33, NKF3, Qcccccchhhcc, TimeUS,IVN,IVE,IVD,IPN,IPE,IPD,IMX,IMY,IMZ,IYAW,IVT
FMT, 201, 35, NKF4, QcccccfbbHBHHb, TimeUS,SV,SP,SH,SM,SVT,errRP,OFN,OFE,FS,TS,SS,GPS,PI
FMT, 202, 40, NKF5, QBhhhcccCCfff, TimeUS,NI,FIX,FIY,AFI,HAGL,offset,RI,rng,Herr,eAng,eVel,ePos
FMT, 203, 51, NKF6, QccCfffffffccc, TimeUS,Roll,Pitch,Yaw,VN,VE,VD,dPD,PN,PE,PD,GX,GY,GZ
FMT, 204, 35, NKF7, QbccccchhhhhhB, TimeUS,AZbias,GSX,GSY,GSZ,VWN,VWE,MN,ME,MD,MX,MY,MZ,MI
FMT, 205, 33, NKF8, Qcccccchhhcc, TimeUS,IVN,IVE,IVD,IPN,IPE,IPD,IMX,IMY,IMZ,IYAW,IVT
FMT, 206, 35, NKF9, QcccccfbbHBHHb, TimeUS,SV,SP,SH,SM,SVT,errRP,OFN,OFE,FS,TS,SS,GPS,PI
FMT, 207, 36, NKF0, QBccCCcccccccc, TimeUS,ID,rng,innov,SIV,TR,BPN,BPE,BPD,OFH,OFL,OFN,OFE,OFD
FMT, 208, 27, NKQ1, Qffff, TimeUS,Q1,Q2,Q3,Q4
FMT, 209, 27, NKQ2, Qffff, TimeUS,Q1,Q2,Q3,Q4
FMT, 210, 51, XKF1, QccCfffffffccc, TimeUS,Roll,Pitch,Yaw,VN,VE,VD,dPD,PN,PE,PD,GX,GY,GZ
FMT, 211, 34, XKF2, QccccchhhhhhB, TimeUS,AX,AY,AZ,VWN,VWE,MN,ME,MD,MX,MY,MZ,MI
FMT, 212, 33, XKF3, Qcccccchhhcc, TimeUS,IVN,IVE,IVD,IPN,IPE,IPD,IMX,IMY,IMZ,IYAW,IVT
FMT, 213, 35, XKF4, QcccccfbbHBHHb, TimeUS,SV,SP,SH,SM,SVT,errRP,OFN,OFE,FS,TS,SS,GPS,PI
FMT, 214, 40, XKF5, QBhhhcccCCfff, TimeUS,NI,FIX,FIY,AFI,HAGL,offset,RI,rng,Herr,eAng,eVel,ePos
FMT, 215, 51, XKF6, QccCfffffffccc, TimeUS,Roll,Pitch,Yaw,VN,VE,VD,dPD,PN,PE,PD,GX,GY,GZ
FMT, 216, 34, XKF7, QccccchhhhhhB, TimeUS,AX,AY,AZ,VWN,VWE,MN,ME,MD,MX,MY,MZ,MI
FMT, 217, 33, XKF8, Qcccccchhhcc, TimeUS,IVN,IVE,IVD,IPN,IPE,IPD,IMX,IMY,IMZ,IYAW,IVT
FMT, 218, 35, XKF9, QcccccfbbHBHHb, TimeUS,SV,SP,SH,SM,SVT,errRP,OFN,OFE,FS,TS,SS,GPS,PI
FMT, 219, 36, XKF0, QBccCCcccccccc, TimeUS,ID,rng,innov,SIV,TR,BPN,BPE,BPD,OFH,OFL,OFN,OFE,OFD
FMT, 220, 27, XKQ1, Qffff, TimeUS,Q1,Q2,Q3,Q4
FMT, 221, 27, XKQ2, Qffff, TimeUS,Q1,Q2,Q3,Q4
FMT, 222, 35, XKFD, Qffffff, TimeUS,IX,IY,IZ,IVX,IVY,IVZ
FMT, 148, 34, TERR, QBLLHffHH, TimeUS,Status,Lat,Lng,Spacing,TerrH,CHeight,Pending,Loaded
FMT, 149, 18, UBX1, QBHBBH, TimeUS,Instance,noisePerMS,jamInd,aPower,agcCnt
FMT, 150, 16, UBX2, QBbBbB, TimeUS,Instance,ofsI,magI,ofsQ,magQ
FMT, 151, 18, UBY1, QBHBBH, TimeUS,Instance,noisePerMS,jamInd,aPower,agcCnt
FMT, 152, 16, UBY2, QBbBbB, TimeUS,Instance,ofsI,magI,ofsQ,magQ
FMT, 170, 42, GRAW, QIHBBddfBbB, TimeUS,WkMS,Week,numSV,sv,cpMes,prMes,doMes,mesQI,cno,lli
FMT, 171, 24, GRXH, QdHbBB, TimeUS,rcvTime,week,leapS,numMeas,recStat
FMT, 172, 41, GRXS, QddfBBBHBBBBB, TimeUS,prMes,cpMes,doMes,gnss,sv,freq,lock,cno,prD,cpD,doD,trk
FMT, 173, 63, SBFE, QIHBBdddfffff, TimeUS,TOW,WN,Mode,Err,Lat,Lng,Height,Undul,Vn,Ve,Vu,COG
FMT, 153, 19, ESC1, Qcccc, TimeUS,RPM,Volt,Curr,Temp
FMT, 154, 19, ESC2, Qcccc, TimeUS,RPM,Volt,Curr,Temp
FMT, 155, 19, ESC3, Qcccc, TimeUS,RPM,Volt,Curr,Temp
FMT, 156, 19, ESC4, Qcccc, TimeUS,RPM,Volt,Curr,Temp
FMT, 157, 19, ESC5, Qcccc, TimeUS,RPM,Volt,Curr,Temp
FMT, 158, 19, ESC6, Qcccc, TimeUS,RPM,Volt,Curr,Temp
FMT, 159, 19, ESC7, Qcccc, TimeUS,RPM,Volt,Curr,Temp
FMT, 160, 19, ESC8, Qcccc, TimeUS,RPM,Volt,Curr,Temp
FMT, 167, 34, MAG2, QhhhhhhhhhBI, TimeUS,MagX,MagY,MagZ,OfsX,OfsY,OfsZ,MOfsX,MOfsY,MOfsZ,Health,S
FMT, 168, 34, MAG3, QhhhhhhhhhBI, TimeUS,MagX,MagY,MagZ,OfsX,OfsY,OfsZ,MOfsX,MOfsY,MOfsZ,Health,S
FMT, 174, 31, ACC1, QQfff, TimeUS,SampleUS,AccX,AccY,AccZ
FMT, 175, 31, ACC2, QQfff, TimeUS,SampleUS,AccX,AccY,AccZ
FMT, 176, 31, ACC3, QQfff, TimeUS,SampleUS,AccX,AccY,AccZ
FMT, 177, 31, GYR1, QQfff, TimeUS,SampleUS,GyrX,GyrY,GyrZ
FMT, 178, 31, GYR2, QQfff, TimeUS,SampleUS,GyrX,GyrY,GyrZ
FMT, 179, 31, GYR3, QQfff, TimeUS,SampleUS,GyrX,GyrY,GyrZ
FMT, 181, 35, PIDR, Qffffff, TimeUS,Des,P,I,D,FF,AFF
FMT, 182, 35, PIDP, Qffffff, TimeUS,Des,P,I,D,FF,AFF
FMT, 183, 35, PIDY, Qffffff, TimeUS,Des,P,I,D,FF,AFF
FMT, 184, 35, PIDA, Qffffff, TimeUS,Des,P,I,D,FF,AFF
FMT, 185, 35, PIDS, Qffffff, TimeUS,Des,P,I,D,FF,AFF
FMT, 186, 35, PIDL, Qffffff, TimeUS,Des,P,I,D,FF,AFF
FMT, 161, 37, BAR2, QffcfIff, TimeUS,Alt,Press,Temp,CRt,SMS,Offset,GndTemp
FMT, 197, 37, BAR3, QffcfIff, TimeUS,Alt,Press,Temp,CRt,SMS,Offset,GndTemp
FMT, 187, 35, VIBE, QfffIII, TimeUS,VibeX,VibeY,VibeZ,Clip0,Clip1,Clip2
FMT, 188, 47, IMT, Qfffffffff, TimeUS,DelT,DelvT,DelaT,DelAX,DelAY,DelAZ,DelVX,DelVY,DelVZ
FMT, 189, 47, IMT2, Qfffffffff, TimeUS,DelT,DelvT,DelaT,DelAX,DelAY,DelAZ,DelVX,DelVY,DelVZ
FMT, 190, 47, IMT3, Qfffffffff, TimeUS,DelT,DelvT,DelaT,DelAX,DelAY,DelAZ,DelVX,DelVY,DelVZ
FMT, 191, 24, ORGN, QBLLe, TimeUS,Type,Lat,Lng,Alt
FMT, 192, 19, RPM, Qff, TimeUS,rpm1,rpm2
FMT, 233, 47, GMB1, Iffffffffff, TimeMS,dt,dax,day,daz,dvx,dvy,dvz,jx,jy,jz
FMT, 234, 44, GMB2, IBfffffffff, TimeMS,es,ex,ey,ez,rx,ry,rz,tx,ty,tz
FMT, 235, 13, GMB3, Ihhh, TimeMS,rl_torque_cmd,el_torque_cmd,az_torque_cmd
FMT, 236, 59, RATE, Qffffffffffff, TimeUS,RDes,R,ROut,PDes,P,POut,YDes,Y,YOut,ADes,A,AOut
FMT, 237, 23, RALY, QBBLLh, TimeUS,Tot,Seq,Lat,Lng,Alt
FMT, 238, 43, VISO, Qffffffff, TimeUS,dt,AngDX,AngDY,AngDZ,PosDX,PosDY,PosDZ,conf
FMT, 224, 23, SBPH, QIII, TimeUS,CrcError,LastInject,IARhyp
FMT, 229, 80, SBR1, QHHBZ, TimeUS,msg_type,sender_id,msg_len,d1
FMT, 230, 205, SBR2, QHZZZ, TimeUS,msg_type,d2,d3,d4
FMT, 25, 41, ATUN, QBBfffffff, TimeUS,Axis,TuneStep,Targ,Min,Max,RP,RD,SP,ddt
FMT, 26, 19, ATDE, Qff, TimeUS,Angle,Rate
FMT, 31, 22, PTUN, QBfHHH, TimeUS,Param,TunVal,CtrlIn,TunLo,TunHi
FMT, 12, 28, OF, QBffff, TimeUS,Qual,flowX,flowY,bodyX,bodyY
FMT, 5, 51, NTUN, Qffffffffff, TimeUS,DPosX,DPosY,PosX,PosY,DVelX,DVelY,VelX,VelY,DAccX,DAccY
FMT, 4, 51, CTUN, Qffffffeccfhh, TimeUS,ThI,ABst,ThO,ThH,DAlt,Alt,BAlt,DSAlt,SAlt,TAlt,DCRt,CRt
FMT, 6, 32, PM, QHHIhBHII, TimeUS,NLon,NLoop,MaxT,PMT,I2CErr,INSErr,LogDrop,Mem
FMT, 30, 27, MOTB, Qffff, TimeUS,LiftMax,BatVolt,BatRes,ThLimit
FMT, 13, 12, EV, QB, TimeUS,Id
FMT, 20, 14, D16, QBh, TimeUS,Id,Value
FMT, 21, 14, DU16, QBH, TimeUS,Id,Value
FMT, 22, 16, D32, QBi, TimeUS,Id,Value
FMT, 23, 16, DU32, QBI, TimeUS,Id,Value
FMT, 24, 16, DFLT, QBf, TimeUS,Id,Value
FMT, 19, 13, ERR, QBB, TimeUS,Subsys,ECode
FMT, 32, 19, HELI, Qff, TimeUS,DRRPM,ERRPM
FMT, 33, 29, PL, QBBffff, TimeUS,Heal,TAcq,pX,pY,vX,vY
FMT, 34, 36, GUID, QBffffff, TimeUS,Type,pX,pY,pZ,vX,vY,vZ
FMT, 35, 32, THRO, QBffffbbbb, TimeUS,Stage,Vel,VelZ,Acc,AccEfZ,Throw,AttOk,HgtOk,PosOk
FMT, 36, 56, PRX, QBfffffffffff, TimeUS,Health,D0,D45,D90,D135,D180,D225,D270,D315,DUp,CAn,CDis
MODE, 9652471, 100, 100, 2
FMT, 254, 47, NKT1, QIffffffff, TimeUS,Cnt,IMUMin,IMUMax,EKFMin,EKFMax,AngMin,AngMax,VelMin,VelM
FMT, 253, 31, CTRL, Qfffff, TimeUS,RMSRollP,RMSRollD,RMSPitchP,RMSPitchD,RMSYaw
MAG, 9808601, 218, 658, 198, 0, 0, 0, 0, 0, 0, 1, 9808592
BARO, 9808645, -0.02260576, 987.9637, 37.22, 0.1278224, 9808, 0, 35
CTUN, 9808658, 0, 0, 0, 0.302534, 0.05268864, 0.05268864, -0.02, 0, 0.19, 0, 0, -2
DU32, 9808696, 7, 50389208
ATT, 9808835, 0, 0.56, 0, -0.52, 359.99, 0.01, 0.01, 1
RATE, 9808841, -2.554209, -0.02991082, -0.005792888, 2.382294, 0.02737762, 0.005524948, -0.01449294, -0.02051256, -8.099416E-05, 837.0593, 0.9426117, 0
NKF1, 9808849, 0.56, -0.52, 0.01, -0.002130858, -0.005718769, 0.02066813, 0, 0, 0, -0.05268864, 0, 0, 0
NKF2, 9808849, 3, 0, 0, 0, 0, 0, 0, 0, 0, 0, 0, 0, 0
NKF3, 9808849, 0, 0, 0, 0, 0, 0.01, 0, 0, 0, 0, 0
NKF4, 9808849, 0, 0, 0, 0, 0, 2.083192E-05, 0, 0, 0, 19, 229, 0, 0
NKF5, 9808849, 0, 0, 0, 0, 0.18, 0.13, 0, 0.19, 0.5, 1.828316E-05, 0.0004729886, 0.002883376
NKQ1, 9808849, 0.9999787, 0.003928883, 0.005222748, 8.170061E-05
AHR2, 9808894, 0.59, -0.53, 359.99, -0.02, 0, 0, 0.9999755, 0.005198253, -0.004683817, -9.008817E-06
MOTB, 9808901, 1, 1, 0, 1
RCIN, 9808906, 0, 0, 0, 0, 0, 0, 0, 0, 0, 0, 0, 0, 0, 0
RCOU, 9808912, 1101, 1101, 1101, 1101, 0, 0, 0, 0, 0, 0, 0, 0, 0, 0
VIBE, 9808921, 0.02041369, 0.02016581, 0.03435666, 0, 0, 0
CTRL, 9809016, 0.00602923, 0.0001753269, 0.00561938, 0.0001774337, 9.681119E-05
PRX, 9809049, 2, 0.57, 0, 0.6, 0, 3.59, 0, 2.37, 0, 0, 0, 0.57
IMU, 9809057, -0.0005335447, 0.0004687468, -0.0003580575, 0.1041738, -0.08523466, -9.775832, 0, 0, 38.4703, 1, 1, 1000, 1000
MSG, 9809326, APM:Copter V3.5.7 (870dd8f0)
MSG, 9809331, New mission
MSG, 9809342, Frame: QUAD
MODE, 9809346, Autonomous, 100, 2
RFND, 9811662, 0.2, 25, 0, 0
IMU, 9848829, -0.0001295306, -0.001044787, -0.0001943822, 0.0925938, -0.08414978, -9.746736, 0, 0, 38.47034, 1, 1, 1000, 1000
RFND, 9860984, 0.2, 25, 0, 0
IMU, 9888746, -0.000944174, -0.0001922605, -0.000345489, 0.09614253, -0.07825422, -9.766472, 0, 0, 38.4703, 1, 1, 1000, 1000
MAG, 9908566, 220, 666, 187, 0, 0, 0, 0, 0, 0, 1, 9908557
BARO, 9908611, 0.04803723, 987.9561, 37.22, 0.003782583, 9908, 0, 35
CTUN, 9908624, 0, 0, 0, 0.302534, 0.05433648, 0.05433648, 0.04, 0, 0.19, 0, 0, -1
ATT, 9908723, 0, 0.56, 0, -0.52, 0, 0.01, 0.01, 1
RATE, 9908730, -2.54699, -0.06098441, -0.005931948, 2.3817, 0.03470296, 0.005288198, -0.01294394, 0.02409079, -9.120164E-05, 741.9189, -0.3609657, 0
NKF1, 9908738, 0.56, -0.52, 0.01, -0.002396774, -0.006061547, 0.01831898, 0, 0, 0, -0.05433648, 0, 0, 0
NKF2, 9908738, 4, 0, 0, 0, 0, 0, 0, 0, 0, 0, 0, 0, 0
NKF3, 9908738, 0, 0, 0, 0, 0, 0.01, 0, 0, 0, 0, 0
NKF4, 9908738, 0, 0, 0, 0, 0, 1.407897E-05, 0, 0, 0, 19, 229, 0, 0
NKF5, 9908738, 0, 0, 0, 0, 0.19, 0.13, 0, 0.19, 0.5, 2.34684E-05, 0.001501378, 0.001884226
NKQ1, 9908738, 0.9999787, 0.003915761, 0.005224668, 9.6598E-05
AHR2, 9908783, 0.59, -0.53, 359.99, 0.04, 0, 0, 0.9999756, 0.00518569, -0.004680645, 6.010873E-06
MOTB, 9908791, 1, 1, 0, 1
RCIN, 9908795, 0, 0, 0, 0, 0, 0, 0, 0, 0, 0, 0, 0, 0, 0
RCOU, 9908801, 1101, 1101, 1101, 1101, 0, 0, 0, 0, 0, 0, 0, 0, 0, 0
VIBE, 9908810, 0.02045585, 0.01911132, 0.03140691, 0, 0, 0
CTRL, 9908817, 0.006010421, 0.0001697696, 0.005616964, 0.0001675183, 9.138734E-05
PRX, 9908849, 2, 0.57, 0, 0.6, 0, 3.59, 0, 2.38, 0, 0, 0, 0.57
RFND, 9910847, 0.2, 25, 0, 0
IMU, 9928659, -8.768147E-05, 0.0008806709, 0.001073817, 0.1092665, -0.08283696, -9.753472, 0, 0, 38.47021, 1, 1, 1000, 1000
RFND, 9961062, 0.2, 25, 0, 0
IMU, 9968686, 0.000620225, 0.0004515654, 0.0003825271, 0.08985347, -0.08394648, -9.773563, 0, 0, 38.47018, 1, 1, 1000, 1000
MAG, 10008701, 221, 661, 187, 0, 0, 0, 0, 0, 0, 1, 10008692
BARO, 10008747, 0.07346871, 987.9533, 37.23, -0.0288375, 10008, 0, 35
CTUN, 10008761, 0, 0, 0, 0.302534, 0.05565844, 0.05565844, 0.07, 0, 0.19, 0, 0, -1
ATT, 10008859, 0, 0.56, 0, -0.52, 0, 0.01, 0, 1
RATE, 10008866, -2.536282, -0.1048693, -0.005482165, 2.378141, -0.007988642, 0.005821635, -0.01205056, 0.004680325, -0.0001109862, 673.54, -1.053619, 0
NKF1, 10008874, 0.56, -0.52, 0.01, -0.002643866, -0.006540487, 0.01663062, 0, 0, 0, -0.05565843, 0, 0, 0
NKF2, 10008874, 4, 0, 0, 0, 0, 0, 0, 0, 0, 0, 0, 0, 0
NKF3, 10008874, 0, 0, 0, 0, 0, 0, 0, 0, 0, 0, 0
NKF4, 10008874, 0, 0, 0, 0, 0, 9.422959E-06, 0, 0, 0, 19, 229, 0, 0
NKF5, 10008874, 0, 0, 0, 0, 0.19, 0.13, 0, 0.19, 0.5, 2.835837E-05, 0.002444162, 0.001037702
NKQ1, 10008874, 0.9999788, 0.003895165, 0.005230689, 0.0001183971
AHR2, 10008919, 0.59, -0.53, 0, 0.07, 0, 0, 0.9999757, 0.005166691, -0.004673048, 2.799592E-05
MOTB, 10009011, 1, 1, 0, 1
RCIN, 10009018, 0, 0, 0, 0, 0, 0, 0, 0, 0, 0, 0, 0, 0, 0
RCOU, 10009024, 1101, 1101, 1101, 1101, 0, 0, 0, 0, 0, 0, 0, 0, 0, 0
VIBE, 10009033, 0.02049179, 0.01869812, 0.0339978, 0, 0, 0
CTRL, 10009040, 0.005997982, 0.0001762711, 0.005594763, 0.0001722996, 9.862222E-05
PRX, 10009073, 2, 0.57, 0, 0.6, 0, 3.59, 0, 2.38, 0, 0, 0, 0.57
IMU, 10009080, -0.001842626, -0.0001482499, 8.163141E-05, 0.09184224, -0.07646865, -9.752474, 0, 0, 38.47012, 1, 1, 1000, 1000
RFND, 10011119, 0.2, 25, 0, 0
IMU, 10049039, -0.0007825072, -0.0003989052, -0.000458042, 0.1038935, -0.08256482, -9.740084, 0, 0, 38.47013, 1, 1, 1000, 1000
RFND, 10062781, 0.2, 25, 0, 0
IMU, 10090632, 5.02287E-05, 0.001294136, 0.001691901, 0.09658183, -0.09013122, -9.75466, 0, 0, 38.47012, 1, 1, 1000, 1000
MAG, 10110590, 224, 663, 195, 0, 0, 0, 0, 0, 0, 1, 10110581
BARO, 10110635, 0.1186802, 987.9484, 37.23, 0.139942, 10110, 0, 35
CTUN, 10110650, 0, 0, 0, 0.302534, 0.05726973, 0.05726973, 0.11, 0, 0.19, 0, 0, -1
ATT, 10110752, 0, 0.56, 0, -0.53, 0, 0.01, 0, 1
RATE, 10110759, -2.523218, -0.0516579, -0.00585523, 2.393651, -0.1304858, 0.006671261, -0.01251549, -0.03406806, -0.0001351643, 633.9978, -3.01199, 0
NKF1, 10110908, 0.56, -0.53, 0.01, -0.003063151, -0.007224442, 0.01565427, 0, 0, 0, -0.05726973, 0, 0, 0
NKF2, 10110908, 4, 0, 0, 0, 0, 0, 0, 0, 0, 0, 0, 0, 0
NKF3, 10110908, 0, 0, 0, 0, 0, 0, 0, 0, 0, 0, 0
NKF4, 10110908, 0, 0, 0, 0, 0, 6.676966E-06, 0, 0, 0, 19, 229, 0, 0
NKF5, 10110908, 0, 0, 0, 0, 0.19, 0.13, 0, 0.19, 0.5, 3.213373E-05, 0.0003766808, 0.003494685
NKQ1, 10110908, 0.9999791, 0.003868853, 0.005200117, 0.0001352883
AHR2, 10111007, 0.58, -0.53, 0, 0.11, 0, 0, 0.9999757, 0.005142842, -0.004701319, 4.514971E-05
MOTB, 10111016, 1, 1, 0, 1
RCIN, 10111021, 0, 0, 0, 0, 0, 0, 0, 0, 0, 0, 0, 0, 0, 0
RCOU, 10111027, 1101, 1101, 1101, 1101, 0, 0, 0, 0, 0, 0, 0, 0, 0, 0
VIBE, 10111036, 0.02174277, 0.01840413, 0.03801056, 0, 0, 0
CTRL, 10111042, 0.005958505, 0.0001723132, 0.005616645, 0.0002295145, 0.0001013749
PRX, 10111074, 2, 0.57, 0, 0.6, 0, 3.59, 0, 2.38, 0, 0, 0, 0.57
RFND, 10112990, 0.2, 25, 0, 0
IMU, 10130616, -0.001130403, -0.0005765589, -0.0004241122, 0.09680349, -0.09088217, -9.777311, 0, 0, 38.47013, 1, 1, 1000, 1000
RFND, 10163391, 0.2, 25, 0, 0
IMU, 10172140, 0.0008380028, -0.0001574515, 0.00067909, 0.108866, -0.09037974, -9.749714, 0, 0, 38.47015, 1, 1, 1000, 1000
MAG, 10211371, 220, 660, 187, 0, 0, 0, 0, 0, 0, 1, 10211362
BARO, 10211414, 0.06781727, 987.9539, 37.23, 0.3016863, 10211, 0, 35
CTUN, 10211427, 0, 0, 0, 0.302534, 0.05854236, 0.05854236, 0.06, 0, 0.19, 0, 0, -1
ATT, 10211520, 0, 0.55, 0, -0.53, 0, 0.01, 0, 1
RATE, 10211527, -2.513782, 0.0003015576, -0.005838842, 2.388664, 0.02117773, 0.005701255, -0.01241735, 0.01493849, -7.005929E-05, 569.7086, -1.274776, 0
NKF1, 10211535, 0.55, -0.53, 0.01, -0.002697732, -0.008077546, 0.01406688, 0, 0, 0, -0.05854236, 0, 0, 0
NKF2, 10211535, 4, 0, 0, 0, 0, 0, 0, 0, 0, 0, 0, 0, 0
NKF3, 10211535, 0, 0, 0, 0, 0, 0, 0, 0, 0, 0, 0
NKF4, 10211535, 0, 0, 0, 0, 0, 4.990145E-06, 0, 0, 0, 19, 229, 0, 0
NKF5, 10211535, 0, 0, 0, 0, 0.19, 0.13, 0, 0.19, 0.5, 3.441797E-05, 0.0006131472, 0.002773187
NKQ1, 10211535, 0.9999791, 0.003851901, 0.005210259, 0.0001453647
AHR2, 10211579, 0.58, -0.53, 0, 0.06, 0, 0, 0.9999759, 0.005129794, -0.00469045, 5.536644E-05
MOTB, 10211587, 1, 1, 0, 1
RCIN, 10211591, 0, 0, 0, 0, 0, 0, 0, 0, 0, 0, 0, 0, 0, 0
RCOU, 10211596, 1101, 1101, 1101, 1101, 0, 0, 0, 0, 0, 0, 0, 0, 0, 0
VIBE, 10211605, 0.02035367, 0.0185989, 0.03741633, 0, 0, 0
CTRL, 10211612, 0.005933853, 0.0001758405, 0.005624519, 0.0002316257, 9.5952E-05
PRX, 10211644, 2, 0.57, 0, 0.6, 0, 3.59, 0, 2.38, 0, 0, 0, 0.57
IMU, 10211652, -7.860606E-06, 0.0003611127, 0.0002606595, 0.1085736, -0.07913268, -9.748736, 0, 0, 38.47109, 1, 1, 1000, 1000
RFND, 10214309, 0.2, 25, 0, 0
IMU, 10251485, -0.0003427761, 0.0001441785, -0.0001603964, 0.100479, -0.07864264, -9.75876, 0, 0, 38.47205, 1, 1, 1000, 1000
RFND, 10263649, 0.2, 25, 0, 0
IMU, 10291650, -0.0007757519, -0.001297551, 0.00109485, 0.09302763, -0.07752068, -9.771924, 0, 0, 38.4734, 1, 1, 1000, 1000
MAG, 10311558, 221, 655, 191, 0, 0, 0, 0, 0, 0, 1, 10311549
BARO, 10312581, 0.1525889, 987.9448, 37.24, 0.2678884, 10312, 0, 35
CTUN, 10312601, 0, 0, 0, 0.302534, 0.05979325, 0.05979325, 0.15, 0, 0.19, 0, 0, -1
ATT, 10312764, 0, 0.55, 0, -0.53, 0.01, 0.02, 0, 1
RATE, 10312770, -2.5026, -0.01941426, -0.006065148, 2.39707, -0.03736634, 0.005616644, -0.01161157, 0.01385543, -0.0001254129, 472.6335, -1.559639, 0
NKF1, 10312779, 0.55, -0.53, 0.02, -0.003095639, -0.008239919, 0.01166996, 0, 0, 0, -0.05979325, 0, 0, 0
NKF2, 10312779, 4, 0, 0, 0, 0, 0, 0, 0, 0, 0, 0, 0, 0
NKF3, 10312779, 0, 0, 0, 0, 0, 0, 0, 0, 0, 0, 0
NKF4, 10312779, 0, 0, 0, 0, 0, 4.106346E-06, 0, 0, 0, 19, 229, 0, 0
NKF5, 10312779, 0, 0, 0, 0, 0.19, 0.13, 0, 0.19, 0.5, 3.608303E-05, 0.001610493, 0.004796195
NKQ1, 10312779, 0.9999793, 0.00382923, 0.005194832, 0.0001641791
AHR2, 10312827, 0.58, -0.53, 0, 0.15, 0, 0, 0.9999759, 0.005112917, -0.004707233, 7.439824E-05
MOTB, 10312834, 1, 1, 0, 1
RCIN, 10312839, 0, 0, 0, 0, 0, 0, 0, 0, 0, 0, 0, 0, 0, 0
RCOU, 10312905, 1101, 1101, 1101, 1101, 0, 0, 0, 0, 0, 0, 0, 0, 0, 0
VIBE, 10312917, 0.02012224, 0.02295402, 0.03625716, 0, 0, 0
CTRL, 10312923, 0.005906957, 0.0001606667, 0.005645402, 0.0002061785, 9.45392E-05
PRX, 10312955, 2, 0.57, 0, 0.6, 0, 3.59, 0, 2.37, 0, 0, 0, 0.57
RFND, 10313718, 0.2, 25, 0, 0
IMU, 10333950, -0.001290907, -0.0006823207, 0.00114319, 0.1020734, -0.0829303, -9.755761, 0, 0, 38.47569, 1, 1, 1000, 1000
RFND, 10364256, 0.2, 25, 0, 0
IMU, 10372021, -0.0006718595, -0.0004548749, 0.0008106359, 0.09848318, -0.07572298, -9.747576, 0, 0, 38.47701, 1, 1, 1000, 1000
MAG, 10411709, 223, 658, 197, 0, 0, 0, 0, 0, 0, 1, 10411701
BARO, 10411753, 0.2430119, 987.9348, 37.24, 0.2032883, 10411, 0, 35
CTUN, 10411767, 0, 0, 0, 0.302534, 0.06108514, 0.06108514, 0.24, 0, 0.19, 0, 0, -1
ATT, 10411936, 0, 0.55, 0, -0.53, 0.01, 0.02, 0, 1
RATE, 10411943, -2.483611, -0.05612686, -0.005684046, 2.401924, 0.03817585, 0.005331527, -0.01260179, 0.01758607, -0.0001330656, 411.3078, 0.2678871, 0
NKF1, 10411952, 0.55, -0.53, 0.02, -0.003444077, -0.009018005, 0.01015575, 0, 0, 0, -0.06108514, 0, 0, 0
NKF2, 10411952, 4, 0, 0, 0, 0, 0, 0, 0, 0, 0, 0, 0, 0
NKF3, 10411952, 0, 0, 0, 0, 0, 0, 0, 0, 0, 0, 0
NKF4, 10411952, 0, 0, 0, 0, 0, 3.892809E-06, 0, 0, 0, 19, 229, 0, 0
NKF5, 10411952, 0, 0, 0, 0, 0.19, 0.13, 0, 0.19, 0.5, 3.444013E-05, 0.001005361, 0.004199767
NKQ1, 10411952, 0.9999794, 0.003792791, 0.005185133, 0.000199283
AHR2, 10411998, 0.58, -0.54, 0, 0.24, 0, 0, 0.999976, 0.005081097, -0.0047173, 0.00010985
MOTB, 10412006, 1, 1, 0, 1
RCIN, 10412010, 0, 0, 0, 0, 0, 0, 0, 0, 0, 0, 0, 0, 0, 0
RCOU, 10412016, 1101, 1101, 1101, 1101, 0, 0, 0, 0, 0, 0, 0, 0, 0, 0
VIBE, 10412025, 0.02028042, 0.02157679, 0.03834251, 0, 0, 0
CTRL, 10412032, 0.005869821, 0.000149725, 0.005661516, 0.0001840508, 0.000111583
PRX, 10412065, 2, 0.57, 0, 0.6, 0, 3.59, 0, 2.37, 0, 0, 0, 0.57
IMU, 10412071, -0.0009940618, 0.0006582674, 0.0003068511, 0.08992449, -0.08823162, -9.763096, 0, 0, 38.47811, 1, 1, 1000, 1000
RFND, 10414107, 0.2, 25, 0, 0
IMU, 10452516, 1.815271E-06, 0.0009568393, 0.0002609685, 0.1087094, -0.08077551, -9.743798, 0, 0, 38.4789, 1, 1, 1000, 1000
RFND, 10464102, 0.2, 25, 0, 0
IMU, 10491958, -0.001787792, 1.892383E-06, 0.0002533411, 0.1013517, -0.08809111, -9.757498, 0, 0, 38.4798, 1, 1, 1000, 1000
MAG, 10512177, 213, 658, 196, 0, 0, 0, 0, 0, 0, 1, 10512169
BARO, 10512222, 0.2430119, 987.9348, 37.24, 0.3233351, 10512, 0, 35
CTUN, 10512236, 0, 0, 0, 0.302534, 0.06201168, 0.06201168, 0.24, 0, 0.19, 0, 0, 0
ATT, 10512332, 0, 0.54, 0, -0.53, 0.01, 0.02, 0, 1
RATE, 10512338, -2.463257, -0.05433088, -0.005830512, 2.401419, 0.01680918, 0.005582186, -0.01166115, -0.008830141, -9.551297E-05, 357.5171, 0.1979828, 0
NKF1, 10512346, 0.54, -0.53, 0.02, -0.00311303, -0.01001491, 0.008827582, 0, 0, 0, -0.06201168, 0, 0, 0
NKF2, 10512346, 4, 0, 0, 0, 0, 0, 0, 0, 0, 0, 0, 0, 0
NKF3, 10512346, 0, 0, 0, 0, 0, 0, 0, 0, 0, 0, 0
NKF4, 10512346, 0, 0, 0, 0, 0, 3.962369E-06, 0, 0, 0, 19, 229, 0, 0
NKF5, 10512346, 0, 0, 0, 0, 0.19, 0.13, 0, 0.19, 0.5, 3.471497E-05, 0.002593409, 0.005804107
NKQ1, 10512346, 0.9999796, 0.003752288, 0.00518614, 0.0002102718
AHR2, 10512391, 0.57, -0.54, 0.01, 0.24, 0, 0, 0.9999762, 0.00504294, -0.004715176, 0.0001212207
MOTB, 10512398, 1, 1, 0, 1
RCIN, 10512403, 0, 0, 0, 0, 0, 0, 0, 0, 0, 0, 0, 0, 0, 0
RCOU, 10512408, 1101, 1101, 1101, 1101, 0, 0, 0, 0, 0, 0, 0, 0, 0, 0
VIBE, 10512417, 0.02292072, 0.0213551, 0.03506368, 0, 0, 0
CTRL, 10512424, 0.005820311, 0.0001472843, 0.005653685, 0.0001719068, 0.0001126571
PRX, 10512456, 2, 0.57, 0, 0.6, 0, 3.59, 0, 2.38, 0, 0, 0, 0.57
RFND, 10514178, 0.2, 25, 0, 0
IMU, 10531741, 6.43513E-07, 0.001068869, -0.001736544, 0.09272641, -0.07500402, -9.760894, 0, 0, 38.48085, 1, 1, 1000, 1000
RFND, 10564157, 0.2, 25, 0, 0
IMU, 10571889, -0.0001944252, -0.00185283, -0.0004529438, 0.0942613, -0.08670819, -9.765518, 0, 0, 38.48177, 1, 1, 1000, 1000
MAG, 10611739, 218, 660, 193, 0, 0, 0, 0, 0, 0, 1, 10611731
BARO, 10611783, 0.2232318, 987.937, 37.24, 0.4749511, 10611, 0, 35
CTUN, 10611796, 0, 0, 0, 0.302534, 0.06325667, 0.06325667, 0.22, 0, 0.19, 0, 0, 0
ATT, 10611885, 0, 0.54, 0, -0.53, 0.01, 0.02, 0, 1
RATE, 10611891, -2.449723, -0.03835069, -0.005878283, 2.402052, 0.004992478, 0.005584705, -0.0113947, -0.05622261, 3.348519E-05, 299.3431, -1.27306, 0
NKF1, 10611899, 0.54, -0.53, 0.02, -0.00299168, -0.01064293, 0.007391189, 0, 0, 0, -0.06325667, 0, 0, 0
NKF2, 10611899, 4, 0, 0, 0, 0, 0, 0, 0, 0, 0, 0, 0, 0
NKF3, 10611899, 0, 0, 0, 0, 0, 0, 0, 0, 0, 0, 0
NKF4, 10611899, 0, 0, 0, 0, 0, 4.852691E-06, 0, 0, 0, 19, 229, 0, 0
NKF5, 10611899, 0, 0, 0, 0, 0.19, 0.13, 0, 0.19, 0.5, 2.949996E-05, 0.002068661, 0.005264956
NKQ1, 10611899, 0.9999796, 0.00372596, 0.005183326, 0.0001725285
AHR2, 10611944, 0.57, -0.54, 0, 0.22, 0, 0, 0.9999763, 0.005019851, -0.004716481, 8.371693E-05
MOTB, 10611951, 1, 1, 0, 1
RCIN, 10611956, 0, 0, 0, 0, 0, 0, 0, 0, 0, 0, 0, 0, 0, 0
RCOU, 10611962, 1101, 1101, 1101, 1101, 0, 0, 0, 0, 0, 0, 0, 0, 0, 0
VIBE, 10611971, 0.02408918, 0.02168213, 0.03387199, 0, 0, 0
CTRL, 10611979, 0.005790212, 0.0001733714, 0.005657987, 0.0001967994, 9.481687E-05
PRX, 10612011, 2, 0.57, 0, 0.6, 0, 3.59, 0, 2.38, 0, 0, 0, 0.57
IMU, 10612018, -0.0006859506, 7.983527E-05, -0.0009813812, 0.1110658, -0.08641192, -9.74633, 0, 0, 38.4826, 1, 1, 1000, 1000
RFND, 10614131, 0.2, 25, 0, 0
IMU, 10651757, -0.0001807097, 0.0004022126, 0.0010164, 0.09447715, -0.07309214, -9.765921, 0, 0, 38.48349, 1, 1, 1000, 1000
RFND, 10664105, 0.2, 25, 0, 0
IMU, 10691847, -0.0007926915, -0.002165835, -0.0007879696, 0.10495, -0.07264023, -9.752954, 0, 0, 38.48445, 1, 1, 1000, 1000
MAG, 10711795, 217, 666, 187, 0, 0, 0, 0, 0, 0, 1, 10711787
BARO, 10711840, 0.1102031, 987.9492, 37.24, 0.3329095, 10711, 0, 35
CTUN, 10711853, 0, 0, 0, 0.302534, 0.06419218, 0.06419218, 0.11, 0, 0.19, 0, 0, 0
ATT, 10711952, 0, 0.53, 0, -0.53, 0.01, 0.02, 0, 1
RATE, 10711958, -2.429582, -0.05668262, -0.005636482, 2.420781, -0.08522732, 0.005835938, -0.01004158, -0.0358418, 2.127344E-05, 267.5554, 0.03442764, 0
NKF1, 10711967, 0.53, -0.53, 0.02, -0.003361055, -0.01096527, 0.006606305, 0, 0, 0, -0.06419218, 0, 0, 0
NKF2, 10711967, 4, 0, 0, 0, 0, 0, 0, 0, 0, 0, 0, 0, 0
NKF3, 10711967, 0, 0, 0, 0, 0, 0, 0, 0, 0, 0, 0
NKF4, 10711967, 0, 0, 0, 0, 0, 5.924684E-06, 0, 0, 0, 19, 229, 0, 0
NKF5, 10711967, 0, 0, 0, 0, 0.19, 0.13, 0, 0.19, 0.5, 2.223535E-05, 0.001667921, 0.004799773
NKQ1, 10711967, 0.99998, 0.003687675, 0.005146965, 0.0001698115
AHR2, 10712012, 0.57, -0.54, 0, 0.11, 0, 0, 0.9999763, 0.004987997, -0.004750846, 8.136387E-05
MOTB, 10712020, 1, 1, 0, 1
RCIN, 10712024, 0, 0, 0, 0, 0, 0, 0, 0, 0, 0, 0, 0, 0, 0
RCOU, 10712030, 1101, 1101, 1101, 1101, 0, 0, 0, 0, 0, 0, 0, 0, 0, 0
VIBE, 10712138, 0.02424598, 0.0202291, 0.03909891, 0, 0, 0
CTRL, 10712144, 0.005748442, 0.0001674681, 0.005692998, 0.0001977102, 7.973895E-05
PRX, 10712176, 2, 0.57, 0, 0.6, 0, 3.59, 0, 2.38, 0, 0, 0, 0.57
RFND, 10714143, 0.2, 25, 0, 0
IMU, 10731745, -0.000288725, -0.0001233409, 0.0006853978, 0.07973453, -0.07170482, -9.773212, 0, 0, 38.48529, 1, 1, 1000, 1000
RFND, 10764161, 0.2, 25, 0, 0
IMU, 10771866, 0.0005874594, 0.0008154807, -0.0006556568, 0.1043243, -0.08071473, -9.763951, 0, 0, 38.48511, 1, 1, 1000, 1000
MAG, 10811778, 220, 662, 195, 0, 0, 0, 0, 0, 0, 1, 10811770
BARO, 10811824, 0.05086295, 987.9559, 37.24, -0.08931956, 10811, 0, 35
CTUN, 10811838, 0, 0, 0, 0.302534, 0.06510361, 0.06510361, 0.05, 0, 0.19, 0, 0, 0
DU32, 10811870, 7, 50389208
ATT, 10812097, 0, 0.54, 0, -0.53, 0.01, 0.02, 0, 1
RATE, 10812105, -2.431186, 0.0158702, -0.005913923, 2.427351, -0.02212895, 0.005679473, -0.01221288, 0.04600576, -4.654998E-05, 184.3804, -0.05989075, 0
NKF1, 10812133, 0.54, -0.53, 0.02, -0.00401488, -0.01199563, 0.004552602, 0, 0, 0, -0.06510361, 0, 0, 0
NKF2, 10812133, 4, 0, 0, 0, 0, 0, 0, 0, 0, 0, 0, 0, 0
NKF3, 10812133, 0, 0, 0, 0, 0, 0, 0, 0, 0, 0, 0
NKF4, 10812133, 0, 0, 0, 0, 0, 7.424286E-06, 0, 0, 0, 19, 229, 0, 0
NKF5, 10812133, 0, 0, 0, 0, 0.19, 0.13, 0, 0.19, 0.5, 2.198065E-05, 0.002960651, 0.006124649
NKQ1, 10812133, 0.99998, 0.003690632, 0.005137342, 0.0001829205
AHR2, 10812180, 0.57, -0.54, 0, 0.05, 0, 0, 0.9999762, 0.004995216, -0.004759657, 9.442958E-05
MOTB, 10812188, 1, 1, 0, 1
RCIN, 10812193, 0, 0, 0, 0, 0, 0, 0, 0, 0, 0, 0, 0, 0, 0
RCOU, 10812199, 1101, 1101, 1101, 1101, 0, 0, 0, 0, 0, 0, 0, 0, 0, 0
VIBE, 10812208, 0.02344676, 0.02055891, 0.03645677, 0, 0, 0
CTRL, 10812215, 0.005739957, 0.0001570221, 0.005709869, 0.0002025672, 6.651931E-05
PRX, 10812247, 2, 0.57, 0, 0.6, 0, 3.59, 0, 2.38, 0, 0, 0, 0.57
IMU, 10812254, 0.0002573871, -0.0003924313, 0.0008028012, 0.1026248, -0.09000269, -9.757778, 0, 0, 38.48519, 1, 1, 1000, 1000
RFND, 10814221, 0.2, 25, 0, 0
IMU, 10852269, -0.001393967, -2.814812E-05, 9.601876E-05, 0.09970941, -0.08480674, -9.765645, 0, 0, 38.48527, 1, 1, 1000, 1000
RFND, 10864184, 0.2, 25, 0, 0
IMU, 10892125, 0.0004875084, -5.818426E-05, 0.0007823664, 0.09001853, -0.0915772, -9.752256, 0, 0, 38.48518, 1, 1, 1000, 1000
MAG, 10911750, 221, 660, 187, 0, 0, 0, 0, 0, 0, 1, 10911741
BARO, 10911795, 0.07629443, 987.9531, 37.24, -0.4726245, 10911, 0, 35
CTUN, 10911809, 0, 0, 0, 0.302534, 0.06605977, 0.06605977, 0.07, 0, 0.19, 0, 0, 0
ATT, 10911951, 0, 0.53, 0, -0.53, 0.01, 0.02, 0, 1
RATE, 10911957, -2.419818, -0.1334395, -0.004990869, 2.428907, -0.03843213, 0.005757548, -0.01259412, 0.02000449, -0.0001015246, 127.1557, -0.7795334, 0
NKF1, 10911964, 0.53, -0.53, 0.02, -0.004210528, -0.01293219, 0.003139646, 0, 0, 0, -0.06605977, 0, 0, 0
NKF2, 10911964, 4, 0, 0, 0, 0, 0, 0, 0, 0, 0, 0, 0, 0
NKF3, 10911964, 0, 0, 0, 0, 0, 0, 0, 0, 0, 0, 0
NKF4, 10911964, 0, 0, 0, 0, 0, 9.578041E-06, 0, 0, 0, 19, 229, 0, 0
NKF5, 10911964, 0, 0, 0, 0, 0.19, 0.13, 0, 0.19, 0.5, 1.565322E-05, 0.002593816, 0.0056856
NKQ1, 10911964, 0.9999801, 0.003669282, 0.005132649, 0.0002007367
AHR2, 10912097, 0.57, -0.54, 0.01, 0.07, 0, 0, 0.9999763, 0.004974644, -0.004765617, 0.0001124637
MOTB, 10912106, 1, 1, 0, 1
RCIN, 10912124, 0, 0, 0, 0, 0, 0, 0, 0, 0, 0, 0, 0, 0, 0
RCOU, 10912131, 1101, 1101, 1101, 1101, 0, 0, 0, 0, 0, 0, 0, 0, 0, 0
VIBE, 10912140, 0.02184144, 0.02240305, 0.03660192, 0, 0, 0
CTRL, 10912146, 0.005726879, 0.0002084587, 0.005715122, 0.0002121225, 6.884129E-05
PRX, 10912179, 2, 0.57, 0, 0.6, 0, 3.59, 0, 2.37, 0, 0, 0, 0.57
RFND, 10914134, 0.2, 25, 0, 0
IMU, 10931822, -0.001396931, -0.0003453306, 0.0006704085, 0.10012, -0.08548255, -9.749628, 0, 0, 38.48524, 1, 1, 1000, 1000
RFND, 10965290, 0.2, 25, 0, 0
IMU, 10971869, -0.000422689, 0.000218227, 0.001028239, 0.09492117, -0.08035697, -9.76376, 0, 0, 38.48505, 1, 1, 1000, 1000
MAG, 11011825, 215, 662, 189, 0, 0, 0, 0, 0, 0, 1, 11011817
BARO, 11011870, 0.0875973, 987.9519, 37.25, -0.5268126, 11011, 0, 35
CTUN, 11011884, 0, 0, 0, 0.302534, 0.06674971, 0.06674971, 0.08, 0, 0.19, 0, 0, 0
ATT, 11012149, 0, 0.53, 0, -0.53, 0.01, 0.02, 0, 1
RATE, 11012156, -2.411441, 0.03183486, -0.005823224, 2.427443, 0.04873901, 0.005539131, -0.01003877, -0.00106789, -0.0001118886, 101.5887, -0.8759499, 0
NKF1, 11012165, 0.53, -0.53, 0.02, -0.004362079, -0.01389924, 0.002508362, 0, 0, 0, -0.06674971, 0, 0, 0
NKF2, 11012165, 4, 0, 0, 0, 0, 0, 0, 0, 0, 0, 0, 0, 0
NKF3, 11012165, 0, 0, 0, 0, 0, 0, 0, 0, 0, 0, 0
NKF4, 11012165, 0, 0, 0, 0, 0, 1.161947E-05, 0, 0, 0, 19, 229, 0, 0
NKF5, 11012165, 0, 0, 0, 0, 0.19, 0.13, 0, 0.19, 0.5, 1.517436E-05, 0.003543755, 0.006685285
NKQ1, 11012165, 0.9999802, 0.003651635, 0.005136095, 0.0002191025
AHR2, 11012211, 0.56, -0.54, 0.01, 0.08, 0, 0, 0.9999763, 0.004959386, -0.004763112, 0.0001309956
MOTB, 11012218, 1, 1, 0, 1
RCIN, 11012223, 0, 0, 0, 0, 0, 0, 0, 0, 0, 0, 0, 0, 0, 0
RCOU, 11012229, 1101, 1101, 1101, 1101, 0, 0, 0, 0, 0, 0, 0, 0, 0, 0
VIBE, 11012751, 0.02032429, 0.01981391, 0.03142891, 0, 0, 0
CTRL, 11012760, 0.005687078, 0.0001846842, 0.005716122, 0.0002002173, 8.807366E-05
PRX, 11012792, 2, 0.57, 0, 0.6, 0, 3.59, 0, 2.38, 0, 0, 0, 0.57
IMU, 11012800, 0.0005316753, 0.0008459604, -1.884562E-05, 0.1002616, -0.08067363, -9.749031, 0, 0, 38.48608, 1, 1, 1000, 1000
RFND, 11014309, 0.2, 25, 0, 0
IMU, 11051725, -0.0001602422, 0.0003812621, -0.0001115852, 0.1034978, -0.07647504, -9.79031, 0, 0, 38.48727, 1, 1, 1000, 1000
RFND, 11064135, 0.2, 25, 0, 0
IMU, 11092069, -0.0009726629, -0.0004938078, -5.66553E-05, 0.09399071, -0.08574828, -9.761539, 0, 0, 38.48841, 1, 1, 1000, 1000
MAG, 11111682, 220, 664, 189, 0, 0, 0, 0, 0, 0, 1, 11111674
BARO, 11111726, 0.09324875, 987.9512, 37.25, -0.2694045, 11111, 0, 35
CTUN, 11111739, 0, 0, 0, 0.302534, 0.06763295, 0.06763295, 0.09, 0, 0.19, 0, 0, 0
ATT, 11111831, 0, 0.53, 0, -0.54, 0.01, 0.02, 0, 1
RATE, 11111837, -2.393438, -0.002006785, -0.005881227, 2.437069, -0.02695819, 0.005685729, -0.01198666, -0.02050904, -2.912881E-05, 15.15375, 0.7541656, 0
NKF1, 11111844, 0.53, -0.54, 0.02, -0.00462166, -0.01490487, 0.0003741666, 0, 0, 0, -0.06763295, 0, 0, 0
NKF2, 11111844, 4, 0, 0, 0, 0, 0, 0, 0, 0, 0, 0, 0, 0
NKF3, 11111844, 0, 0, 0, 0, -0.01, 0, 0, 0, 0, 0, 0
NKF4, 11111844, 0, 0, 0, 0, 0, 1.494312E-05, 0, 0, 0, 19, 229, 0, 0
NKF5, 11111844, 0, 0, 0, 0, 0.19, 0.13, 0, 0.19, 0.5, 2.145884E-05, 0.003170216, 0.006219233
NKQ1, 11111844, 0.9999804, 0.003616713, 0.005116722, 0.0002175434
AHR2, 11111888, 0.56, -0.54, 0.01, 0.09, 0, 0, 0.9999764, 0.004928868, -0.004782491, 0.0001297742
MOTB, 11111896, 1, 1, 0, 1
RCIN, 11111900, 0, 0, 0, 0, 0, 0, 0, 0, 0, 0, 0, 0, 0, 0
RCOU, 11111906, 1101, 1101, 1101, 1101, 0, 0, 0, 0, 0, 0, 0, 0, 0, 0
VIBE, 11111914, 0.02099757, 0.02186729, 0.03536874, 0, 0, 0
CTRL, 11111921, 0.005647549, 0.0001897371, 0.005737369, 0.0001924239, 8.303364E-05
PRX, 11111952, 2, 0.57, 0, 0.6, 0, 3.59, 0, 2.38, 0, 0, 0, 0.57
RFND, 11114146, 0.2, 25, 0, 0
IMU, 11131710, 0.000220657, -0.001248031, -0.0002983532, 0.1047532, -0.06995374, -9.753308, 0, 0, 38.48919, 1, 1, 1000, 1000
RFND, 11164208, 0.2, 25, 0, 0
IMU, 11171882, -0.000158026, -0.0007398425, 0.0007970008, 0.0950997, -0.08916476, -9.755628, 0, 0, 38.48901, 1, 1, 1000, 1000
MAG, 11211923, 222, 659, 188, 0, 0, 0, 0, 0, 0, 1, 11211914
BARO, 11211968, 0.1384603, 987.9462, 37.25, 0.009713409, 11211, 0, 35
CTUN, 11211981, 0, 0, 0, 0.302534, 0.06827898, 0.06827898, 0.13, 0, 0.19, 0, 0, 0
ATT, 11212278, 0, 0.53, 0, -0.54, 0.01, 0.02, 0, 1
RATE, 11212285, -2.39643, 0.03046924, -0.005755303, 2.453598, 0.003727007, 0.005664496, -0.01136475, 0.002000461, -5.048393E-05, -5.071815, 0.03728867, 0
NKF1, 11212293, 0.53, -0.54, 0.02, -0.004534706, -0.01546287, -0.00012523, 0, 0, 0, -0.06827898, 0, 0, 0
NKF2, 11212293, 4, 0, 0, 0, 0, 0, 0, 0, 0, 0, 0, 0, 0
NKF3, 11212293, 0, 0, 0, 0, -0.01, 0, 0, 0, 0, 0, 0
NKF4, 11212293, 0, 0, 0, 0, 0, 1.762608E-05, 0, 0, 0, 19, 229, 0, 0
NKF5, 11212293, 0, 0, 0, 0, 0.19, 0.13, 0, 0.19, 0.5, 4.444505E-05, 0.002873266, 0.00578009
NKQ1, 11212293, 0.9999805, 0.003622347, 0.00508567, 0.0002213222
AHR2, 11212341, 0.56, -0.55, 0.01, 0.13, 0, 0, 0.9999762, 0.004938358, -0.00481295, 0.0001335017
MOTB, 11212349, 1, 1, 0, 1
RCIN, 11212353, 0, 0, 0, 0, 0, 0, 0, 0, 0, 0, 0, 0, 0, 0
RCOU, 11212359, 1101, 1101, 1101, 1101, 0, 0, 0, 0, 0, 0, 0, 0, 0, 0
VIBE, 11212368, 0.02015641, 0.01949893, 0.03515494, 0, 0, 0
CTRL, 11212375, 0.005650058, 0.0001675465, 0.005773719, 0.0001760029, 7.280921E-05
PRX, 11212406, 2, 0.57, 0, 0.6, 0, 3.59, 0, 2.38, 0, 0, 0, 0.57
IMU, 11212413, 0.0004936948, 6.512208E-05, 3.452407E-05, 0.09492274, -0.0750118, -9.757292, 0, 0, 38.48916, 1, 1, 1000, 1000
RFND, 11214197, 0.2, 25, 0, 0
IMU, 11251863, -0.0001690635, 0.000588014, 0.0006559788, 0.09610933, -0.08159454, -9.727096, 0, 0, 38.48912, 1, 1, 1000, 1000
RFND, 11264184, 0.2, 25, 0, 0
IMU, 11292211, -0.001067102, -0.001467614, 0.0001595862, 0.1051804, -0.08342687, -9.754871, 0, 0, 38.48926, 1, 1, 1000, 1000
MAG, 11311917, 220, 663, 193, 0, 0, 0, 0, 0, 0, 1, 11311908
BARO, 11311962, 0.1525889, 987.9447, 37.25, 0.1492333, 11311, 0, 35
CTUN, 11311977, 0, 0, 0, 0.302534, 0.06896642, 0.06896642, 0.15, 0, 0.19, 0, 0, 0
ATT, 11312183, 0, 0.53, 0, -0.54, 0.01, 0.02, 0, 1
RATE, 11312191, -2.385616, -0.03629881, -0.00575465, 2.457667, -0.05637057, 0.005898195, -0.01174163, 0.01862888, -2.366075E-05, -4.66494, 0.4874229, 0
NKF1, 11312199, 0.53, -0.54, 0.02, -0.00446126, -0.01647575, -0.0001151837, 0, 0, 0, -0.06896642, 0, 0, 0
NKF2, 11312199, 4, 0, 0, 0, 0, 0, 0, 0, 0, 0, 0, 0, 0
NKF3, 11312199, 0, 0, 0, 0, -0.01, 0, 0, 0, 0, 0, 0
NKF4, 11312199, 0, 0, 0, 0, 0, 2.239033E-05, 0, 0, 0, 19, 229, 0, 0
NKF5, 11312199, 0, 0, 0, 0, 0.19, 0.13, 0, 0.19, 0.5, 3.827896E-05, 0.003572892, 0.006565384
NKQ1, 11312199, 0.9999806, 0.003601871, 0.005077887, 0.000217906
AHR2, 11312245, 0.56, -0.55, 0.01, 0.15, 0, 0, 0.9999763, 0.00491767, -0.004817865, 0.0001302807
MOTB, 11312253, 1, 1, 0, 1
RCIN, 11312257, 0, 0, 0, 0, 0, 0, 0, 0, 0, 0, 0, 0, 0, 0
RCOU, 11312264, 1101, 1101, 1101, 1101, 0, 0, 0, 0, 0, 0, 0, 0, 0, 0
VIBE, 11312272, 0.02100954, 0.02083712, 0.03645711, 0, 0, 0
CTRL, 11312291, 0.005624622, 0.0001558608, 0.005775737, 0.0001738739, 6.124871E-05
PRX, 11312326, 2, 0.57, 0, 0.6, 0, 3.59, 0, 2.37, 0, 0, 0, 0.57
RFND, 11314186, 0.2, 25, 0, 0
IMU, 11332245, -0.0008343119, -0.001413305, 0.0005458737, 0.09559055, -0.06042929, -9.744722, 0, 0, 38.48954, 1, 1, 1000, 1000
RFND, 11364238, 0.2, 25, 0, 0
IMU, 11371889, 0.0001834999, -3.979063E-05, 0.001117117, 0.08406365, -0.08410806, -9.748193, 0, 0, 38.48949, 1, 1, 1000, 1000
MAG, 11411872, 223, 664, 189, 0, 0, 0, 0, 0, 0, 1, 11411863
BARO, 11411917, 0.1384603, 987.9464, 37.25, 0.2022156, 11411, 0, 35
CTUN, 11411931, 0, 0, 0, 0.302534, 0.0694757, 0.0694757, 0.13, 0, 0.19, 0, 0, 0
ATT, 11412228, 0, 0.52, 0, -0.54, 0.01, 0.02, 0, 1
RATE, 11412236, -2.376871, 0.02920551, -0.006006631, 2.458071, 0.03217652, 0.005662422, -0.01074813, -0.02958874, -9.361593E-05, -21.18319, -0.6009102, 0
NKF1, 11412245, 0.52, -0.54, 0.02, -0.004598652, -0.01684267, -0.0005230418, 0, 0, 0, -0.0694757, 0, 0, 0
NKF2, 11412245, 4, 0, 0, 0, 0, 0, 0, 0, 0, 0, 0, 0, 0
NKF3, 11412245, 0, 0, 0, 0, -0.01, 0, 0, 0, 0, 0, 0
NKF4, 11412245, 0, 0, 0, 0, 0, 2.664941E-05, 0, 0, 0, 19, 229, 0, 0
NKF5, 11412245, 0, 0, 0, 0, 0.19, 0.13, 0, 0.19, 0.5, 7.050053E-05, 0.003432166, 0.006293556
NKQ1, 11412245, 0.9999807, 0.003583703, 0.005076546, 0.0002320671
AHR2, 11412292, 0.56, -0.55, 0.01, 0.13, 0, 0, 0.9999764, 0.004898494, -0.004816652, 0.000144615
MOTB, 11412300, 1, 1, 0, 1
RCIN, 11412304, 0, 0, 0, 0, 0, 0, 0, 0, 0, 0, 0, 0, 0, 0
RCOU, 11412310, 1101, 1101, 1101, 1101, 0, 0, 0, 0, 0, 0, 0, 0, 0, 0
VIBE, 11412319, 0.0217636, 0.02250762, 0.03598793, 0, 0, 0
CTRL, 11412326, 0.005592476, 0.0001659864, 0.005791109, 0.0001547974, 6.780522E-05
PRX, 11412357, 2, 0.57, 0, 0.6, 0, 3.59, 0, 2.38, 0, 0, 0, 0.57
IMU, 11412365, 0.000461401, 0.0005650173, -0.0005169432, 0.1043811, -0.0858179, -9.750395, 0, 0, 38.48967, 1, 1, 1000, 1000
RFND, 11414284, 0.2, 25, 0, 0
IMU, 11451858, 2.18114E-05, 0.001220209, 0.001016413, 0.09651518, -0.07559562, -9.775601, 0, 0, 38.48956, 1, 1, 1000, 1000
RFND, 11464287, 0.2, 25, 0, 0
IMU, 11491959, -0.0007625013, -0.000511953, 0.0007127579, 0.09271736, -0.07982744, -9.753629, 0, 0, 38.48962, 1, 1, 1000, 1000
MAG, 11511833, 226, 663, 193, 0, 0, 0, 0, 0, 0, 1, 11511824
BARO, 11511879, 0.1949746, 987.9402, 37.26, 0.1933852, 11511, 0, 35
CTUN, 11511892, 0, 0, 0, 0.302534, 0.06999873, 0.06999873, 0.19, 0, 0.19, 0, 0, 0
ATT, 11512084, 0, 0.52, 0, -0.54, 0.02, 0.03, 0, 1
RATE, 11512092, -2.371577, -0.082051, -0.00528274, 2.442161, 0.05406712, 0.005429514, -0.01299121, 0.06373122, -0.0001186762, -79.51244, -0.3865242, 0
NKF1, 11512101, 0.52, -0.54, 0.03, -0.004821046, -0.01726773, -0.00196327, 0, 0, 0, -0.06999873, 0, 0, 0
NKF2, 11512101, 4, 0, 0, 0, 0, 0, 0, 0, 0, 0, 0, 0, 0
NKF3, 11512101, 0, 0, 0, 0, -0.01, 0, 0, 0, 0, 0, 0
NKF4, 11512101, 0, 0, 0, 0, 0, 3.17717E-05, 0, 0, 0, 19, 229, 0, 0
NKF5, 11512101, 0, 0, 0, 0, 0.19, 0.13, 0, 0.19, 0.5, 5.993198E-05, 0.003866853, 0.006793579
NKQ1, 11512101, 0.9999806, 0.003576192, 0.005107935, 0.000261752
AHR2, 11512159, 0.55, -0.54, 0.01, 0.19, 0, 0, 0.9999766, 0.00488701, -0.00478307, 0.0001743613
MOTB, 11512167, 1, 1, 0, 1
RCIN, 11512172, 0, 0, 0, 0, 0, 0, 0, 0, 0, 0, 0, 0, 0, 0
RCOU, 11512178, 1101, 1101, 1101, 1101, 0, 0, 0, 0, 0, 0, 0, 0, 0, 0
VIBE, 11512187, 0.02105122, 0.02014694, 0.03715534, 0, 0, 0
CTRL, 11512193, 0.005592821, 0.0001579107, 0.005756271, 0.0001605224, 7.497508E-05
PRX, 11512225, 2, 0.57, 0, 0.6, 0, 3.59, 0, 2.38, 0, 0, 0, 0.57
RFND, 11514204, 0.2, 25, 0, 0
IMU, 11531873, 7.375362E-05, 0.001338231, 0.0001822504, 0.08901712, -0.08462347, -9.770234, 0, 0, 38.48963, 1, 1, 1000, 1000
RFND, 11564226, 0.2, 25, 0, 0
IMU, 11571883, -0.001641326, -0.001546928, -0.0002699104, 0.09742586, -0.08199725, -9.755287, 0, 0, 38.48974, 1, 1, 1000, 1000
MAG, 11611766, 218, 662, 187, 0, 0, 0, 0, 0, 0, 1, 11611757
BARO, 11611810, 0.1441117, 987.9456, 37.26, 0.1448181, 11611, 0, 35
CTUN, 11611824, 0, 0, 0, 0.302534, 0.07051616, 0.07051616, 0.14, 0, 0.19, 0, 0, 0
ATT, 11612008, 0, 0.52, 0, -0.54, 0.01, 0.03, 0, 1
RATE, 11612015, -2.357685, -0.05894566, -0.005387485, 2.449105, -0.03965595, 0.005926074, -0.01197928, -0.05444308, 3.666318E-06, -127.1857, 1.28746, 0
NKF1, 11612219, 0.52, -0.54, 0.03, -0.004842366, -0.01825824, -0.003140388, 0, 0, 0, -0.07051616, 0, 0, 0
NKF2, 11612219, 4, 0, 0, 0, 0, 0, 0, 0, 0, 0, 0, 0, 0
NKF3, 11612219, 0, 0, 0, 0, -0.01, 0, 0, 0, 0, 0, 0
NKF4, 11612219, 0, 0, 0, 0, 0, 3.714681E-05, 0, 0, 0, 19, 229, 0, 0
NKF5, 11612219, 0, 0, 0, 0, 0.19, 0.13, 0, 0.19, 0.5, 0.0001004164, 0.003805251, 0.00662743
NKQ1, 11612219, 0.9999808, 0.003547542, 0.005091907, 0.0002437732
AHR2, 11612268, 0.55, -0.54, 0.01, 0.14, 0, 0, 0.9999767, 0.004853191, -0.004796884, 0.0001566915
MOTB, 11612276, 1, 1, 0, 1
RCIN, 11612281, 0, 0, 0, 0, 0, 0, 0, 0, 0, 0, 0, 0, 0, 0
RCOU, 11612288, 1101, 1101, 1101, 1101, 0, 0, 0, 0, 0, 0, 0, 0, 0, 0
VIBE, 11612296, 0.02206884, 0.02093488, 0.03442987, 0, 0, 0
CTRL, 11612303, 0.00555063, 0.0001608006, 0.005762768, 0.0001641737, 8.136711E-05
PRX, 11612334, 2, 0.57, 0, 0.6, 0, 3.59, 0, 2.39, 0, 0, 0, 0.57
IMU, 11612342, -0.001089645, -0.0006847083, -0.0009508934, 0.0996581, -0.08734632, -9.76906, 0, 0, 38.4896, 1, 1, 1000, 1000
RFND, 11614153, 0.2, 25, 0, 0
IMU, 11652811, 0.001339153, 0.0001955531, -0.0006017346, 0.0824214, -0.07388721, -9.748388, 0, 0, 38.48978, 1, 1, 1000, 1000
EV, 11654735, 57
RFND, 11664722, 0.2, 25, 0, 0
IMU, 11692478, 0.001078159, -0.0003332219, -0.001082538, 0.09974891, -0.08456208, -9.755639, 0, 0, 38.49115, 1, 1, 1000, 1000
MAG, 11712264, 220, 661, 191, 0, 0, 0, 0, 0, 0, 1, 11712256
BARO, 11712324, 0.1356345, 987.9467, 37.26, 0.0865156, 11712, 0, 35
CTUN, 11712339, 0, 0, 0, 0.302534, 0.07097589, 0.07097589, 0.13, 0, 0.19, 0, 0, 0
ATT, 11712492, 0, 0.52, 0, -0.54, 0.01, 0.02, 0, 1
RATE, 11712500, -2.377021, 0.07998007, -0.005743395, 2.461151, -0.007476802, 0.005850532, -0.0113498, 0.06544367, 2.606086E-05, -149.4443, -1.317978, 0
NKF1, 11712508, 0.52, -0.54, 0.02, -0.005011634, -0.01887604, -0.003689982, 0, 0, 0, -0.07097589, 0, 0, 0
NKF2, 11712508, 4, 0, 0, 0, 0, 0, 0, 0, 0, 0, 0, 0, 0
NKF3, 11712508, 0, 0, 0, 0, -0.01, 0, 0, 0, 0, 0, 0
NKF4, 11712508, 0, 0, 0, 0, 0, 4.253189E-05, 0, 0, 0, 19, 229, 0, 0
NKF5, 11712508, 0, 0, 0, 0, 0.19, 0.13, 0, 0.19, 0.5, 8.289768E-05, 0.004025724, 0.006883411
NKQ1, 11712508, 0.9999807, 0.003586692, 0.005071295, 0.0002331372
AHR2, 11712553, 0.56, -0.55, 0.01, 0.13, 0, 0, 0.9999765, 0.004888313, -0.004816012, 0.000145702
MOTB, 11712561, 1, 1, 0, 1
RCIN, 11712566, 0, 0, 0, 0, 0, 0, 0, 0, 0, 0, 0, 0, 0, 0
RCOU, 11712572, 1114, 1114, 1114, 1114, 0, 0, 0, 0, 0, 0, 0, 0, 0, 0
VIBE, 11712580, 0.01998118, 0.0187088, 0.03550441, 0, 0, 0
CTRL, 11712587, 0.005585602, 0.0002044647, 0.005790842, 0.0001733893, 6.916221E-05
PRX, 11712619, 2, 0.57, 0, 0.6, 0, 3.59, 0, 2.39, 0, 0, 0, 0.57
RFND, 11714658, 0.2, 25, 0, 0
IMU, 11737691, 0.000508406, 0.001124352, 0.001179644, 0.1117113, -0.08445194, -9.768435, 0, 0, 38.49341, 1, 1, 1000, 1000
RFND, 11769918, 0.2, 25, 0, 0
IMU, 11777609, -0.0007516476, 0.0003946167, 0.0001463805, 0.1006778, -0.08189544, -9.745186, 0, 0, 38.49588, 1, 1, 1000, 1000
MAG, 11817448, 221, 662, 191, 0, 0, 0, 0, 0, 0, 1, 11817440
BARO, 11817491, 0.1186802, 987.9483, 37.26, -0.01842975, 11817, 0, 35
CTUN, 11817505, 0, 0, 0, 0.302534, 0.0714925, 0.0714925, 0.11, 0, 0.19, 0, 0, 0
DU32, 11817598, 7, 33611992
ATT, 11817737, 0, 0.52, 0, -0.54, 0.01, 0.03, 0, 1
RATE, 11817744, -2.374543, 0.01975545, -0.005953386, 2.461932, 0.009827476, 0.005698874, -0.0113378, 0.02922656, -5.681036E-05, -173.2592, 2.378845, 0
NKF1, 11817752, 0.52, -0.54, 0.03, -0.004742252, -0.01912093, -0.004278006, 0, 0, 0, -0.0714925, 0, 0, 0
NKF2, 11817752, 4, 0, 0, 0, 0, 0, 0, 0, 0, 0, 0, 0, 0
NKF3, 11817752, 0, 0, 0, 0, -0.01, 0, 0, 0, 0, 0, 0
NKF4, 11817752, 0, 0, 0, 0, 0, 4.866067E-05, 0, 0, 0, 19, 229, 0, 0
NKF5, 11817752, 0, 0, 0, 0, 0.19, 0.13, 0, 0.19, 0.5, 0.0001302655, 0.0040767, 0.006832544
NKQ1, 11817752, 0.9999807, 0.003580413, 0.005069946, 0.0002439998
AHR2, 11817797, 0.55, -0.55, 0.01, 0.11, 0, 0, 0.9999765, 0.004875668, -0.004814228, 0.0001566444
MOTB, 11817804, 1, 1, 0, 1
RCIN, 11817808, 0, 0, 0, 0, 0, 0, 0, 0, 0, 0, 0, 0, 0, 0
RCOU, 11817814, 1138, 1138, 1138, 1138, 0, 0, 0, 0, 0, 0, 0, 0, 0, 0
VIBE, 11817823, 0.02312903, 0.01890742, 0.03686306, 0, 0, 0
CTRL, 11817829, 0.005571763, 0.0001875447, 0.005791891, 0.0001785409, 5.982002E-05
PRX, 11817860, 2, 0.57, 0, 0.6, 0, 3.59, 0, 2.39, 0, 0, 0, 0.57
IMU, 11817867, 0.0002701906, 0.0001833102, 0.0005092415, 0.1052744, -0.06855647, -9.78036, 0, 0, 38.4994, 1, 1, 1000, 1000
RFND, 11820032, 0.2, 25, 0, 0
IMU, 11857490, -0.002051995, -0.0006076361, -0.0008143884, 0.1115496, -0.07398507, -9.752082, 0, 0, 38.50266, 1, 1, 1000, 1000
RFND, 11870369, 0.2, 25, 0, 0
IMU, 11899103, -0.0007414034, -0.001062144, 0.001072942, 0.09059699, -0.07860588, -9.75519, 0, 0, 38.50534, 1, 1, 1000, 1000
MAG, 11917475, 218, 666, 191, 0, 0, 0, 0, 0, 0, 1, 11917466
BARO, 11917519, 0.1102031, 987.9494, 37.27, -0.1297317, 11917, 0, 35
CTUN, 11917534, 0, 0, 0, 0.302534, 0.07183337, 0.07183337, 0.11, 0, 0.19, 0, 0, 0
ATT, 11917615, 0, 0.52, 0, -0.54, 0.01, 0.02, 0, 1
RATE, 11917622, -2.368594, 0.01659376, -0.005627179, 2.474073, -0.02700538, 0.006191607, -0.01136483, -0.01232674, -6.226023E-05, -164.1997, -0.7443428, 0
NKF1, 11917629, 0.52, -0.54, 0.02, -0.004517892, -0.01958922, -0.004054313, 0, 0, 0, -0.07183337, 0, 0, 0
NKF2, 11917629, 4, 0, 0, 0, 0, 0, 0, 0, 0, 0, 0, 0, 0
NKF3, 11917629, 0, 0, 0, 0, -0.01, 0, 0, 0, 0, 0, 0
NKF4, 11917629, 0, 0, 0, 0, 0, 5.378405E-05, 0, 0, 0, 19, 229, 0, 0
NKF5, 11917629, 0, 0, 0, 0, 0.19, 0.13, 0, 0.19, 0.5, 0.0001048486, 0.0041407, 0.006887387
NKQ1, 11917629, 0.9999809, 0.003568042, 0.005045734, 0.00024166
AHR2, 11917673, 0.55, -0.55, 0.01, 0.11, 0, 0, 0.9999765, 0.004856636, -0.004833244, 0.0001544525
MOTB, 11917680, 1, 1, 0, 1
RCIN, 11917685, 0, 0, 0, 0, 0, 0, 0, 0, 0, 0, 0, 0, 0, 0
RCOU, 11917691, 1162, 1162, 1162, 1162, 0, 0, 0, 0, 0, 0, 0, 0, 0, 0
VIBE, 11917700, 0.02429259, 0.02061924, 0.03308063, 0, 0, 0
CTRL, 11917707, 0.005557061, 0.000191408, 0.005800987, 0.0001868154, 6.213644E-05
PRX, 11917738, 2, 0.57, 0, 0.6, 0, 3.59, 0, 2.38, 0, 0, 0, 0.57
RFND, 11920017, 0.2, 25, 0, 0
IMU, 11937577, 7.856858E-05, -0.0004779403, -0.001508711, 0.1021511, -0.08528566, -9.773438, 0, 0, 38.50805, 1, 1, 1000, 1000
RFND, 11970043, 0.2, 25, 0, 0
IMU, 11977786, -0.000690694, 0.001685511, 0.006869961, 0.1074777, -0.0650129, -9.772481, 0, 0, 38.51104, 1, 1, 1000, 1000
MAG, 12017427, 216, 661, 194, 0, 0, 0, 0, 0, 0, 1, 12017418
BARO, 12017469, 0.07629443, 987.9531, 37.27, -0.1622123, 12017, 0, 35
CTUN, 12017483, 0, 0, 0, 0.302534, 0.07220743, 0.07220743, 0.07, 0, 0.19, 0, 0, 0
ATT, 12017564, 0, 0.52, 0, -0.54, 0.02, 0.03, 0, 1
RATE, 12017570, -2.367175, -0.04083658, -0.005230567, 2.470622, -0.06000512, 0.006246825, -0.01134302, 0.1519433, 8.864769E-06, -192.4971, 0.4300117, 0
NKF1, 12017578, 0.52, -0.54, 0.03, -0.004312777, -0.01998615, -0.004753014, 0, 0, 0, -0.07220743, 0, 0, 0
NKF2, 12017578, 4, 0, 0, 0, 0, 0, 0, 0, 0, 0, 0, 0, 0
NKF3, 12017578, 0, 0, 0, 0, -0.01, 0, 0, 0, 0, 0, 0
NKF4, 12017578, 0, 0, 0, 0, 0, 6.038818E-05, 0, 0, 0, 19, 229, 0, 0
NKF5, 12017578, 0, 0, 0, 0, 0.19, 0.13, 0, 0.19, 0.5, 0.0001550451, 0.004224241, 0.006970478
NKQ1, 12017578, 0.9999808, 0.00356808, 0.005055511, 0.0003043393
AHR2, 12017621, 0.55, -0.55, 0.02, 0.07, 0, 0, 0.9999766, 0.004845837, -0.004816513, 0.0002171443
MOTB, 12017629, 1, 1, 0, 1
RCIN, 12017633, 0, 0, 0, 0, 0, 0, 0, 0, 0, 0, 0, 0, 0, 0
RCOU, 12017639, 1186, 1186, 1186, 1186, 0, 0, 0, 0, 0, 0, 0, 0, 0, 0
VIBE, 12017648, 0.1089474, 0.1519292, 0.06270956, 0, 0, 0
CTRL, 12017654, 0.005548041, 0.0002063347, 0.005799261, 0.0002224628, 9.45394E-05
PRX, 12017687, 2, 0.57, 0, 0.6, 0, 3.59, 0, 2.38, 0, 0, 0, 0.57
IMU, 12017694, -0.0008036279, -0.001030626, 0.002650846, 0.0942817, -0.1070804, -9.760404, 0, 0, 38.51381, 1, 1, 1000, 1000
RFND, 12020065, 0.2, 25, 0, 0
IMU, 12057547, 0.00344433, -0.0002973863, -0.004098558, 0.05821367, -0.05572124, -9.75441, 0, 0, 38.51627, 1, 1, 1000, 1000
RFND, 12071087, 0.2, 25, 0, 0
IMU, 12098212, 0.001528762, 0.004080667, -0.01927185, 0.01012598, -0.08492054, -9.769255, 0, 0, 38.51952, 1, 1, 1000, 1000
MAG, 12117410, 221, 662, 191, 0, 0, 0, 0, 0, 0, 1, 12117401
BARO, 12117454, 0.01130288, 987.9601, 37.27, -0.1791154, 12117, 0, 35
CTUN, 12117469, 0, 0, 0, 0.302534, 0.07250741, 0.07250741, 0.01, 0, 0.19, 0, 0, 0
ATT, 12117551, 0, 0.53, 0, -0.54, 0, 0.01, 0, 1
RATE, 12117558, -2.414395, 0.2752878, -0.007179583, 2.465062, 0.02306663, 0.005855403, -0.01154778, 0.5022069, 0.0003954445, -197.3074, -3.841209, 0
NKF1, 12117566, 0.53, -0.54, 0.01, -0.00211881, -0.01970279, -0.004871787, 0, 0, 0, -0.07250741, 0, 0, 0
NKF2, 12117566, 4, 0, 0, 0, 0, 0, 0, 0, 0, 0, 0, 0, 0
NKF3, 12117566, 0, 0, 0, 0, -0.01, 0, 0, 0, 0, 0, 0
NKF4, 12117566, 0, 0, 0, 0, 0, 6.524871E-05, 0, 0, 0, 19, 229, 0, 0
NKF5, 12117566, 0, 0, 0, 0, 0.19, 0.13, 0, 0.19, 0.5, 0.0002047611, 0.004591175, 0.007452818
NKQ1, 12117566, 0.9999804, 0.003667908, 0.005071148, 0.0001473515
AHR2, 12117609, 0.56, -0.54, 0, 0.01, 0, 0, 0.9999763, 0.004932786, -0.004793541, 5.919217E-05
MOTB, 12117616, 1, 1, 0, 1
RCIN, 12117621, 0, 0, 0, 0, 0, 0, 0, 0, 0, 0, 0, 0, 0, 0
RCOU, 12117627, 1210, 1210, 1210, 1210, 0, 0, 0, 0, 0, 0, 0, 0, 0, 0
VIBE, 12117635, 0.427331, 0.37545, 0.2907484, 0, 0, 0
CTRL, 12117642, 0.005610836, 0.0004149441, 0.005796693, 0.0003232599, 0.0002497399
PRX, 12117673, 2, 0.57, 0, 0.6, 0, 3.59, 0, 2.38, 0, 0, 0, 0.57
RFND, 12120005, 0.2, 25, 0, 0
IMU, 12138106, -0.002174022, -0.001433731, -0.000618955, 0.09296469, -0.05661797, -9.741082, 0, 0, 38.52349, 1, 1, 1000, 1000
RFND, 12169971, 0.2, 25, 0, 0
IMU, 12178279, 0.002770549, 0.002455163, -0.001726475, 0.11266, -0.0758438, -9.783192, 0, 0, 38.5263, 1, 1, 1000, 1000
MAG, 12217557, 219, 662, 190, 0, 0, 0, 0, 0, 0, 1, 12217547
BARO, 12217601, 0.08477159, 987.9522, 37.28, -0.2380839, 12217, 0, 35
CTUN, 12217614, 0, 0, 0, 0.302534, 0.07274326, 0.07274326, 0.08, 0, 0.19, 0, 0, 0
ATT, 12217701, 0, 0.54, 0, -0.54, 359.98, 0, 0, 1
RATE, 12217707, -2.479522, 0.2469762, -0.006758777, 2.438996, -0.01183211, 0.0053938, -0.01173385, -1.755267, 0.0007537942, -195.6779, 1.397133, 0
NKF1, 12217716, 0.54, -0.54, 359.99, -0.005166216, -0.02066316, -0.004831553, 0, 0, 0, -0.07274326, 0, 0, 0
NKF2, 12217716, 4, 0, 0, 0, 0, 0, 0, 0, 0, 0, 0, 0, 0
NKF3, 12217716, 0, 0, 0, 0, -0.01, 0, 0, 0, 0, 0, 0
NKF4, 12217716, 0, 0, 0, 0, 0, 7.007134E-05, 0, 0, 0, 19, 229, 0, 0
NKF5, 12217716, 0, 0, 0, 0, 0.19, 0.13, 0, 0.19, 0.5, 0.000174056, 0.004162251, 0.006922371
NKQ1, 12217716, 0.9999801, 0.003753842, 0.005079107, -9.70494E-05
AHR2, 12217760, 0.57, -0.54, 359.97, 0.08, 0, 0, 0.999976, 0.004999386, -0.004782137, -0.0001859797
MOTB, 12217768, 1, 1, 0, 1
RCIN, 12217773, 0, 0, 0, 0, 0, 0, 0, 0, 0, 0, 0, 0, 0, 0
RCOU, 12217779, 1241, 1221, 1229, 1231, 0, 0, 0, 0, 0, 0, 0, 0, 0, 0
VIBE, 12217787, 0.6314328, 0.4803213, 0.5995612, 0, 0, 0
CTRL, 12217794, 0.005746938, 0.0007415716, 0.00579553, 0.0004617148, 0.0002513473
PRX, 12217827, 2, 0.57, 0, 0.6, 0, 3.59, 0, 2.38, 0, 0, 0, 0.57
IMU, 12217834, 0.004202533, -0.0001848793, -0.03063647, 0.09005836, -0.08722879, -9.770051, 0, 0, 38.52719, 1, 1, 1000, 1000
RFND, 12220298, 0.2, 25, 0, 0
IMU, 12257497, -0.003493965, 0.0001200059, -0.02621025, 0.07947203, -0.1264511, -9.784299, 0, 0, 38.52858, 1, 1, 1000, 1000
RFND, 12270415, 0.2, 25, 0, 0
IMU, 12297630, -0.003837818, 0.01024662, 0.05624333, 0.1074452, -0.1170674, -9.774434, 0, 0, 38.52979, 1, 1, 1000, 1000
MAG, 12317587, 210, 664, 195, 0, 0, 0, 0, 0, 0, 1, 12317577
BARO, 12317633, 0.1667175, 987.9431, 37.28, -0.1872842, 12317, 0, 35
CTUN, 12317646, 0, 0, 0, 0.302534, 0.07285767, 0.07285767, 0.16, 0, 0.19, 0, 0, 0
ATT, 12317733, 0, 0.55, 0, -0.52, 0.01, 0.02, 0, 1
RATE, 12317739, -2.497471, -0.05915675, -0.008590483, 2.364241, 0.04690665, 0.006902336, -0.01146246, -1.597991, -0.001249073, -153.2143, 0.4998207, 0
NKF1, 12317747, 0.55, -0.52, 0.02, -0.004628144, -0.01819975, -0.003783069, 0, 0, 0, -0.07285767, 0, 0, 0
NKF2, 12317747, 4, 0, 0, 0, 0, 0, 0, 0, 0, 0, 0, 0, 0
NKF3, 12317747, 0, 0, 0, 0, -0.01, 0, 0, 0, 0, 0, 0
NKF4, 12317747, 0, 0, 0, 0, 0, 7.39073E-05, 0, 0, 0, 19, 229, 0, 0
NKF5, 12317747, 0, 0, 0, 0, 0.19, 0.13, 0, 0.19, 0.5, 0.0002224603, 0.004549437, 0.007477444
NKQ1, 12317747, 0.9999791, 0.003791314, 0.005227567, 0.0001860158
AHR2, 12317791, 0.57, -0.53, 0, 0.16, 0, 0, 0.9999766, 0.005019304, -0.004640121, 9.67208E-05
MOTB, 12317799, 1, 1, 0, 1
RCIN, 12317803, 0, 0, 0, 0, 0, 0, 0, 0, 0, 0, 0, 0, 0, 0
RCOU, 12317809, 1247, 1221, 1235, 1238, 0, 0, 0, 0, 0, 0, 0, 0, 0, 0
VIBE, 12317818, 0.4824038, 0.4738003, 0.5366371, 0, 0, 0
CTRL, 12317824, 0.005748115, 0.001294823, 0.005613875, 0.0007392917, 0.0006234148
PRX, 12317856, 2, 0.57, 0, 0.6, 0, 3.59, 0, 2.38, 0, 0, 0, 0.57
RFND, 12320214, 0.2, 25, 0, 0
IMU, 12338330, 0.01630961, -0.0006655048, 0.00241924, 0.07487497, -0.06066359, -9.748814, 0, 0, 38.53071, 1, 1, 1000, 1000
RFND, 12370441, 0.2, 25, 0, 0
IMU, 12377629, -0.007781136, 0.006473773, 0.02045899, 0.1425151, -0.0704311, -9.760205, 0, 0, 38.53046, 1, 1, 1000, 1000
MAG, 12417776, 209, 666, 195, 0, 0, 0, 0, 0, 0, 1, 12417768
BARO, 12417820, 0.1836718, 987.9414, 37.28, 0.1041984, 12417, 0, 35
CTUN, 12417834, 0, 0, 0, 0.302534, 0.07274396, 0.07274396, 0.18, 0, 0.19, 0, 0, 0
ATT, 12418000, 0, 0.54, 0, -0.52, 0.01, 0.03, 0, 1
RATE, 12418007, -2.463801, -0.722719, 0.0005984632, 2.360891, 0.238634, 0.003732651, -0.01128145, 0.1662137, 0.0009229974, 13.9654, -7.481384, 0
NKF1, 12418015, 0.54, -0.52, 0.03, -0.005057335, -0.01996602, 0.0003448247, 0, 0, 0, -0.07274396, 0, 0, 0
NKF2, 12418015, 4, 0, 0, 0, 0, 0, 0, 0, 0, 0, 0, 0, 0
NKF3, 12418015, 0, 0, 0, 0, -0.01, 0, 0, 0, 0, 0, 0
NKF4, 12418015, 0, 0, 0, 0, 0, 7.722349E-05, 0, 0, 0, 19, 229, 0, 0
NKF5, 12418015, 0, 0, 0, 0, 0.19, 0.13, 0, 0.19, 0.5, 0.000181389, 0.004027005, 0.006737808
NKQ1, 12418015, 0.999979, 0.003756494, 0.005267885, 0.0002458784
AHR2, 12418061, 0.56, -0.52, 0.01, 0.18, 0, 0, 0.9999771, 0.004971986, -0.004600347, 0.0001569637
MOTB, 12418069, 1, 1, 0, 1
RCIN, 12418073, 0, 0, 0, 0, 0, 0, 0, 0, 0, 0, 0, 0, 0, 0
RCOU, 12418079, 1229, 1223, 1228, 1221, 0, 0, 0, 0, 0, 0, 0, 0, 0, 0
VIBE, 12418088, 0.3902951, 0.5067773, 0.5236281, 0, 0, 0
CTRL, 12418095, 0.005955826, 0.002199013, 0.005610165, 0.0009023386, 0.0006228252
PRX, 12418127, 2, 0.57, 0, 0.6, 0, 3.59, 0, 2.38, 0, 0, 0, 0.57
IMU, 12418135, -0.01273927, 0.0041914, 0.002899481, 0.1082166, -0.07204686, -9.681069, 0, 0, 38.5295, 1, 1, 1000, 1000
RFND, 12420503, 0.2, 25, 0, 0
IMU, 12458253, 0.009618057, -0.004231622, -0.0240308, 0.07286017, -0.07061072, -9.694389, 0, 0, 38.52643, 1, 1, 1000, 1000
RFND, 12470027, 0.2, 25, 0, 0
IMU, 12497638, -0.0005667481, 0.009925161, -0.007917086, 0.007985027, -0.04061353, -9.68676, 0, 0, 38.52137, 1, 1, 1000, 1000
MAG, 12517538, 208, 665, 202, 0, 0, 0, 0, 0, 0, 1, 12517529
BARO, 12517582, 0.1102031, 987.9494, 37.27, 0.377057, 12517, 0, 35
CTUN, 12518274, 0, 0, 0, 0.302534, 0.072204, 0.072204, 0.11, 0, 0.19, 0, 0, 0
ATT, 12518363, 0, 0.55, 0, -0.52, 0.01, 0.02, 0, 1
RATE, 12518368, -2.474619, -0.1069516, -0.004759443, 2.389721, -0.4025026, 0.007936413, -0.01147123, 0.5323445, 0.0001529995, 58.93528, 0.7626534, 0
NKF1, 12518376, 0.55, -0.52, 0.02, -0.003741168, -0.01967959, 0.001455192, 0, 0, 0, -0.072204, 0, 0, 0
NKF2, 12518376, 4, 0, 0, 0, 0, 0, 0, 0, 0, 0, 0, 0, 0
NKF3, 12518376, 0, 0, 0, 0, -0.01, 0, 0, 0, 0, 0, 0
NKF4, 12518376, 0, 0, 0, 0, 0, 7.977959E-05, 0, 0, 0, 19, 229, 0, 0
NKF5, 12518376, 0, 0, 0, 0, 0.19, 0.13, 0, 0.19, 0.5, 0.0002275117, 0.004401889, 0.00728635
NKQ1, 12518376, 0.9999792, 0.003784831, 0.005218124, 0.0002172873
AHR2, 12518425, 0.57, -0.53, 0.01, 0.11, 0, 0, 0.9999768, 0.0050047, -0.004638693, 0.0001280683
MOTB, 12518433, 1, 1, 0, 1
RCIN, 12518437, 0, 0, 0, 0, 0, 0, 0, 0, 0, 0, 0, 0, 0, 0
RCOU, 12518443, 1242, 1221, 1234, 1229, 0, 0, 0, 0, 0, 0, 0, 0, 0, 0
VIBE, 12518452, 0.3924181, 0.4673083, 0.506539, 0, 0, 0
CTRL, 12518459, 0.005886244, 0.002208163, 0.005606208, 0.001478949, 0.000557425
PRX, 12518492, 2, 0.57, 0, 0.6, 0, 3.59, 0, 2.38, 0, 0, 0, 0.57
RFND, 12520399, 0.2, 25, 0, 0
IMU, 12537492, -0.004862489, -0.002188758, -0.003455931, 0.1089513, -0.09268096, -9.71606, 0, 0, 38.51512, 1, 1, 1000, 1000
RFND, 12569950, 0.2, 25, 0, 0
IMU, 12577494, -0.005792295, -0.01814435, -0.002869912, 0.2133131, -0.07475154, -9.766851, 0, 0, 38.50836, 1, 1, 1000, 1000
MAG, 12617569, 213, 667, 196, 0, 0, 0, 0, 0, 0, 1, 12617560
BARO, 12617615, 0.09042303, 987.9514, 37.25, 0.282572, 12617, 0, 35
CTUN, 12617629, 0, 0, 0, 0.302534, 0.07139837, 0.07139837, 0.09, 0, 0.19, 0, 0, 0
ATT, 12617716, 0, 0.53, 0, -0.52, 0.02, 0.03, 0, 1
RATE, 12617723, -2.426046, -0.550999, -0.002892959, 2.371411, 0.0438769, 0.007951593, -0.01115634, 0.35118, -0.0003554735, 184.6992, -3.985596, 0
NKF1, 12617731, 0.53, -0.52, 0.03, -0.004514576, -0.01927289, 0.004560473, 0, 0, 0, -0.07139837, 0, 0, 0
NKF2, 12617731, 4, 0, 0, 0, 0, 0, 0, 0, 0, 0, 0, 0, 0
NKF3, 12617731, 0, 0, 0, 0, -0.01, 0, 0, 0, 0, 0, 0
NKF4, 12617731, 0, 0, 0, 0, 0, 8.167356E-05, 0, 0, 0, 19, 229, 0, 0
NKF5, 12617731, 0, 0, 0, 0, 0.19, 0.13, 0, 0.19, 0.5, 0.0001793234, 0.003831636, 0.006424615
NKQ1, 12617731, 0.9999794, 0.003686064, 0.00525128, 0.000259421
AHR2, 12617775, 0.56, -0.52, 0.01, 0.09, 0, 0, 0.9999774, 0.004901582, -0.004597437, 0.00017113
MOTB, 12617782, 1, 1, 0, 1
RCIN, 12617786, 0, 0, 0, 0, 0, 0, 0, 0, 0, 0, 0, 0, 0, 0
RCOU, 12617792, 1239, 1221, 1235, 1226, 0, 0, 0, 0, 0, 0, 0, 0, 0, 0
VIBE, 12617801, 0.5505875, 0.4576188, 0.4678599, 0, 0, 0
CTRL, 12617807, 0.005786931, 0.002062464, 0.005626236, 0.002089697, 0.0004674332
PRX, 12617838, 2, 0.57, 0, 0.6, 0, 3.59, 0, 2.38, 0, 0, 0, 0.57
IMU, 12617846, -0.009759435, 0.0007967982, 0.006127541, 0.1378479, -0.1341384, -9.715191, 0, 0, 38.5012, 1, 1, 1000, 1000
RFND, 12620117, 0.2, 25, 0, 0
IMU, 12657641, 0.0003824878, 0.004520816, -0.01274323, -0.1080865, -0.1075983, -9.714873, 0, 0, 38.49339, 1, 1, 1000, 1000
RFND, 12670130, 0.2, 25, 0, 0
IMU, 12697706, -0.001299749, -0.01139513, -0.001175822, 0.01797643, -0.07402372, -9.688272, 0, 0, 38.48415, 1, 1, 1000, 1000
MAG, 12717685, 216, 665, 193, 0, 0, 0, 0, 0, 0, 1, 12717676
BARO, 12717731, 0.05368867, 987.9556, 37.23, -0.06799387, 12717, 0, 35
CTUN, 12717744, 0, 0, 0, 0.302534, 0.07032026, 0.07032026, 0.05, 0, 0.19, 0, 0, 0
ATT, 12717835, 0, 0.53, 0, -0.52, 0.01, 0.03, 0, 1
RATE, 12717842, -2.427828, -0.009298471, -0.004457564, 2.346039, 0.5730059, 0.002393386, -0.01104388, 0.136591, -0.0002385197, 280.0407, -2.25687, 0
NKF1, 12717850, 0.53, -0.52, 0.03, -0.007457016, -0.01872221, 0.006914585, 0, 0, 0, -0.07032026, 0, 0, 0
NKF2, 12717850, 5, 0, 0, 0, 0, 0, 0, 0, 0, 0, 0, 0, 0
NKF3, 12717850, 0, 0, 0, 0, -0.01, 0, 0, 0, 0, 0, 0
NKF4, 12717850, 0, 0, 0, 0, 0, 8.255471E-05, 0, 0, 0, 19, 229, 0, 0
NKF5, 12717850, 0, 0, 0, 0, 0.19, 0.13, 0, 0.19, 0.5, 0.0002208435, 0.004123269, 0.006949628
NKQ1, 12717850, 0.9999792, 0.003685482, 0.005296771, 0.0002434185
AHR2, 12717983, 0.55, -0.52, 0.01, 0.05, 0, 0, 0.9999778, 0.00487051, -0.004550595, 0.0001552334
MOTB, 12717991, 1, 1, 0, 1
RCIN, 12717996, 0, 0, 0, 0, 0, 0, 0, 0, 0, 0, 0, 0, 0, 0
RCOU, 12718002, 1233, 1221, 1225, 1229, 0, 0, 0, 0, 0, 0, 0, 0, 0, 0
VIBE, 12718011, 0.618495, 0.4226203, 0.4287161, 0, 0, 0
CTRL, 12718018, 0.005788423, 0.001892013, 0.005611211, 0.002107464, 0.000397887
PRX, 12718051, 2, 0.57, 0, 0.6, 0, 3.59, 0, 2.38, 0, 0, 0, 0.57
RFND, 12720295, 0.2, 25, 0, 0
IMU, 12737644, 0.0001147984, -0.004390852, -0.003589921, 0.3267351, -0.032693, -9.750682, 0, 0, 38.47283, 1, 1, 1000, 1000
RFND, 12770077, 0.2, 25, 0, 0
IMU, 12777828, -0.0006758761, 0.00862214, -0.003144643, 0.02862742, -0.03726992, -9.730596, 0, 0, 38.45897, 1, 1, 1000, 1000
MAG, 12817690, 212, 668, 197, 0, 0, 0, 0, 0, 0, 1, 12817681
BARO, 12817735, 0.02825719, 987.9583, 37.2, -0.3046479, 12817, 0, 35
CTUN, 12817749, 0, 0, 0, 0.302534, 0.06886654, 0.06886654, 0.02, 0, 0.19, 0, 0, -1
DU32, 12817782, 7, 33611992
ATT, 12817990, 0, 0.53, 0, -0.52, 0.02, 0.03, 0, 1
