FMT, 128, 89, FMT, BBnNZ, Type,Length,Name,Format,Columns
FMT, 129, 31, PARM, QNf, TimeUS,Name,Value
FMT, 130, 46, GPS, QBIHBcLLefffB, TimeUS,Status,GMS,GWk,NSats,HDop,Lat,Lng,Alt,Spd,GCrs,VZ,U
FMT, 131, 46, GPS2, QBIHBcLLefffB, TimeUS,Status,GMS,GWk,NSats,HDop,Lat,Lng,Alt,Spd,GCrs,VZ,U
FMT, 132, 46, GPSB, QBIHBcLLefffB, TimeUS,Status,GMS,GWk,NSats,HDop,Lat,Lng,Alt,Spd,GCrs,VZ,U
FMT, 193, 24, GPA, QCCCCBI, TimeUS,VDop,HAcc,VAcc,SAcc,VV,SMS
FMT, 194, 24, GPA2, QCCCCBI, TimeUS,VDop,HAcc,VAcc,SAcc,VV,SMS
FMT, 195, 24, GPAB, QCCCCBI, TimeUS,VDop,HAcc,VAcc,SAcc,VV,SMS
FMT, 133, 53, IMU, QffffffIIfBBHH, TimeUS,GyrX,GyrY,GyrZ,AccX,AccY,AccZ,EG,EA,T,GH,AH,GHz,AHz
FMT, 134, 75, MSG, QZ, TimeUS,Message
FMT, 135, 39, RCIN, QHHHHHHHHHHHHHH, TimeUS,C1,C2,C3,C4,C5,C6,C7,C8,C9,C10,C11,C12,C13,C14
FMT, 136, 39, RCOU, QHHHHHHHHHHHHHH, TimeUS,C1,C2,C3,C4,C5,C6,C7,C8,C9,C10,C11,C12,C13,C14
FMT, 137, 15, RSSI, Qf, TimeUS,RXRSSI
FMT, 139, 37, BARO, QffcfIff, TimeUS,Alt,Press,Temp,CRt,SMS,Offset,GndTemp
FMT, 140, 22, POWR, QffHB, TimeUS,Vcc,VServo,Flags,Safety
FMT, 143, 45, CMD, QHHHfffffff, TimeUS,CTot,CNum,CId,Prm1,Prm2,Prm3,Prm4,Lat,Lng,Alt
FMT, 144, 20, RAD, QBBBBBHH, TimeUS,RSSI,RemRSSI,TxBuf,Noise,RemNoise,RxErrors,Fixed
FMT, 146, 43, CAM, QIHLLeeeccC, TimeUS,GPSTime,GPSWeek,Lat,Lng,Alt,RelAlt,GPSAlt,Roll,Pitch,Yaw
FMT, 232, 43, TRIG, QIHLLeeeccC, TimeUS,GPSTime,GPSWeek,Lat,Lng,Alt,RelAlt,GPSAlt,Roll,Pitch,Yaw
FMT, 162, 30, ARSP, QffcffB, TimeUS,Airspeed,DiffPress,Temp,RawPress,Offset,U
FMT, 164, 45, CURR, QfffcHHHHHHHHHH, TimeUS,Volt,Curr,CurrTot,Temp,V1,V2,V3,V4,V5,V6,V7,V8,V9,V10
FMT, 165, 45, CUR2, QfffcHHHHHHHHHH, TimeUS,Volt,Curr,CurrTot,Temp,V1,V2,V3,V4,V5,V6,V7,V8,V9,V10
FMT, 163, 27, ATT, QccccCCCC, TimeUS,DesRoll,Roll,DesPitch,Pitch,DesYaw,Yaw,ErrRP,ErrYaw
FMT, 166, 34, MAG, QhhhhhhhhhBI, TimeUS,MagX,MagY,MagZ,OfsX,OfsY,OfsZ,MOfsX,MOfsY,MOfsZ,Health,S
FMT, 169, 14, MODE, QMBB, TimeUS,Mode,ModeNum,Rsn
FMT, 196, 17, RFND, QCBCB, TimeUS,Dist1,Orient1,Dist2,Orient2
FMT, 223, 33, DMS, IIIIIBBBBBBBBBB, TimeMS,N,Dp,RT,RS,Er,Fa,Fmn,Fmx,Pa,Pmn,Pmx,Sa,Smn,Smx
FMT, 240, 41, BCN, QBBfffffff, TimeUS,Health,Cnt,D0,D1,D2,D3,PosX,PosY,PosZ
FMT, 138, 53, IMU2, QffffffIIfBBHH, TimeUS,GyrX,GyrY,GyrZ,AccX,AccY,AccZ,EG,EA,T,GH,AH,GHz,AHz
FMT, 147, 53, IMU3, QffffffIIfBBHH, TimeUS,GyrX,GyrY,GyrZ,AccX,AccY,AccZ,EG,EA,T,GH,AH,GHz,AHz
FMT, 141, 45, AHR2, QccCfLLffff, TimeUS,Roll,Pitch,Yaw,Alt,Lat,Lng,Q1,Q2,Q3,Q4
FMT, 180, 31, POS, QLLfff, TimeUS,Lat,Lng,Alt,RelHomeAlt,RelOriginAlt
FMT, 142, 45, SIM, QccCfLLffff, TimeUS,Roll,Pitch,Yaw,Alt,Lat,Lng,Q1,Q2,Q3,Q4
FMT, 198, 51, NKF1, QccCfffffffccc, TimeUS,Roll,Pitch,Yaw,VN,VE,VD,dPD,PN,PE,PD,GX,GY,GZ
FMT, 199, 35, NKF2, QbccccchhhhhhB, TimeUS,AZbias,GSX,GSY,GSZ,VWN,VWE,MN,ME,MD,MX,MY,MZ,MI
FMT, 200, 33, NKF3, Qcccccchhhcc, TimeUS,IVN,IVE,IVD,IPN,IPE,IPD,IMX,IMY,IMZ,IYAW,IVT
FMT, 201, 35, NKF4, QcccccfbbHBHHb, TimeUS,SV,SP,SH,SM,SVT,errRP,OFN,OFE,FS,TS,SS,GPS,PI
FMT, 202, 40, NKF5, QBhhhcccCCfff, TimeUS,NI,FIX,FIY,AFI,HAGL,offset,RI,rng,Herr,eAng,eVel,ePos
FMT, 203, 51, NKF6, QccCfffffffccc, TimeUS,Roll,Pitch,Yaw,VN,VE,VD,dPD,PN,PE,PD,GX,GY,GZ
FMT, 204, 35, NKF7, QbccccchhhhhhB, TimeUS,AZbias,GSX,GSY,GSZ,VWN,VWE,MN,ME,MD,MX,MY,MZ,MI
FMT, 205, 33, NKF8, Qcccccchhhcc, TimeUS,IVN,IVE,IVD,IPN,IPE,IPD,IMX,IMY,IMZ,IYAW,IVT
FMT, 206, 35, NKF9, QcccccfbbHBHHb, TimeUS,SV,SP,SH,SM,SVT,errRP,OFN,OFE,FS,TS,SS,GPS,PI
FMT, 207, 36, NKF0, QBccCCcccccccc, TimeUS,ID,rng,innov,SIV,TR,BPN,BPE,BPD,OFH,OFL,OFN,OFE,OFD
FMT, 208, 27, NKQ1, Qffff, TimeUS,Q1,Q2,Q3,Q4
FMT, 209, 27, NKQ2, Qffff, TimeUS,Q1,Q2,Q3,Q4
FMT, 210, 51, XKF1, QccCfffffffccc, TimeUS,Roll,Pitch,Yaw,VN,VE,VD,dPD,PN,PE,PD,GX,GY,GZ
FMT, 211, 34, XKF2, QccccchhhhhhB, TimeUS,AX,AY,AZ,VWN,VWE,MN,ME,MD,MX,MY,MZ,MI
FMT, 212, 33, XKF3, Qcccccchhhcc, TimeUS,IVN,IVE,IVD,IPN,IPE,IPD,IMX,IMY,IMZ,IYAW,IVT
FMT, 213, 35, XKF4, QcccccfbbHBHHb, TimeUS,SV,SP,SH,SM,SVT,errRP,OFN,OFE,FS,TS,SS,GPS,PI
FMT, 214, 40, XKF5, QBhhhcccCCfff, TimeUS,NI,FIX,FIY,AFI,HAGL,offset,RI,rng,Herr,eAng,eVel,ePos
FMT, 215, 51, XKF6, QccCfffffffccc, TimeUS,Roll,Pitch,Yaw,VN,VE,VD,dPD,PN,PE,PD,GX,GY,GZ
FMT, 216, 34, XKF7, QccccchhhhhhB, TimeUS,AX,AY,AZ,VWN,VWE,MN,ME,MD,MX,MY,MZ,MI
FMT, 217, 33, XKF8, Qcccccchhhcc, TimeUS,IVN,IVE,IVD,IPN,IPE,IPD,IMX,IMY,IMZ,IYAW,IVT
FMT, 218, 35, XKF9, QcccccfbbHBHHb, TimeUS,SV,SP,SH,SM,SVT,errRP,OFN,OFE,FS,TS,SS,GPS,PI
FMT, 219, 36, XKF0, QBccCCcccccccc, TimeUS,ID,rng,innov,SIV,TR,BPN,BPE,BPD,OFH,OFL,OFN,OFE,OFD
FMT, 220, 27, XKQ1, Qffff, TimeUS,Q1,Q2,Q3,Q4
FMT, 221, 27, XKQ2, Qffff, TimeUS,Q1,Q2,Q3,Q4
FMT, 222, 35, XKFD, Qffffff, TimeUS,IX,IY,IZ,IVX,IVY,IVZ
FMT, 148, 34, TERR, QBLLHffHH, TimeUS,Status,Lat,Lng,Spacing,TerrH,CHeight,Pending,Loaded
FMT, 149, 18, UBX1, QBHBBH, TimeUS,Instance,noisePerMS,jamInd,aPower,agcCnt
FMT, 150, 16, UBX2, QBbBbB, TimeUS,Instance,ofsI,magI,ofsQ,magQ
FMT, 151, 18, UBY1, QBHBBH, TimeUS,Instance,noisePerMS,jamInd,aPower,agcCnt
FMT, 152, 16, UBY2, QBbBbB, TimeUS,Instance,ofsI,magI,ofsQ,magQ
FMT, 170, 42, GRAW, QIHBBddfBbB, TimeUS,WkMS,Week,numSV,sv,cpMes,prMes,doMes,mesQI,cno,lli
FMT, 171, 24, GRXH, QdHbBB, TimeUS,rcvTime,week,leapS,numMeas,recStat
FMT, 172, 41, GRXS, QddfBBBHBBBBB, TimeUS,prMes,cpMes,doMes,gnss,sv,freq,lock,cno,prD,cpD,doD,trk
FMT, 173, 63, SBFE, QIHBBdddfffff, TimeUS,TOW,WN,Mode,Err,Lat,Lng,Height,Undul,Vn,Ve,Vu,COG
FMT, 153, 19, ESC1, Qcccc, TimeUS,RPM,Volt,Curr,Temp
FMT, 154, 19, ESC2, Qcccc, TimeUS,RPM,Volt,Curr,Temp
FMT, 155, 19, ESC3, Qcccc, TimeUS,RPM,Volt,Curr,Temp
FMT, 156, 19, ESC4, Qcccc, TimeUS,RPM,Volt,Curr,Temp
FMT, 157, 19, ESC5, Qcccc, TimeUS,RPM,Volt,Curr,Temp
FMT, 158, 19, ESC6, Qcccc, TimeUS,RPM,Volt,Curr,Temp
FMT, 159, 19, ESC7, Qcccc, TimeUS,RPM,Volt,Curr,Temp
FMT, 160, 19, ESC8, Qcccc, TimeUS,RPM,Volt,Curr,Temp
FMT, 167, 34, MAG2, QhhhhhhhhhBI, TimeUS,MagX,MagY,MagZ,OfsX,OfsY,OfsZ,MOfsX,MOfsY,MOfsZ,Health,S
FMT, 168, 34, MAG3, QhhhhhhhhhBI, TimeUS,MagX,MagY,MagZ,OfsX,OfsY,OfsZ,MOfsX,MOfsY,MOfsZ,Health,S
FMT, 174, 31, ACC1, QQfff, TimeUS,SampleUS,AccX,AccY,AccZ
FMT, 175, 31, ACC2, QQfff, TimeUS,SampleUS,AccX,AccY,AccZ
FMT, 176, 31, ACC3, QQfff, TimeUS,SampleUS,AccX,AccY,AccZ
FMT, 177, 31, GYR1, QQfff, TimeUS,SampleUS,GyrX,GyrY,GyrZ
FMT, 178, 31, GYR2, QQfff, TimeUS,SampleUS,GyrX,GyrY,GyrZ
FMT, 179, 31, GYR3, QQfff, TimeUS,SampleUS,GyrX,GyrY,GyrZ
FMT, 181, 35, PIDR, Qffffff, TimeUS,Des,P,I,D,FF,AFF
FMT, 182, 35, PIDP, Qffffff, TimeUS,Des,P,I,D,FF,AFF
FMT, 183, 35, PIDY, Qffffff, TimeUS,Des,P,I,D,FF,AFF
FMT, 184, 35, PIDA, Qffffff, TimeUS,Des,P,I,D,FF,AFF
FMT, 185, 35, PIDS, Qffffff, TimeUS,Des,P,I,D,FF,AFF
FMT, 186, 35, PIDL, Qffffff, TimeUS,Des,P,I,D,FF,AFF
FMT, 161, 37, BAR2, QffcfIff, TimeUS,Alt,Press,Temp,CRt,SMS,Offset,GndTemp
FMT, 197, 37, BAR3, QffcfIff, TimeUS,Alt,Press,Temp,CRt,SMS,Offset,GndTemp
FMT, 187, 35, VIBE, QfffIII, TimeUS,VibeX,VibeY,VibeZ,Clip0,Clip1,Clip2
FMT, 188, 47, IMT, Qfffffffff, TimeUS,DelT,DelvT,DelaT,DelAX,DelAY,DelAZ,DelVX,DelVY,DelVZ
FMT, 189, 47, IMT2, Qfffffffff, TimeUS,DelT,DelvT,DelaT,DelAX,DelAY,DelAZ,DelVX,DelVY,DelVZ
FMT, 190, 47, IMT3, Qfffffffff, TimeUS,DelT,DelvT,DelaT,DelAX,DelAY,DelAZ,DelVX,DelVY,DelVZ
FMT, 191, 24, ORGN, QBLLe, TimeUS,Type,Lat,Lng,Alt
FMT, 192, 19, RPM, Qff, TimeUS,rpm1,rpm2
FMT, 233, 47, GMB1, Iffffffffff, TimeMS,dt,dax,day,daz,dvx,dvy,dvz,jx,jy,jz
FMT, 234, 44, GMB2, IBfffffffff, TimeMS,es,ex,ey,ez,rx,ry,rz,tx,ty,tz
FMT, 235, 13, GMB3, Ihhh, TimeMS,rl_torque_cmd,el_torque_cmd,az_torque_cmd
FMT, 236, 59, RATE, Qffffffffffff, TimeUS,RDes,R,ROut,PDes,P,POut,YDes,Y,YOut,ADes,A,AOut
FMT, 237, 23, RALY, QBBLLh, TimeUS,Tot,Seq,Lat,Lng,Alt
FMT, 238, 43, VISO, Qffffffff, TimeUS,dt,AngDX,AngDY,AngDZ,PosDX,PosDY,PosDZ,conf
FMT, 224, 23, SBPH, QIII, TimeUS,CrcError,LastInject,IARhyp
FMT, 229, 80, SBR1, QHHBZ, TimeUS,msg_type,sender_id,msg_len,d1
FMT, 230, 205, SBR2, QHZZZ, TimeUS,msg_type,d2,d3,d4
FMT, 25, 41, ATUN, QBBfffffff, TimeUS,Axis,TuneStep,Targ,Min,Max,RP,RD,SP,ddt
FMT, 26, 19, ATDE, Qff, TimeUS,Angle,Rate
FMT, 31, 22, PTUN, QBfHHH, TimeUS,Param,TunVal,CtrlIn,TunLo,TunHi
FMT, 12, 28, OF, QBffff, TimeUS,Qual,flowX,flowY,bodyX,bodyY
FMT, 5, 51, NTUN, Qffffffffff, TimeUS,DPosX,DPosY,PosX,PosY,DVelX,DVelY,VelX,VelY,DAccX,DAccY
FMT, 4, 51, CTUN, Qffffffeccfhh, TimeUS,ThI,ABst,ThO,ThH,DAlt,Alt,BAlt,DSAlt,SAlt,TAlt,DCRt,CRt
FMT, 6, 32, PM, QHHIhBHII, TimeUS,NLon,NLoop,MaxT,PMT,I2CErr,INSErr,LogDrop,Mem
FMT, 30, 27, MOTB, Qffff, TimeUS,LiftMax,BatVolt,BatRes,ThLimit
FMT, 13, 12, EV, QB, TimeUS,Id
FMT, 20, 14, D16, QBh, TimeUS,Id,Value
FMT, 21, 14, DU16, QBH, TimeUS,Id,Value
FMT, 22, 16, D32, QBi, TimeUS,Id,Value
FMT, 23, 16, DU32, QBI, TimeUS,Id,Value
FMT, 24, 16, DFLT, QBf, TimeUS,Id,Value
FMT, 19, 13, ERR, QBB, TimeUS,Subsys,ECode
FMT, 32, 19, HELI, Qff, TimeUS,DRRPM,ERRPM
FMT, 33, 29, PL, QBBffff, TimeUS,Heal,TAcq,pX,pY,vX,vY
FMT, 34, 36, GUID, QBffffff, TimeUS,Type,pX,pY,pZ,vX,vY,vZ
FMT, 35, 32, THRO, QBffffbbbb, TimeUS,Stage,Vel,VelZ,Acc,AccEfZ,Throw,AttOk,HgtOk,PosOk
FMT, 36, 56, PRX, QBfffffffffff, TimeUS,Health,D0,D45,D90,D135,D180,D225,D270,D315,DUp,CAn,CDis
MODE, 135797743, 100, 100, 2
FMT, 254, 47, NKT1, QIffffffff, TimeUS,Cnt,IMUMin,IMUMax,EKFMin,EKFMax,AngMin,AngMax,VelMin,VelM
FMT, 253, 31, CTRL, Qfffff, TimeUS,RMSRollP,RMSRollD,RMSPitchP,RMSPitchD,RMSYaw
MSG, 135904548, APM:Copter V3.5.7 (870dd8f0)
MSG, 135904553, New mission
MSG, 135904564, Frame: QUAD
MODE, 135904568, Autonomous, 100, 2
MAG, 135939312, 271, 657, 143, 0, 0, 0, 0, 0, 0, 1, 135939303
RFND, 135939346, 0.2, 25, 0, 0
BARO, 135939459, -0.5481896, 987.8887, 38.47, 0.05231765, 135939, 0, 35
CTUN, 135939474, 0, 0, 0, 0.3022425, 0.03717827, 0.03717827, -0.54, 0, 0.19, 0, 0, -2
ATT, 135939553, 0, 0.45, 0, -0.03, 127.65, 127.65, 0, 1
RATE, 135939559, -2.036298, -0.01668396, -0.004687207, 0.1444459, 0.05957825, -1.57803E-05, 0.006264368, -0.2584322, 0.001054928, 905.1302, -2.831078, 0
NKF1, 135939567, 0.45, -0.03, 127.65, -0.07579039, 0.07010676, 0.02234889, 0, 0, 0, -0.03717827, 0, 0, 0.28
NKF2, 135939567, 0, 0, 0, 0, 0, 0, 0, 0, 0, 0, 0, 0, 0
NKF3, 135939567, 0, 0, 0, -0.04, 0.02, 0.02, 0, 0, 0, 0, 0
NKF4, 135939567, 0, 0, 0.01, 0, 0, 0.0001006087, 0, 0, 0, 19, 229, 0, 0
NKF5, 135939567, 0, 0, 0, 0, 0.17, 0.13, 0, 0.19, 0.5, 0.0002612991, 0.01274841, 0.02788924
NKQ1, 135939567, 0.4410442, 0.0005583397, 0.002392073, 0.8974822
AHR2, 135939615, 0.4, -0.13, 164.71, -0.54, 0, 0, 0.1329564, 0.001595504, 0.003341059, 0.991115
MOTB, 135939622, 1, 1, 0, 1
RCIN, 135939626, 0, 0, 0, 0, 0, 0, 0, 0, 0, 0, 0, 0, 0, 0
RCOU, 135939632, 1101, 1101, 1101, 1101, 0, 0, 0, 0, 0, 0, 0, 0, 0, 0
VIBE, 135939640, 0.02052984, 0.02216321, 0.03359472, 0, 0, 0
CTRL, 135939646, 0.004841135, 0.0001597624, 0.0004324818, 0.0001878509, 0.001111038
PRX, 135939678, 2, 0.64, 0, 0.53, 0, 3.59, 0, 2.41, 0, 0, 90, 0.53
IMU, 135939686, -0.00013917, 0.001194932, 0.0004833299, 0.04441871, -0.05468912, -9.775654, 0, 0, 39.62246, 1, 1, 1000, 1000
IMU, 135979038, 0.0006514736, -0.0009458253, -0.002054223, 0.03801257, -0.04153605, -9.794203, 0, 0, 39.62325, 1, 1, 1000, 1000
RFND, 135989227, 0.2, 25, 0, 0
IMU, 136019015, 0.0004464572, -0.0003008034, -0.001910352, 0.04421834, -0.03727794, -9.799363, 0, 0, 39.62461, 1, 1, 1000, 1000
MAG, 136039030, 267, 658, 140, 0, 0, 0, 0, 0, 0, 1, 136039021
RFND, 136039087, 0.2, 25, 0, 0
BARO, 136039123, -0.4690695, 987.8798, 38.47, -0.2201652, 136039, 0, 35
CTUN, 136039191, 0, 0, 0, 0.3022425, 0.03719502, 0.03719502, -0.46, 0, 0.19, 0, 0, -2
ATT, 136039430, 0, 0.45, 0, -0.03, 127.62, 127.62, 0, 1
RATE, 136039437, -2.037858, 0.03951236, -0.005011843, 0.1497013, -0.02590706, 0.0004809726, 0.003282971, -0.3863305, 0.001182479, 895.8636, -1.75333, 0
NKF1, 136039446, 0.45, -0.03, 127.62, -0.07594013, 0.07153594, 0.02212009, 0, 0, 0, -0.03719502, 0, 0, 0.28
NKF2, 136039446, 0, 0, 0, 0, 0, 0, 0, 0, 0, 0, 0, 0, 0
NKF3, 136039446, 0, 0, 0, -0.04, 0.02, 0.02, 0, 0, 0, 0, 0
NKF4, 136039446, 0, 0, 0.01, 0, 0, 6.758218E-05, 0, 0, 0, 19, 229, 0, 0
NKF5, 136039446, 0, 0, 0, 0, 0.17, 0.13, 0, 0.19, 0.5, 0.0002042456, 0.01124192, 0.02492273
NKQ1, 136039446, 0.4413454, 0.0005721662, 0.002390536, 0.8973339
AHR2, 136039494, 0.4, -0.13, 164.7, -0.46, 0, 0, 0.1330431, 0.001610545, 0.003363381, 0.9911033
MOTB, 136039502, 1, 1, 0, 1
RCIN, 136039506, 0, 0, 0, 0, 0, 0, 0, 0, 0, 0, 0, 0, 0, 0
RCOU, 136039512, 1101, 1101, 1101, 1101, 0, 0, 0, 0, 0, 0, 0, 0, 0, 0
VIBE, 136039521, 0.02275557, 0.02149593, 0.0321481, 0, 0, 0
CTRL, 136039527, 0.004837962, 0.000141396, 0.0004280304, 0.000187947, 0.001112319
PRX, 136039558, 2, 0.64, 0, 0.53, 0, 3.59, 0, 2.41, 0, 0, 90, 0.53
IMU, 136059210, -0.0004650636, -0.0001799626, -0.001407453, 0.06182144, -0.04626808, -9.784449, 0, 0, 39.62614, 1, 1, 1000, 1000
RFND, 136088889, 0.2, 25, 0, 0
IMU, 136099254, -0.0002338913, -2.927507E-05, -0.001262108, 0.04929443, -0.04996702, -9.808863, 0, 0, 39.62801, 1, 1, 1000, 1000
MAG, 136138957, 271, 659, 142, 0, 0, 0, 0, 0, 0, 1, 136138949
RFND, 136138989, 0.2, 25, 0, 0
BARO, 136139022, -0.5312353, 987.887, 38.47, -0.2926082, 136139, 0, 35
CTUN, 136139035, 0, 0, 0, 0.3022425, 0.03716288, 0.03716288, -0.53, 0, 0.19, 0, 0, -2
DU32, 136139088, 7, 50389208
ATT, 136139234, 0, 0.45, 0, -0.03, 127.58, 127.58, 0, 1
RATE, 136139241, -2.037962, 0.03304028, -0.005127629, 0.1482872, -0.08706171, 0.0007692898, 0.003621072, -0.3514887, 0.001099968, 864.5458, 0.5547523, 0
NKF1, 136139249, 0.45, -0.03, 127.58, -0.07692765, 0.07356592, 0.02134681, 0, 0, 0, -0.03716288, 0, 0, 0.28
NKF2, 136139249, 0, 0, 0, 0, 0, 0, 0, 0, 0, 0, 0, 0, 0
NKF3, 136139249, 0, 0, 0, -0.06, 0.03, 0.02, 0, 0, 0, 0, 0
NKF4, 136139249, 0, 0, 0.01, 0, 0, 4.404314E-05, 0, 0, 0, 19, 229, 0, 0
NKF5, 136139249, 0, 0, 0, 0, 0.17, 0.13, 0, 0.19, 0.5, 0.0001481568, 0.0101098, 0.0225457
NKQ1, 136139249, 0.4416138, 0.0005691216, 0.002390459, 0.897202
AHR2, 136139293, 0.4, -0.13, 164.7, -0.53, 0, 0, 0.1330912, 0.001604102, 0.003379309, 0.9910968
MOTB, 136139300, 1, 1, 0, 1
RCIN, 136139304, 0, 0, 0, 0, 0, 0, 0, 0, 0, 0, 0, 0, 0, 0
RCOU, 136139310, 1101, 1101, 1101, 1101, 0, 0, 0, 0, 0, 0, 0, 0, 0, 0
VIBE, 136139319, 0.0232327, 0.02127996, 0.04130404, 0, 0, 0
CTRL, 136139325, 0.004827835, 0.0001448487, 0.0004144356, 0.0001787563, 0.001118774
PRX, 136139492, 2, 0.64, 0, 0.53, 0, 3.59, 0, 2.41, 0, 0, 90, 0.53
IMU, 136139503, 0.0007295724, -0.001363518, -0.001111676, 0.03419486, -0.04139024, -9.809559, 0, 0, 39.62782, 1, 1, 1000, 1000
PM, 136139514, 38, 4000, 5558, 10, 0, 0, 23, 262144
IMU, 136179210, -0.0008424823, 9.708017E-06, -0.001412627, 0.043169, -0.0458031, -9.796838, 0, 0, 39.62831, 1, 1, 1000, 1000
RFND, 136189110, 0.2, 25, 0, 0
IMU, 136219468, 0.0008899363, 0.0009004839, -0.001753499, 0.04771932, -0.03472906, -9.808249, 0, 0, 39.62909, 1, 1, 1000, 1000
MAG, 136239211, 268, 653, 144, 0, 0, 0, 0, 0, 0, 1, 136239202
RFND, 136239244, 0.2, 25, 0, 0
BARO, 136239282, -0.5651439, 987.8906, 38.47, -0.1803893, 136239, 0, 35
CTUN, 136239295, 0, 0, 0, 0.3022425, 0.03709865, 0.03709865, -0.56, 0, 0.19, 0, 0, -2
ATT, 136239573, 0, 0.45, 0, -0.03, 127.55, 127.55, 0, 1
RATE, 136239579, -2.034937, 0.002925701, -0.004692961, 0.1361188, 0.03464435, 0.0003544528, 0.001131491, -0.3476, 0.001143339, 840.9995, -1.014042, 0
NKF1, 136239587, 0.45, -0.03, 127.55, -0.07850064, 0.07543513, 0.02076542, 0, 0, 0, -0.03709865, 0, 0, 0.28
NKF2, 136239587, 0, 0, 0, 0, 0, 0, 0, 0, 0, 0, 0, 0, 0
NKF3, 136239587, 0, 0, 0, -0.06, 0.03, 0.02, 0, 0, 0, 0, 0
NKF4, 136239587, 0, 0, 0.01, 0, 0, 2.967413E-05, 0, 0, 0, 19, 229, 0, 0
NKF5, 136239587, 0, 0, 0, 0, 0.17, 0.13, 0, 0.19, 0.5, 0.0001029504, 0.009251823, 0.02062618
NKQ1, 136239587, 0.441891, 0.0005467607, 0.002396719, 0.8970655
AHR2, 136239636, 0.4, -0.12, 164.69, -0.56, 0, 0, 0.1331518, 0.001574528, 0.003391641, 0.9910886
MOTB, 136239645, 1, 1, 0, 1
RCIN, 136239649, 0, 0, 0, 0, 0, 0, 0, 0, 0, 0, 0, 0, 0, 0
RCOU, 136239654, 1101, 1101, 1101, 1101, 0, 0, 0, 0, 0, 0, 0, 0, 0, 0
VIBE, 136239663, 0.02187965, 0.02210629, 0.03683035, 0, 0, 0
CTRL, 136239670, 0.004822416, 0.0001518487, 0.0003894864, 0.0001811611, 0.001118182
PRX, 136239700, 2, 0.64, 0, 0.53, 0, 3.59, 0, 2.4, 0, 0, 90, 0.53
IMU, 136259202, -4.479715E-05, 0.0001017613, -0.00034242, 0.04184785, -0.0443486, -9.801212, 0, 0, 39.62928, 1, 1, 1000, 1000
RFND, 136288885, 0.2, 25, 0, 0
IMU, 136298981, -0.0009990596, -0.001976971, -0.0022857, 0.05441923, -0.04233001, -9.80532, 0, 0, 39.62898, 1, 1, 1000, 1000
MAG, 136339056, 268, 654, 144, 0, 0, 0, 0, 0, 0, 1, 136339047
RFND, 136339090, 0.2, 25, 0, 0
BARO, 136339127, -0.5481896, 987.8889, 38.47, -0.1316449, 136339, 0, 35
CTUN, 136339206, 0, 0, 0, 0.3022425, 0.03728367, 0.03728367, -0.54, 0, 0.19, 0, 0, -2
ATT, 136339287, 0, 0.45, 0, -0.03, 127.51, 127.51, 0, 1
RATE, 136339293, -2.028859, -0.003345849, -0.004702476, 0.1394147, 0.04823169, 0.0001536429, 0.004297354, -0.3535602, 0.001125399, 846.3788, -0.8996964, 0
NKF1, 136339301, 0.45, -0.03, 127.51, -0.08055495, 0.07753439, 0.02089824, 0, 0, 0, -0.03728367, 0, 0, 0.28
NKF2, 136339301, 0, 0, 0, 0, 0, 0, 0, 0, 0, 0, 0, 0, 0
NKF3, 136339301, 0, 0, 0, -0.07, 0.04, 0.02, 0, 0, 0, 0, 0
NKF4, 136339301, 0, 0, 0.01, 0, 0, 2.008822E-05, 0, 0, 0, 19, 229, 0, 0
NKF5, 136339301, 0, 0, 0, 0, 0.17, 0.13, 0, 0.19, 0.5, 7.109069E-05, 0.008531298, 0.01889043
NKQ1, 136339301, 0.4421726, 0.0005473911, 0.002381897, 0.8969267
AHR2, 136339349, 0.4, -0.12, 164.68, -0.54, 0, 0, 0.1332097, 0.001570131, 0.003389405, 0.9910809
MOTB, 136339562, 1, 1, 0, 1
RCIN, 136339567, 0, 0, 0, 0, 0, 0, 0, 0, 0, 0, 0, 0, 0, 0
RCOU, 136339572, 1101, 1101, 1101, 1101, 0, 0, 0, 0, 0, 0, 0, 0, 0, 0
VIBE, 136339581, 0.02030514, 0.02097973, 0.03209369, 0, 0, 0
CTRL, 136339587, 0.004799825, 0.0001520867, 0.0003957846, 0.0002062532, 0.001120614
PRX, 136339619, 2, 0.64, 0, 0.53, 0, 3.59, 0, 2.42, 0, 0, 90, 0.53
IMU, 136339627, 9.463004E-05, 0.0009979021, -0.001144189, 0.05403769, -0.03713423, -9.794994, 0, 0, 39.62907, 1, 1, 1000, 1000
IMU, 136379651, 8.095714E-05, 0.001112584, -0.001115829, 0.03969289, -0.04388084, -9.799726, 0, 0, 39.62921, 1, 1, 1000, 1000
RFND, 136389281, 0.2, 25, 0, 0
IMU, 136419105, 0.0005079846, -0.0003237887, -0.001159716, 0.03224362, -0.04994202, -9.796684, 0, 0, 39.62912, 1, 1, 1000, 1000
MAG, 136439055, 268, 654, 144, 0, 0, 0, 0, 0, 0, 1, 136439046
RFND, 136439089, 0.2, 25, 0, 0
BARO, 136439193, -0.4747209, 987.8809, 38.48, -0.1518794, 136439, 0, 35
CTUN, 136439209, 0, 0, 0, 0.3022425, 0.03707525, 0.03707525, -0.47, 0, 0.19, 0, 0, -2
ATT, 136439288, 0, 0.45, 0, -0.03, 127.48, 127.48, 0, 1
RATE, 136439293, -2.03362, 0.06666808, -0.00494707, 0.1542348, -0.1559442, 0.001101245, 0.004865925, -0.3399466, 0.00110881, 837.3927, 0.2569199, 0
NKF1, 136439301, 0.45, -0.03, 127.48, -0.08169484, 0.07910602, 0.02067636, 0, 0, 0, -0.03707525, 0, 0, 0.28
NKF2, 136439301, 0, 0, 0, 0, 0, 0, 0, 0, 0, 0, 0, 0, 0
NKF3, 136439301, 0, 0, 0, -0.07, 0.04, 0.02, 0, 0, 0, 0, 0
NKF4, 136439301, 0, 0, 0.01, 0, 0, 1.376826E-05, 0, 0, 0, 19, 229, 0, 0
NKF5, 136439301, 0, 0, 0, 0, 0.17, 0.13, 0, 0.19, 0.5, 5.087708E-05, 0.007979394, 0.01761518
NKQ1, 136439301, 0.4424429, 0.0005772503, 0.002376474, 0.8967935
AHR2, 136439347, 0.41, -0.12, 164.68, -0.47, 0, 0, 0.1332598, 0.001586934, 0.003400651, 0.9910741
MOTB, 136439708, 1, 1, 0, 1
RCIN, 136439714, 0, 0, 0, 0, 0, 0, 0, 0, 0, 0, 0, 0, 0, 0
RCOU, 136439721, 1101, 1101, 1101, 1101, 0, 0, 0, 0, 0, 0, 0, 0, 0, 0
VIBE, 136439729, 0.02129297, 0.02040713, 0.02806155, 0, 0, 0
CTRL, 136439736, 0.004796151, 0.0001619627, 0.0004017128, 0.0002165419, 0.001118307
PRX, 136439769, 2, 0.64, 0, 0.53, 0, 3.59, 0, 2.42, 0, 0, 90, 0.53
IMU, 136459581, 0.002037867, -0.0002390916, -0.001422434, 0.03899833, -0.05032829, -9.803326, 0, 0, 39.62921, 1, 1, 1000, 1000
RFND, 136489022, 0.2, 25, 0, 0
IMU, 136499103, 0.0007494685, 6.762247E-05, -0.00113927, 0.04271965, -0.0466201, -9.794643, 0, 0, 39.62942, 1, 1, 1000, 1000
MAG, 136539115, 269, 655, 150, 0, 0, 0, 0, 0, 0, 1, 136539107
RFND, 136539208, 0.2, 25, 0, 0
BARO, 136539247, -0.514281, 987.8848, 38.48, -0.02295896, 136539, 0, 35
CTUN, 136539262, 0, 0, 0, 0.3022425, 0.03756262, 0.03756262, -0.51, 0, 0.19, 0, 0, -2
ATT, 136539340, 0, 0.45, 0, -0.03, 127.44, 127.44, 0, 1
RATE, 136539347, -2.05884, 0.08136573, -0.005238452, 0.1536417, -0.05003193, 0.0003590712, 0.003113721, -0.4506141, 0.001159398, 821.1518, 0.2017975, 0
NKF1, 136539534, 0.45, -0.03, 127.44, -0.08308577, 0.08107482, 0.02027535, 0, 0, 0, -0.03756262, 0, 0, 0.28
NKF2, 136539534, 0, 0, 0, 0, 0, 0, 0, 0, 0, 0, 0, 0, 0
NKF3, 136539534, 0, 0, 0, -0.08, 0.05, 0.02, 0, 0, 0, 0, 0
NKF4, 136539534, 0, 0, 0.01, 0, 0, 9.62299E-06, 0, 0, 0, 19, 229, 0, 0
NKF5, 136539534, 0, 0, 0, 0, 0.17, 0.13, 0, 0.19, 0.5, 4.212478E-05, 0.00746374, 0.01631695
NKQ1, 136539534, 0.4427333, 0.0006003298, 0.002419995, 0.89665
AHR2, 136539587, 0.41, -0.12, 164.67, -0.51, 0, 0, 0.1333345, 0.001579629, 0.00345386, 0.9910638
MOTB, 136539595, 1, 1, 0, 1
RCIN, 136539600, 0, 0, 0, 0, 0, 0, 0, 0, 0, 0, 0, 0, 0, 0
RCOU, 136539605, 1101, 1101, 1101, 1101, 0, 0, 0, 0, 0, 0, 0, 0, 0, 0
VIBE, 136539614, 0.02396306, 0.02196798, 0.03484816, 0, 0, 0
CTRL, 136539621, 0.004845995, 0.0001569836, 0.000412356, 0.0002137143, 0.00111855
PRX, 136539652, 2, 0.64, 0, 0.53, 0, 3.59, 0, 2.41, 0, 0, 90, 0.53
IMU, 136539660, 0.001573416, -0.0007168422, -0.002828746, 0.0370046, -0.03988123, -9.805999, 0, 0, 39.63121, 1, 1, 1000, 1000
IMU, 136579654, 0.001079834, 0.000487303, -0.0008933839, 0.03999361, -0.05253037, -9.802327, 0, 0, 39.63319, 1, 1, 1000, 1000
RFND, 136589330, 0.2, 25, 0, 0
IMU, 136619122, 0.000658843, -0.0001842678, -0.002616768, 0.03477608, -0.04429765, -9.799841, 0, 0, 39.63509, 1, 1, 1000, 1000
MAG, 136639518, 269, 661, 142, 0, 0, 0, 0, 0, 0, 1, 136639509
RFND, 136639552, 0.2, 25, 0, 0
BARO, 136639588, -0.5312353, 987.887, 38.48, 0.143052, 136639, 0, 35
CTUN, 136639602, 0, 0, 0, 0.3022425, 0.03765154, 0.03765154, -0.53, 0, 0.19, 0, 0, -2
ATT, 136639683, 0, 0.45, 0, -0.03, 127.4, 127.4, 0, 1
RATE, 136639689, -2.0682, 0.0009446463, -0.004669094, 0.1567777, 0.05375977, 5.345258E-05, 0.004880934, -0.3325205, 0.001196255, 811.3403, -1.245117, 0
NKF1, 136639696, 0.45, -0.03, 127.4, -0.08479702, 0.08300161, 0.02003309, 0, 0, 0, -0.03765154, 0, 0, 0.28
NKF2, 136639696, 0, 0, 0, 0, 0, 0, 0, 0, 0, 0, 0, 0, 0
NKF3, 136639696, 0, 0, 0, -0.09, 0.06, 0.02, 0, 0, 0, 0, 0
NKF4, 136639696, 0, 0, 0.01, 0, 0, 6.872976E-06, 0, 0, 0, 19, 229, 0, 0
NKF5, 136639696, 0, 0, 0, 0, 0.17, 0.13, 0, 0.19, 0.5, 3.905581E-05, 0.007065103, 0.01531943
NKQ1, 136639696, 0.4430237, 0.0006129779, 0.002434182, 0.8965065
AHR2, 136639741, 0.41, -0.12, 164.66, -0.53, 0, 0, 0.1334044, 0.001575183, 0.003479603, 0.9910544
MOTB, 136639749, 1, 1, 0, 1
RCIN, 136639753, 0, 0, 0, 0, 0, 0, 0, 0, 0, 0, 0, 0, 0, 0
RCOU, 136639758, 1101, 1101, 1101, 1101, 0, 0, 0, 0, 0, 0, 0, 0, 0, 0
VIBE, 136639766, 0.02113407, 0.0228084, 0.03544872, 0, 0, 0
CTRL, 136639773, 0.004871662, 0.0001666591, 0.0004123529, 0.0002053934, 0.00113807
PRX, 136639948, 2, 0.64, 0, 0.53, 0, 3.59, 0, 2.42, 0, 0, 90, 0.53
IMU, 136660115, 0.0003042934, 0.0006141446, -0.001354825, 0.04406031, -0.04443155, -9.787683, 0, 0, 39.6374, 1, 1, 1000, 1000
RFND, 136688977, 0.2, 25, 0, 0
IMU, 136699239, -0.0008043651, -0.0002470876, -0.0004006814, 0.04248827, -0.0366388, -9.802607, 0, 0, 39.64175, 1, 1, 1000, 1000
MAG, 136738929, 270, 655, 148, 0, 0, 0, 0, 0, 0, 1, 136738921
RFND, 136738963, 0.2, 25, 0, 0
BARO, 136738998, -0.4860238, 987.882, 38.48, 0.1095201, 136738, 0, 35
CTUN, 136739011, 0, 0, 0, 0.3022425, 0.03787743, 0.03787743, -0.48, 0, 0.19, 0, 0, -2
ATT, 136739108, 0, 0.45, 0, -0.03, 127.37, 127.37, 0, 1
RATE, 136739115, -2.066296, 0.04745638, -0.005177248, 0.1566101, -0.01987054, 0.000443631, 0.004235492, -0.3260292, 0.001051093, 827.5357, -1.288033, 0
NKF1, 136739122, 0.45, -0.03, 127.37, -0.08724353, 0.08495727, 0.02043298, 0, 0, 0, -0.03787743, 0, 0, 0.28
NKF2, 136739122, 0, 0, 0, 0, 0, 0, 0, 0, 0, 0, 0, 0, 0
NKF3, 136739122, 0, 0, 0, -0.09, 0.06, 0.02, 0, 0, 0, 0, 0
NKF4, 136739122, 0, 0, 0.01, 0, 0, 5.164129E-06, 0, 0, 0, 19, 229, 0, 0
NKF5, 136739122, 0, 0, 0, 0, 0.17, 0.13, 0, 0.19, 0.5, 3.722391E-05, 0.006672519, 0.01438817
NKQ1, 136739122, 0.4432777, 0.0006126098, 0.00243251, 0.8963809
AHR2, 136739223, 0.42, -0.12, 164.66, -0.48, 0, 0, 0.1334362, 0.001565007, 0.003487621, 0.9910501
MOTB, 136739231, 1, 1, 0, 1
RCIN, 136739235, 0, 0, 0, 0, 0, 0, 0, 0, 0, 0, 0, 0, 0, 0
RCOU, 136739241, 1101, 1101, 1101, 1101, 0, 0, 0, 0, 0, 0, 0, 0, 0, 0
VIBE, 136739250, 0.02175173, 0.02332776, 0.03634705, 0, 0, 0
CTRL, 136739256, 0.004859109, 0.0001603835, 0.0004009092, 0.0001911683, 0.001131337
PRX, 136739287, 2, 0.64, 0, 0.53, 0, 3.59, 0, 2.42, 0, 0, 90, 0.53
IMU, 136739294, 0.0009820791, -0.0001899449, -0.0006383472, 0.04932543, -0.04122007, -9.791058, 0, 0, 39.64705, 1, 1, 1000, 1000
IMU, 136779452, 0.0003233657, -0.0004716811, -0.0008400332, 0.03305982, -0.03681935, -9.794258, 0, 0, 39.65224, 1, 1, 1000, 1000
RFND, 136788994, 0.2, 25, 0, 0
IMU, 136818973, -0.0004532729, -0.0002193995, -0.0001406246, 0.04590093, -0.04638144, -9.798481, 0, 0, 39.6566, 1, 1, 1000, 1000
MAG, 136839257, 266, 656, 140, 0, 0, 0, 0, 0, 0, 1, 136839248
RFND, 136839288, 0.2, 25, 0, 0
BARO, 136839324, -0.5029781, 987.8836, 38.48, 0.009025132, 136839, 0, 35
CTUN, 136839337, 0, 0, 0, 0.3022425, 0.0381031, 0.0381031, -0.5, 0, 0.19, 0, 0, -2
ATT, 136839607, 0, 0.45, 0, -0.03, 127.33, 127.33, 0, 1
RATE, 136839614, -2.052458, 0.002013559, -0.005119631, 0.1613253, 0.017728, 0.0002686522, 0.003129153, -0.3476645, 0.001047067, 842.5825, -2.098465, 0
NKF1, 136839622, 0.45, -0.03, 127.33, -0.08867969, 0.0865764, 0.02080451, 0, 0, 0, -0.0381031, 0, 0, 0.28
NKF2, 136839622, 0, 0, 0, 0, 0, 0, 0, 0, 0, 0, 0, 0, 0
NKF3, 136839622, 0, 0, 0, -0.11, 0.07, 0.02, 0, 0, 0, 0, 0
NKF4, 136839622, 0, 0, 0.01, 0, 0, 4.122543E-06, 0, 0, 0, 19, 229, 0, 0
NKF5, 136839622, 0, 0, 0, 0, 0.17, 0.13, 0, 0.19, 0.5, 3.71219E-05, 0.006348175, 0.013536
NKQ1, 136839622, 0.4435422, 0.0006093471, 0.002403176, 0.89625
AHR2, 136839668, 0.41, -0.12, 164.65, -0.5, 0, 0, 0.1334797, 0.001558458, 0.003464162, 0.9910443
MOTB, 136839676, 1, 1, 0, 1
RCIN, 136839680, 0, 0, 0, 0, 0, 0, 0, 0, 0, 0, 0, 0, 0, 0
RCOU, 136839686, 1101, 1101, 1101, 1101, 0, 0, 0, 0, 0, 0, 0, 0, 0, 0
VIBE, 136839695, 0.02217052, 0.02100605, 0.03157146, 0, 0, 0
CTRL, 136839701, 0.004827383, 0.0001825921, 0.0004049617, 0.0001747353, 0.001110591
PRX, 136839731, 2, 0.64, 0, 0.53, 0, 3.59, 0, 2.42, 0, 0, 90, 0.53
IMU, 136858996, 0.0002067068, -0.001253191, -0.001148925, 0.04772465, -0.04299318, -9.832394, 0, 0, 39.66034, 1, 1, 1000, 1000
RFND, 136888969, 0.2, 25, 0, 0
IMU, 136899288, -0.0001928225, 0.0003511047, -0.001212674, 0.04785369, -0.04183977, -9.80251, 0, 0, 39.66365, 1, 1, 1000, 1000
MAG, 136939033, 266, 658, 143, 0, 0, 0, 0, 0, 0, 1, 136939024
RFND, 136939086, 0.2, 25, 0, 0
BARO, 136939177, -0.5312353, 987.887, 38.48, 0.01435051, 136939, 0, 35
CTUN, 136939193, 0, 0, 0, 0.3022425, 0.03810814, 0.03810814, -0.53, 0, 0.19, 0, 0, -1
ATT, 136939272, 0, 0.45, 0, -0.03, 127.3, 127.3, 0, 1
RATE, 136939278, -2.044802, -0.0004773378, -0.004794987, 0.1603193, 0.03718428, 0.0003642144, 0.005234624, -0.369017, 0.001130878, 801.6754, -1.675224, 0
NKF1, 136939286, 0.45, -0.03, 127.3, -0.09167296, 0.0885556, 0.01979445, 0, 0, 0, -0.03810814, 0, 0, 0.28
NKF2, 136939286, 0, 0, 0, 0, 0, 0, 0, 0, 0, 0, 0, 0, 0
NKF3, 136939286, 0, 0, 0, -0.11, 0.07, 0.02, 0, 0, 0, 0, 0
NKF4, 136939286, 0, 0, 0.01, 0, 0, 3.487964E-06, 0, 0, 0, 19, 229, 0, 0
NKF5, 136939286, 0, 0, 0, 0, 0.17, 0.13, 0, 0.19, 0.5, 3.658685E-05, 0.006048437, 0.01285088
NKQ1, 136939286, 0.4438297, 0.0006032145, 0.002392332, 0.8961079
AHR2, 136939331, 0.41, -0.12, 164.65, -0.53, 0, 0, 0.1335479, 0.00154244, 0.00345552, 0.9910352
MOTB, 136939338, 1, 1, 0, 1
RCIN, 136939343, 0, 0, 0, 0, 0, 0, 0, 0, 0, 0, 0, 0, 0, 0
RCOU, 136939348, 1101, 1101, 1101, 1101, 0, 0, 0, 0, 0, 0, 0, 0, 0, 0
VIBE, 136939520, 0.01908793, 0.02309596, 0.03324093, 0, 0, 0
CTRL, 136939527, 0.004817776, 0.0001732264, 0.0004097782, 0.0001812289, 0.001108762
PRX, 136939559, 2, 0.64, 0, 0.53, 0, 3.59, 0, 2.42, 0, 0, 90, 0.53
IMU, 136939567, 0.0001453059, 0.0008056475, -0.001394517, 0.0451035, -0.0350223, -9.78721, 0, 0, 39.66688, 1, 1, 1000, 1000
IMU, 136979295, -4.540614E-05, 0.001089286, -0.001025107, 0.04932078, -0.04470007, -9.802638, 0, 0, 39.67027, 1, 1, 1000, 1000
RFND, 136988947, 0.2, 25, 0, 0
IMU, 137019439, 6.699662E-05, 0.0003859103, -0.0003773142, 0.0463898, -0.03970369, -9.800928, 0, 0, 39.67341, 1, 1, 1000, 1000
MAG, 137039234, 267, 660, 137, 0, 0, 0, 0, 0, 0, 1, 137039226
RFND, 137039262, 0.2, 25, 0, 0
BARO, 137039299, -0.5368867, 987.8875, 38.48, 0.00353217, 137039, 0, 35
CTUN, 137039313, 0, 0, 0, 0.3022425, 0.03846947, 0.03846947, -0.53, 0, 0.19, 0, 0, -1
ATT, 137039447, 0, 0.45, 0, -0.03, 127.26, 127.26, 0, 1
RATE, 137039455, -2.046137, -0.02562469, -0.004703442, 0.1426015, 0.02052092, 0.0002432388, 0.00558807, -0.3691798, 0.00108209, 793.5182, -1.954842, 0
NKF1, 137039462, 0.45, -0.03, 127.26, -0.09436185, 0.09108843, 0.01959304, 0, 0, 0, -0.03846947, 0, 0, 0.28
NKF2, 137039462, 0, 0, 0, 0, 0, 0, 0, 0, 0, 0, 0, 0, 0
NKF3, 137039462, 0, 0, 0, -0.12, 0.09, 0.02, 0, 0, 0, 0, 0
NKF4, 137039462, 0, 0, 0.01, 0, 0, 3.243023E-06, 0, 0, 0, 19, 229, 0, 0
NKF5, 137039462, 0, 0, 0, 0, 0.17, 0.13, 0, 0.19, 0.5, 3.812081E-05, 0.00577292, 0.01211325
NKQ1, 137039462, 0.4440996, 0.0005741714, 0.002409536, 0.895974
AHR2, 137039508, 0.41, -0.11, 164.64, -0.53, 0, 0, 0.1335971, 0.001494516, 0.003466474, 0.9910285
MOTB, 137039516, 1, 1, 0, 1
RCIN, 137039520, 0, 0, 0, 0, 0, 0, 0, 0, 0, 0, 0, 0, 0, 0
RCOU, 137039526, 1101, 1101, 1101, 1101, 0, 0, 0, 0, 0, 0, 0, 0, 0, 0
VIBE, 137039534, 0.01958971, 0.0184843, 0.03666241, 0, 0, 0
CTRL, 137039541, 0.004821218, 0.0001608249, 0.0003694323, 0.000173157, 0.00110943
PRX, 137039573, 2, 0.64, 0, 0.53, 0, 3.59, 0, 2.41, 0, 0, 90, 0.53
IMU, 137059021, -0.0002432966, -0.0001385717, -0.002117684, 0.04778928, -0.04746759, -9.812032, 0, 0, 39.6767, 1, 1, 1000, 1000
RFND, 137088970, 0.2, 25, 0, 0
IMU, 137099500, -0.001030697, 0.0005675231, -0.001443224, 0.04932971, -0.04362792, -9.803358, 0, 0, 39.67963, 1, 1, 1000, 1000
MAG, 137138991, 267, 649, 145, 0, 0, 0, 0, 0, 0, 1, 137138929
RFND, 137139022, 0.2, 25, 0, 0
BARO, 137139074, -0.4860238, 987.882, 38.48, -0.06852544, 137139, 0, 35
CTUN, 137139088, 0, 0, 0, 0.3022425, 0.03832972, 0.03832972, -0.48, 0, 0.19, 0, 0, -1
DU32, 137139123, 7, 50389208
ATT, 137139270, 0, 0.45, 0, -0.03, 127.23, 127.23, 0, 1
RATE, 137139277, -2.037786, 0.04773632, -0.004971602, 0.1506518, -0.05609152, 0.0006272004, 0.003621066, -0.311342, 0.001119732, 796.7678, -1.473904, 0
NKF1, 137139285, 0.45, -0.03, 127.23, -0.09677147, 0.09292094, 0.01967328, 0, 0, 0, -0.03832972, 0, 0, 0.28
NKF2, 137139285, 0, 0, 0, 0, 0, 0, 0, 0, 0, 0, 0, 0, 0
NKF3, 137139285, 0, 0, 0, -0.12, 0.09, 0.02, 0, 0, 0, 0, 0
NKF4, 137139285, 0, 0, 0.01, 0, 0, 3.12298E-06, 0, 0, 0, 19, 229, 0, 0
NKF5, 137139285, 0, 0, 0, 0, 0.17, 0.13, 0, 0.19, 0.5, 3.800793E-05, 0.005531893, 0.01159758
NKQ1, 137139285, 0.4443744, 0.0005807962, 0.002388164, 0.8958378
AHR2, 137139330, 0.41, -0.11, 164.63, -0.48, 0, 0, 0.1336543, 0.001492347, 0.003452445, 0.9910209
MOTB, 137139337, 1, 1, 0, 1
RCIN, 137139341, 0, 0, 0, 0, 0, 0, 0, 0, 0, 0, 0, 0, 0, 0
RCOU, 137139347, 1101, 1101, 1101, 1101, 0, 0, 0, 0, 0, 0, 0, 0, 0, 0
VIBE, 137139413, 0.01873378, 0.02060718, 0.03667063, 0, 0, 0
CTRL, 137139421, 0.004795125, 0.0001739326, 0.0003727127, 0.0001587679, 0.001114521
PRX, 137139452, 2, 0.64, 0, 0.53, 0, 3.59, 0, 2.41, 0, 0, 90, 0.53
IMU, 137139564, 0.0009869194, -0.0008222271, -0.0003840348, 0.03879853, -0.03465513, -9.789215, 0, 0, 39.68266, 1, 1, 1000, 1000
IMU, 137179227, 0.0007449685, -0.001013656, -0.0008067107, 0.03866476, -0.04768511, -9.789953, 0, 0, 39.6855, 1, 1, 1000, 1000
RFND, 137189001, 0.2, 25, 0, 0
IMU, 137219191, -0.0002662443, -0.0006110776, -0.001019442, 0.05863359, -0.04039085, -9.809848, 0, 0, 39.68734, 1, 1, 1000, 1000
MAG, 137239230, 271, 653, 140, 0, 0, 0, 0, 0, 0, 1, 137239222
RFND, 137239258, 0.2, 25, 0, 0
BARO, 137239295, -0.5029781, 987.8836, 38.48, -0.04415182, 137239, 0, 35
CTUN, 137239308, 0, 0, 0, 0.3022425, 0.03878812, 0.03878812, -0.5, 0, 0.19, 0, 0, -1
ATT, 137239441, 0, 0.45, 0, -0.03, 127.2, 127.19, 0, 1
RATE, 137239449, -2.043465, -0.05931611, -0.004560571, 0.1525999, -0.002734027, 0.0003459765, 0.005726412, -0.3953601, 0.001065857, 760.2665, -0.005054474, 0
NKF1, 137239457, 0.45, -0.03, 127.19, -0.0991874, 0.09508522, 0.01877201, 0, 0, 0, -0.03878812, 0, 0, 0.28
NKF2, 137239457, 0, 0, 0, 0, 0, 0, 0, 0, 0, 0, 0, 0, 0
NKF3, 137239457, 0, 0, 0, -0.14, 0.1, 0.02, 0, 0, 0, 0, 0
NKF4, 137239457, 0, 0, 0.01, 0, 0, 3.300237E-06, 0, 0, 0, 19, 229, 0, 0
NKF5, 137239457, 0, 0, 0, 0, 0.17, 0.13, 0, 0.19, 0.5, 4.055291E-05, 0.005290027, 0.01092475
NKQ1, 137239457, 0.4446388, 0.000590962, 0.002395599, 0.8957066
AHR2, 137239503, 0.41, -0.11, 164.63, -0.5, 0, 0, 0.1336948, 0.001484536, 0.003464439, 0.9910154
MOTB, 137239510, 1, 1, 0, 1
RCIN, 137239514, 0, 0, 0, 0, 0, 0, 0, 0, 0, 0, 0, 0, 0, 0
RCOU, 137239520, 1101, 1101, 1101, 1101, 0, 0, 0, 0, 0, 0, 0, 0, 0, 0
VIBE, 137239528, 0.02177067, 0.02238243, 0.03320954, 0, 0, 0
CTRL, 137239535, 0.004819328, 0.0001858499, 0.0003872148, 0.0001791027, 0.001095849
PRX, 137239566, 2, 0.64, 0, 0.53, 0, 3.59, 0, 2.42, 0, 0, 90, 0.53
IMU, 137259012, -0.0007245982, -0.0007486081, -0.0005540525, 0.04645506, -0.0431926, -9.788771, 0, 0, 39.68854, 1, 1, 1000, 1000
RFND, 137288964, 0.2, 25, 0, 0
IMU, 137299196, -0.0004182231, -0.0002266971, -0.00153606, 0.05496485, -0.03674392, -9.799362, 0, 0, 39.69035, 1, 1, 1000, 1000
MAG, 137338946, 269, 655, 145, 0, 0, 0, 0, 0, 0, 1, 137338938
RFND, 137338974, 0.2, 25, 0, 0
BARO, 137339010, -0.4690695, 987.8798, 38.48, 0.07594123, 137338, 0, 35
CTUN, 137339023, 0, 0, 0, 0.3022425, 0.03880081, 0.03880081, -0.46, 0, 0.19, 0, 0, -1
ATT, 137339118, 0, 0.45, 0, -0.03, 127.16, 127.16, 0, 1
RATE, 137339124, -2.036917, 0.02978586, -0.004984156, 0.1617925, -0.02891153, 0.0006121933, 0.00363645, -0.3304397, 0.00107849, 756.8906, -0.8868217, 0
NKF1, 137339185, 0.45, -0.03, 127.16, -0.1018117, 0.09770307, 0.01868866, 0, 0, 0, -0.03880081, 0, 0, 0.28
NKF2, 137339185, 0, 0, 0, 0, 0, 0, 0, 0, 0, 0, 0, 0, 0
NKF3, 137339185, 0, 0, 0, -0.15, 0.12, 0.02, 0, 0, 0, 0, 0
NKF4, 137339185, 0, 0, 0.01, 0, 0, 3.48678E-06, 0, 0, 0, 19, 229, 0, 0
NKF5, 137339185, 0, 0, 0, 0, 0.17, 0.13, 0, 0.19, 0.5, 4.40146E-05, 0.005163664, 0.01056098
NKQ1, 137339185, 0.4449029, 0.0006006655, 0.002375887, 0.8955755
AHR2, 137339233, 0.41, -0.11, 164.62, -0.46, 0, 0, 0.1337374, 0.001485224, 0.003449279, 0.9910097
MOTB, 137339241, 1, 1, 0, 1
RCIN, 137339245, 0, 0, 0, 0, 0, 0, 0, 0, 0, 0, 0, 0, 0, 0
RCOU, 137339251, 1101, 1101, 1101, 1101, 0, 0, 0, 0, 0, 0, 0, 0, 0, 0
VIBE, 137339259, 0.02021496, 0.02117391, 0.03367096, 0, 0, 0
CTRL, 137339266, 0.004792248, 0.0001676732, 0.0003996702, 0.000166406, 0.001094943
PRX, 137339298, 2, 0.64, 0, 0.53, 0, 3.59, 0, 2.42, 0, 0, 90, 0.53
IMU, 137339305, 0.0006737135, -0.0003478507, -0.0007151855, 0.05493443, -0.05207523, -9.794958, 0, 0, 39.6917, 1, 1, 1000, 1000
IMU, 137379422, 0.0008178864, 0.001017798, -0.00110537, 0.04468458, -0.02201692, -9.783418, 0, 0, 39.69118, 1, 1, 1000, 1000
RFND, 137388946, 0.2, 25, 0, 0
IMU, 137419470, 0.0005064865, -0.0006153436, -0.0007300614, 0.04002652, -0.03750667, -9.792739, 0, 0, 39.68989, 1, 1, 1000, 1000
MAG, 137439010, 268, 654, 141, 0, 0, 0, 0, 0, 0, 1, 137439002
RFND, 137439040, 0.2, 25, 0, 0
BARO, 137439198, -0.4747209, 987.8803, 38.48, 0.1397146, 137439, 0, 35
CTUN, 137439214, 0, 0, 0, 0.3022425, 0.03909668, 0.03909668, -0.47, 0, 0.19, 0, 0, -1
ATT, 137439292, 0, 0.45, 0, -0.03, 127.13, 127.13, 0, 1
RATE, 137439298, -2.052645, 0.0247463, -0.004773492, 0.1589476, 0.04604546, -2.976277E-05, 0.0004705001, -0.2784458, 0.001046066, 805.6133, -2.390671, 0
NKF1, 137439305, 0.45, -0.03, 127.13, -0.103948, 0.09950886, 0.01989168, 0, 0, 0, -0.03909668, 0, 0, 0.29
NKF2, 137439305, 0, 0, 0, 0, 0, 0, 0, 0, 0, 0, 0, 0, 0
NKF3, 137439305, 0, 0, 0, -0.15, 0.12, 0.02, 0, 0, 0, 0, 0
NKF4, 137439305, 0, 0, 0.01, 0, 0, 3.876856E-06, 0, 0, 0, 19, 229, 0, 0
NKF5, 137439305, 0, 0, 0, 0, 0.17, 0.13, 0, 0.19, 0.5, 4.347309E-05, 0.004870716, 0.009921103
NKQ1, 137439305, 0.4451549, 0.0006086287, 0.002404742, 0.8954502
AHR2, 137439409, 0.41, -0.11, 164.62, -0.47, 0, 0, 0.1337693, 0.001467166, 0.003483065, 0.9910053
MOTB, 137439419, 1, 1, 0, 1
RCIN, 137439423, 0, 0, 0, 0, 0, 0, 0, 0, 0, 0, 0, 0, 0, 0
RCOU, 137439429, 1101, 1101, 1101, 1101, 0, 0, 0, 0, 0, 0, 0, 0, 0, 0
VIBE, 137439437, 0.01974072, 0.02295073, 0.03707781, 0, 0, 0
CTRL, 137439444, 0.00482974, 0.0001514856, 0.0004049881, 0.0001833346, 0.001089863
PRX, 137439475, 2, 0.64, 0, 0.53, 0, 3.59, 0, 2.41, 0, 0, 90, 0.53
IMU, 137458957, 0.0001598796, 0.0009640368, -0.001042974, 0.04817753, -0.04237679, -9.770596, 0, 0, 39.68882, 1, 1, 1000, 1000
RFND, 137489188, 0.2, 25, 0, 0
IMU, 137499503, 0.0002549289, -0.0008667972, -0.0009966461, 0.04999509, -0.03774413, -9.807582, 0, 0, 39.68882, 1, 1, 1000, 1000
MAG, 137539219, 268, 655, 141, 0, 0, 0, 0, 0, 0, 1, 137539210
RFND, 137539248, 0.2, 25, 0, 0
BARO, 137539287, -0.4238579, 987.8748, 38.48, 0.1378869, 137539, 0, 35
CTUN, 137539300, 0, 0, 0, 0.3022425, 0.0390749, 0.0390749, -0.42, 0, 0.19, 0, 0, -1
ATT, 137539520, 0, 0.45, 0, -0.03, 127.09, 127.09, 0, 1
RATE, 137539527, -2.065808, -0.0003258822, -0.004464212, 0.1368379, 0.07194798, 9.4517E-05, 0.003282686, -0.3354949, 0.001069608, 798.2805, -1.294708, 0
NKF1, 137539534, 0.45, -0.03, 127.09, -0.1067712, 0.1015053, 0.01971063, 0, 0, 0, -0.0390749, 0, 0, 0.28
NKF2, 137539534, 0, 0, 0, 0, 0, 0, 0, 0, 0, 0, 0, 0, 0
NKF3, 137539534, 0, 0, 0, -0.17, 0.13, 0.02, 0, 0, 0, 0, 0
NKF4, 137539534, 0, 0, 0.01, 0, 0, 4.284882E-06, 0, 0, 0, 19, 229, 0, 0
NKF5, 137539534, 0, 0, 0, 0, 0.17, 0.13, 0, 0.19, 0.5, 4.731218E-05, 0.004767186, 0.009601101
NKQ1, 137539534, 0.4454324, 0.0005833553, 0.00244639, 0.8953121
AHR2, 137539583, 0.42, -0.1, 164.61, -0.42, 0, 0, 0.1338243, 0.001412626, 0.00352019, 0.9909979
MOTB, 137539591, 1, 1, 0, 1
RCIN, 137539595, 0, 0, 0, 0, 0, 0, 0, 0, 0, 0, 0, 0, 0, 0
RCOU, 137539601, 1101, 1101, 1101, 1101, 0, 0, 0, 0, 0, 0, 0, 0, 0, 0
VIBE, 137539609, 0.02038965, 0.02041611, 0.03746288, 0, 0, 0
CTRL, 137539616, 0.004864933, 0.0001633155, 0.0003655042, 0.0001884723, 0.001081952
PRX, 137539647, 2, 0.64, 0, 0.53, 0, 3.59, 0, 2.41, 0, 0, 90, 0.53
IMU, 137539654, 0.0001482085, 0.001412461, -0.0008024474, 0.0407629, -0.04542743, -9.790908, 0, 0, 39.68903, 1, 1, 1000, 1000
IMU, 137579268, 0.0004531691, 0.0002225444, -0.0007402519, 0.05095748, -0.04916981, -9.783537, 0, 0, 39.69007, 1, 1, 1000, 1000
RFND, 137589271, 0.2, 25, 0, 0
IMU, 137619316, 0.0006684244, 0.001489058, -0.001956238, 0.04443457, -0.03750809, -9.775553, 0, 0, 39.69194, 1, 1, 1000, 1000
MAG, 137639227, 272, 659, 142, 0, 0, 0, 0, 0, 0, 1, 137639219
RFND, 137639256, 0.2, 25, 0, 0
BARO, 137639295, -0.3842978, 987.8709, 38.48, 0.1695432, 137639, 0, 35
CTUN, 137639309, 0, 0, 0, 0.3022425, 0.0391334, 0.0391334, -0.38, 0, 0.19, 0, 0, -1
ATT, 137639461, 0, 0.46, 0, -0.02, 127.06, 127.06, 0, 1
RATE, 137639469, -2.072869, 0.01606245, -0.004903938, 0.1157087, 0.06637457, 1.288885E-06, 0.004727197, -0.3756422, 0.001178667, 807.6214, -0.7826805, 0
NKF1, 137639477, 0.46, -0.02, 127.06, -0.1092854, 0.1032712, 0.01994127, 0, 0, 0, -0.0391334, 0, 0, 0.28
NKF2, 137639477, 0, 0, 0, 0, 0, 0, 0, 0, 0, 0, 0, 0, 0
NKF3, 137639477, 0, 0, 0, -0.17, 0.13, 0.02, 0, 0, 0, 0, 0
NKF4, 137639477, 0, 0, 0.01, 0, 0, 4.789448E-06, 0, 0, 0, 19, 229, 0, 0
NKF5, 137639477, 0, 0, 0, 0, 0.17, 0.13, 0, 0.19, 0.5, 4.587503E-05, 0.004502437, 0.009065082
NKQ1, 137639477, 0.4457248, 0.0005539554, 0.00247608, 0.8951665
AHR2, 137639524, 0.42, -0.1, 164.6, -0.38, 0, 0, 0.1338986, 0.001361441, 0.003542318, 0.9909878
MOTB, 137639531, 1, 1, 0, 1
RCIN, 137639535, 0, 0, 0, 0, 0, 0, 0, 0, 0, 0, 0, 0, 0, 0
RCOU, 137639541, 1101, 1101, 1101, 1101, 0, 0, 0, 0, 0, 0, 0, 0, 0, 0
VIBE, 137639549, 0.01988284, 0.02178685, 0.03751464, 0, 0, 0
CTRL, 137639556, 0.004873149, 0.0001489125, 0.0003256412, 0.0001747377, 0.00109357
PRX, 137639587, 2, 0.64, 0, 0.53, 0, 1.58, 0, 2.42, 0, 0, 90, 0.53
IMU, 137658958, 0.001390151, 0.0007617097, -0.0007814715, 0.0486629, -0.0325611, -9.785923, 0, 0, 39.69437, 1, 1, 1000, 1000
RFND, 137689224, 0.2, 25, 0, 0
IMU, 137699115, 0.001270745, 0.0006539821, -0.001160519, 0.04875504, -0.03594864, -9.805977, 0, 0, 39.69665, 1, 1, 1000, 1000
MAG, 137739184, 272, 653, 142, 0, 0, 0, 0, 0, 0, 1, 137739120
RFND, 137739952, 0.2, 25, 0, 0
BARO, 137740005, -0.4351608, 987.8764, 38.48, 0.2345365, 137739, 0, 35
CTUN, 137740021, 0, 0, 0, 0.3022425, 0.03926774, 0.03926774, -0.43, 0, 0.19, 0, 0, -1
ATT, 137740104, 0, 0.46, 0, -0.02, 127.02, 127.02, 0, 1
RATE, 137740110, -2.085909, 0.01345924, -0.004975799, 0.1208383, -0.06886499, 0.00051933, 0.003712781, -0.3181164, 0.001076822, 782.2716, -0.3445625, 0
NKF1, 137740118, 0.46, -0.02, 127.02, -0.1124335, 0.1051086, 0.01931535, 0, 0, 0, -0.03926774, 0, 0, 0.28
NKF2, 137740118, 0, 0, 0, 0, 0, 0, 0, 0, 0, 0, 0, 0, 0
NKF3, 137740118, 0, 0, 0, -0.19, 0.15, 0.02, 0, 0, 0, 0, 0
NKF4, 137740118, 0, 0, 0, 0, 0, 5.388787E-06, 0, 0, 0, 19, 229, 0, 0
NKF5, 137740118, 0, 0, 0, 0, 0.17, 0.13, 0, 0.19, 0.5, 5.039446E-05, 0.004422333, 0.008805729
NKQ1, 137740118, 0.4459884, 0.0005739254, 0.002494218, 0.8950351
AHR2, 137740248, 0.42, -0.09, 164.6, -0.43, 0, 0, 0.133941, 0.001362505, 0.003568218, 0.990982
MOTB, 137740256, 1, 1, 0, 1
RCIN, 137740260, 0, 0, 0, 0, 0, 0, 0, 0, 0, 0, 0, 0, 0, 0
RCOU, 137740266, 1101, 1101, 1101, 1101, 0, 0, 0, 0, 0, 0, 0, 0, 0, 0
VIBE, 137740275, 0.02265851, 0.0214526, 0.03543495, 0, 0, 0
CTRL, 137740282, 0.004900512, 0.0001683182, 0.000323128, 0.0001870073, 0.001110098
PRX, 137740313, 2, 0.64, 0, 0.53, 0, 1.58, 0, 2.42, 0, 0, 90, 0.53
IMU, 137740320, 0.0003888624, -0.001045207, -0.0004977879, 0.05220936, -0.03782701, -9.800418, 0, 0, 39.69875, 1, 1, 1000, 1000
IMU, 137779068, 0.001616142, 0.001260369, 0.0001510937, 0.04739536, -0.05534852, -9.780528, 0, 0, 39.70071, 1, 1, 1000, 1000
RFND, 137789029, 0.2, 25, 0, 0
EV, 137798917, 57
IMU, 137819506, 0.0007495733, 0.0003282941, -0.0007424112, 0.0445638, -0.03118713, -9.80628, 0, 0, 39.70184, 1, 1, 1000, 1000
MAG, 137839038, 264, 650, 141, 0, 0, 0, 0, 0, 0, 1, 137839029
RFND, 137839097, 0.2, 25, 0, 0
BARO, 137839191, -0.4690695, 987.8798, 38.48, 0.1941625, 137839, 0, 35
CTUN, 137839206, 0, 0, 0, 0.3022425, 0.03914903, 0.03914903, -0.46, 0, 0.19, 0, 0, -1
ATT, 137839287, 0, 0.46, 0, -0.02, 126.99, 126.99, 0, 1
RATE, 137839293, -2.101467, 0.02874137, -0.005021657, 0.1135193, 0.009738941, 0.0002980302, -0.0005135688, -0.294312, 0.0009899907, 808.3776, -0.5456924, 0
NKF1, 137839301, 0.46, -0.02, 126.99, -0.114571, 0.1068742, 0.01995994, 0, 0, 0, -0.03914903, 0, 0, 0.29
NKF2, 137839301, 0, 0, 0, 0, 0, 0, 0, 0, 0, 0, 0, 0, 0
NKF3, 137839301, 0, 0, 0, -0.19, 0.15, 0.02, 0, 0, 0, 0, 0
NKF4, 137839301, 0, 0, 0, 0, 0, 5.970804E-06, 0, 0, 0, 19, 229, 0, 0
NKF5, 137839301, 0, 0, 0, 0, 0.17, 0.13, 0, 0.19, 0.5, 4.810069E-05, 0.0041771, 0.008349515
NKQ1, 137839301, 0.4462162, 0.000575637, 0.002528636, 0.8949215
AHR2, 137839349, 0.42, -0.09, 164.6, -0.46, 0, 0, 0.1339462, 0.001341083, 0.003600866, 0.9909812
MOTB, 137839558, 1, 1, 0, 1
RCIN, 137839563, 0, 0, 0, 0, 0, 0, 0, 0, 0, 0, 0, 0, 0, 0
RCOU, 137839570, 1110, 1110, 1110, 1110, 0, 0, 0, 0, 0, 0, 0, 0, 0, 0
VIBE, 137839578, 0.02390031, 0.02196287, 0.03799687, 0, 0, 0
CTRL, 137839585, 0.004943355, 0.0001773373, 0.0003035282, 0.0001741562, 0.001074094
PRX, 137839617, 2, 0.64, 0, 0.53, 0, 3.41, 0, 2.41, 0, 0, 90, 0.53
IMU, 137859075, 0.0003668031, 4.060239E-05, 0.0001789243, 0.04402247, -0.03643178, -9.801688, 0, 0, 39.70221, 1, 1, 1000, 1000
RFND, 137889342, 0.2, 25, 0, 0
IMU, 137899285, 9.327163E-06, 0.0004780555, -0.0007182615, 0.03543456, -0.03692189, -9.804008, 0, 0, 39.7021, 1, 1, 1000, 1000
MAG, 137939042, 263, 656, 143, 0, 0, 0, 0, 0, 0, 1, 137939033
RFND, 137939071, 0.2, 25, 0, 0
BARO, 137939111, -0.4690695, 987.8798, 38.48, -0.01059646, 137939, 0, 35
CTUN, 137939123, 0, 0, 0, 0.3022425, 0.03946007, 0.03946007, -0.46, 0, 0.19, 0, 0, -1
ATT, 137939270, 0, 0.46, 0, -0.02, 126.96, 126.96, 0, 1
RATE, 137939277, -2.108752, 0.02443497, -0.005158568, 0.1178776, -0.07957281, 0.0006631252, -0.0004982855, -0.382257, 0.001034156, 779.3011, -0.6295204, 0
NKF1, 137939284, 0.46, -0.02, 126.96, -0.1169507, 0.1077395, 0.019242, 0, 0, 0, -0.03946007, 0, 0, 0.28
NKF2, 137939284, 0, 0, 0, 0, 0, 0, 0, 0, 0, 0, 0, 0, 0
NKF3, 137939284, 0, 0, 0, -0.2, 0.16, 0.02, 0, 0, 0, 0, 0
NKF4, 137939284, 0, 0, 0, 0, 0, 6.7827E-06, 0, 0, 0, 19, 229, 0, 0
NKF5, 137939284, 0, 0, 0, 0, 0.17, 0.13, 0, 0.19, 0.5, 5.337779E-05, 0.004108054, 0.008119146
NKQ1, 137939284, 0.4464797, 0.0005924623, 0.002538342, 0.8947901
AHR2, 137939329, 0.43, -0.09, 164.59, -0.46, 0, 0, 0.133986, 0.001342305, 0.00361372, 0.9909757
MOTB, 137939336, 1, 1, 0, 1
RCIN, 137939340, 0, 0, 0, 0, 0, 0, 0, 0, 0, 0, 0, 0, 0, 0
RCOU, 137939346, 1134, 1134, 1134, 1134, 0, 0, 0, 0, 0, 0, 0, 0, 0, 0
VIBE, 137939444, 0.02109529, 0.02214275, 0.03614089, 0, 0, 0
CTRL, 137939665, 0.004957337, 0.0001607154, 0.0003125689, 0.0002130383, 0.001045638
PRX, 137939697, 2, 0.64, 0, 0.53, 0, 3.54, 0, 2.41, 0, 0, 90, 0.53
IMU, 137939706, 0.0005804676, -0.001232143, -0.001616508, 0.03236032, -0.04072804, -9.797564, 0, 0, 39.70269, 1, 1, 1000, 1000
IMU, 137979110, 0.0006897334, 9.569849E-05, -0.001073172, 0.04453977, -0.04394352, -9.785769, 0, 0, 39.70354, 1, 1, 1000, 1000
RFND, 137988998, 0.2, 25, 0, 0
IMU, 138019243, 0.0005816595, 0.0004001007, -0.001111258, 0.04677637, -0.04063602, -9.786848, 0, 0, 39.70456, 1, 1, 1000, 1000
MAG, 138039189, 264, 659, 145, 0, 0, 0, 0, 0, 0, 1, 138039122
RFND, 138039220, 0.2, 25, 0, 0
BARO, 138039259, -0.4521151, 987.8781, 38.48, -0.1819057, 138039, 0, 35
CTUN, 138039272, 0, 0, 0, 0.3022425, 0.03933265, 0.03933265, -0.45, 0, 0.19, 0, 0, -1
ATT, 138039349, 0, 0.46, 0, -0.02, 126.92, 126.93, 0, 1
RATE, 138039451, -2.115052, -0.01947746, -0.004872606, 0.1054629, -0.03410586, 0.0004894605, -0.0005290722, -0.2884672, 0.001085108, 766.043, 2.175713, 0
NKF1, 138039459, 0.46, -0.02, 126.93, -0.1195709, 0.1095934, 0.01891464, 0, 0, 0, -0.03933265, 0, 0, 0.28
NKF2, 138039459, 0, 0, 0, 0, 0, 0, 0, 0, 0, 0, 0, 0, 0
NKF3, 138039459, 0, 0, 0, -0.22, 0.18, 0.02, 0, 0, 0, 0, 0
NKF4, 138039459, 0, 0, 0, 0, 0, 7.418572E-06, 0, 0, 0, 19, 229, 0, 0
NKF5, 138039459, 0, 0, 0, 0, 0.17, 0.13, 0, 0.19, 0.5, 5.9457E-05, 0.004245691, 0.008463386
NKQ1, 138039459, 0.4467435, 0.0005741616, 0.002557639, 0.8946582
AHR2, 138039508, 0.43, -0.09, 164.59, -0.45, 0, 0, 0.1340288, 0.001310716, 0.003623957, 0.99097
MOTB, 138039515, 1, 1, 0, 1
RCIN, 138039519, 0, 0, 0, 0, 0, 0, 0, 0, 0, 0, 0, 0, 0, 0
RCOU, 138039524, 1158, 1158, 1158, 1158, 0, 0, 0, 0, 0, 0, 0, 0, 0, 0
VIBE, 138039533, 0.0233538, 0.02003269, 0.03873721, 0, 0, 0
CTRL, 138039539, 0.004978653, 0.0001526202, 0.0002855945, 0.0002129279, 0.00105507
PRX, 138039571, 2, 0.64, 0, 0.53, 0, 3.59, 0, 2.41, 0, 0, 90, 0.53
IMU, 138059299, 6.150319E-05, -0.0003555658, -0.0005324964, 0.0534246, -0.04324849, -9.80463, 0, 0, 39.70555, 1, 1, 1000, 1000
RFND, 138089328, 0.2, 25, 0, 0
IMU, 138099453, 0.0001265187, 0.001939703, -0.005447441, 0.02097451, -0.05150443, -9.798274, 0, 0, 39.7063, 1, 1, 1000, 1000
MAG, 138139068, 268, 657, 149, 0, 0, 0, 0, 0, 0, 1, 138139059
RFND, 138139098, 0.2, 25, 0, 0
BARO, 138139208, -0.4069036, 987.873, 38.48, -0.1324556, 138139, 0, 35
CTUN, 138139223, 0, 0, 0, 0.3022425, 0.03965384, 0.03965384, -0.4, 0, 0.19, 0, 0, -1
DU32, 138139266, 7, 33611992
ATT, 138139584, 0, 0.46, 0, -0.02, 126.89, 126.9, 0, 1
RATE, 138139591, -2.095009, -0.1604465, -0.004386852, 0.09167995, 0.01270956, 0.0003451247, -0.0003598313, 0.2697705, 0.0008251851, 770.8657, -1.118088, 0
NKF1, 138139600, 0.46, -0.02, 126.9, -0.1218867, 0.1116573, 0.01903372, 0, 0, 0, -0.03965384, 0, 0, 0.29
NKF2, 138139600, 0, 0, 0, 0, 0, 0, 0, 0, 0, 0, 0, 0, 0
NKF3, 138139600, 0, 0, 0, -0.22, 0.18, 0.02, 0, 0, 0, 0, 0
NKF4, 138139600, 0, 0, 0, 0, 0, 8.399427E-06, 0, 0, 0, 19, 229, 0, 0
NKF5, 138139600, 0, 0, 0, 0, 0.17, 0.13, 0, 0.19, 0.5, 5.617715E-05, 0.003836168, 0.007559329
NKQ1, 138139600, 0.4469728, 0.000526558, 0.002540312, 0.8945438
AHR2, 138139647, 0.42, -0.08, 164.59, -0.4, 0, 0, 0.1340332, 0.001265749, 0.003590032, 0.9909695
MOTB, 138139654, 1, 1, 0, 1
RCIN, 138139658, 0, 0, 0, 0, 0, 0, 0, 0, 0, 0, 0, 0, 0, 0
RCOU, 138139663, 1182, 1182, 1182, 1182, 0, 0, 0, 0, 0, 0, 0, 0, 0, 0
VIBE, 138139672, 0.06890997, 0.06608133, 0.08231713, 0, 0, 0
CTRL, 138139678, 0.004944901, 0.00026824, 0.0002711608, 0.0002325655, 0.001089858
PRX, 138139709, 2, 0.64, 0, 0.53, 0, 3.59, 0, 2.42, 0, 0, 90, 0.53
IMU, 138139716, -0.002645957, 0.0003787499, 0.009774756, 0.06520556, -0.06379376, -9.792497, 0, 0, 39.70716, 1, 1, 1000, 1000
IMU, 138179095, 0.003857129, 0.001493105, 0.002992311, -0.01438172, -0.07363793, -9.763779, 0, 0, 39.70766, 1, 1, 1000, 1000
RFND, 138189205, 0.2, 25, 0, 0
IMU, 138219099, 0.001162267, -0.001066762, 0.004861377, 0.009601215, -0.05338434, -9.798729, 0, 0, 39.70774, 1, 1, 1000, 1000
MAG, 138239051, 260, 651, 141, 0, 0, 0, 0, 0, 0, 1, 138239042
RFND, 138239082, 0.2, 25, 0, 0
BARO, 138239120, -0.3560407, 987.8676, 38.48, 0.07064301, 138239, 0, 35
CTUN, 138239200, 0, 0, 0, 0.3022425, 0.03975102, 0.03975102, -0.35, 0, 0.19, 0, 0, -1
ATT, 138239280, 0, 0.47, 0, -0.01, 126.86, 126.86, 0, 1
RATE, 138239287, -2.139205, 0.04371957, -0.004095819, 0.06080762, -0.02618711, 0.0005462668, -0.0002373434, -0.2881841, 0.0009251327, 759.7346, -1.119232, 0
NKF1, 138239294, 0.47, -0.01, 126.86, -0.1224773, 0.1116805, 0.01875888, 0, 0, 0, -0.03975102, 0, 0, 0.28
NKF2, 138239294, 0, 0, 0, 0, 0, 0, 0, 0, 0, 0, 0, 0, 0
NKF3, 138239294, 0, 0, 0, -0.24, 0.2, 0.02, 0, 0, 0, 0, 0
NKF4, 138239294, 0, 0, 0, 0, 0, 9.298938E-06, 0, 0, 0, 19, 229, 0, 0
NKF5, 138239294, 0, 0, 0, 0, 0.17, 0.13, 0, 0.19, 0.5, 6.346383E-05, 0.003968886, 0.007905059
NKQ1, 138239294, 0.4472639, 0.000519301, 0.002638058, 0.8943981
AHR2, 138239342, 0.43, -0.08, 164.58, -0.35, 0, 0, 0.1341064, 0.00122423, 0.003677795, 0.9909593
MOTB, 138239349, 1, 1, 0, 1
RCIN, 138239549, 0, 0, 0, 0, 0, 0, 0, 0, 0, 0, 0, 0, 0, 0
RCOU, 138239559, 1205, 1205, 1205, 1205, 0, 0, 0, 0, 0, 0, 0, 0, 0, 0
VIBE, 138239568, 0.5105843, 0.2901178, 0.3067376, 0, 0, 0
CTRL, 138239575, 0.005035003, 0.0004405189, 0.0002493672, 0.0003327582, 0.001062519
PRX, 138239606, 2, 0.64, 0, 0.53, 0, 3.59, 0, 2.42, 0, 0, 90, 0.53
IMU, 138259272, 0.001279883, 0.003282414, -0.006896556, 0.03074917, -0.06680097, -9.817506, 0, 0, 39.70718, 1, 1, 1000, 1000
RFND, 138289199, 0.2, 25, 0, 0
IMU, 138298996, 0.0005424845, -0.001759381, 0.008695089, 0.06710793, -0.004810723, -9.78414, 0, 0, 39.70649, 1, 1, 1000, 1000
MAG, 138340218, 265, 659, 146, 0, 0, 0, 0, 0, 0, 1, 138340210
RFND, 138340246, 0.2, 25, 0, 0
BARO, 138340283, -0.3899493, 987.8714, 38.48, 0.2525252, 138340, 0, 35
CTUN, 138340297, 0, 0, 0, 0.3022425, 0.03986468, 0.03986468, -0.38, 0, 0.19, 0, 0, -2
ATT, 138340459, 0, 0.48, 0, 0, 126.79, 126.79, 0, 1
RATE, 138340465, -2.191362, -0.01020201, -0.003964177, 0.004037713, 0.2631425, -0.0002136832, -8.422154E-05, -0.06219994, 0.002635855, 822.7198, -6.72245, 0
NKF1, 138340473, 0.48, 0, 126.79, -0.1270059, 0.1134974, 0.02031407, 0, 0, 0, -0.03986468, 0, 0, 0.28
NKF2, 138340473, 0, 0, 0, 0, 0, 0, 0, 0, 0, 0, 0, 0, 0
NKF3, 138340473, 0, 0, 0, -0.24, 0.2, 0.02, 0, 0, 0, 0, 0
NKF4, 138340473, 0, 0, 0, 0, 0, 1.027308E-05, 0, 0, 0, 19, 229, 0, 0
NKF5, 138340473, 0, 0, 0, 0, 0.17, 0.13, 0, 0.19, 0.5, 5.914009E-05, 0.003585506, 0.007078898
NKQ1, 138340473, 0.447772, 0.000464649, 0.00277948, 0.8941435
AHR2, 138340521, 0.44, -0.06, 164.54, -0.38, 0, 0, 0.1344202, 0.001125934, 0.003791237, 0.9909166
MOTB, 138340528, 1, 1, 0, 1
RCIN, 138340532, 0, 0, 0, 0, 0, 0, 0, 0, 0, 0, 0, 0, 0, 0
RCOU, 138340538, 1232, 1226, 1221, 1228, 0, 0, 0, 0, 0, 0, 0, 0, 0, 0
VIBE, 138340546, 0.652465, 0.4907645, 0.6406323, 0, 0, 0
CTRL, 138340554, 0.005164763, 0.0005272701, 0.0003584968, 0.0005684652, 0.001274519
PRX, 138340585, 2, 0.64, 0, 0.53, 0, 1.59, 0, 2.42, 0, 0, 90, 0.53
IMU, 138340592, -2.39629E-05, 0.004749229, 0.003971157, 0.06375188, -0.04482294, -9.736526, 0, 0, 39.70651, 1, 1, 1000, 1000
IMU, 138379092, 0.003523413, 0.006452987, -0.007452868, 0.09335244, 0.0127243, -9.822521, 0, 0, 39.70656, 1, 1, 1000, 1000
RFND, 138389094, 0.2, 25, 0, 0
IMU, 138419107, -0.001546285, -0.008000168, -0.0205402, 0.1704847, -0.01378217, -9.849037, 0, 0, 39.70643, 1, 1, 1000, 1000
MAG, 138439011, 264, 650, 156, 0, 0, 0, 0, 0, 0, 1, 138439003
RFND, 138439040, 0.2, 25, 0, 0
BARO, 138439097, -0.3277835, 987.8647, 38.48, 0.2929218, 138439, 0, 35
CTUN, 138439111, 0, 0, 0, 0.3022425, 0.04005718, 0.04005718, -0.32, 0, 0.19, 0, 0, -2
ATT, 138439240, 0, 0.49, 0, 0, 126.75, 126.75, 0, 1
RATE, 138439247, -2.234315, 0.5683907, -0.00806315, 0.01031818, 0.2549962, -0.002360465, -5.393567E-05, -0.6717866, 0.002047463, 824.7507, -6.463528, 0
NKF1, 138439254, 0.49, 0, 126.75, -0.1287708, 0.1165345, 0.02036422, 0, 0, 0, -0.04005718, 0, 0, 0.28
NKF2, 138439254, 0, 0, 0, 0, 0, 0, 0, 0, 0, 0, 0, 0, 0
NKF3, 138439254, 0, 0, 0, -0.26, 0.22, 0.02, 0, 0, 0, 0, 0
NKF4, 138439254, 0, 0, 0, 0, 0, 1.137471E-05, 0, 0, 0, 19, 229, 0, 0
NKF5, 138439254, 0, 0, 0, 0, 0.17, 0.13, 0, 0.19, 0.5, 6.802416E-05, 0.003744503, 0.007510949
NKQ1, 138439254, 0.4481117, 0.0005236535, 0.002844808, 0.8939731
AHR2, 138439299, 0.45, -0.07, 164.53, -0.32, 0, 0, 0.1345472, 0.001144958, 0.003881254, 0.990899
MOTB, 138439306, 1, 1, 0, 1
RCIN, 138439310, 0, 0, 0, 0, 0, 0, 0, 0, 0, 0, 0, 0, 0, 0
RCOU, 138439316, 1238, 1228, 1221, 1239, 0, 0, 0, 0, 0, 0, 0, 0, 0, 0
VIBE, 138439324, 0.5703923, 0.4925975, 0.5531392, 0, 0, 0
CTRL, 138439332, 0.005184168, 0.0008576916, 0.0006076849, 0.001238277, 0.00137754
PRX, 138439413, 2, 0.64, 0, 0.53, 0, 1.59, 0, 2.4, 0, 0, 90, 0.53
IMU, 138459197, -0.006177488, 0.001023586, 0.02181289, -0.01243926, -0.08713076, -9.783593, 0, 0, 39.70655, 1, 1, 1000, 1000
RFND, 138489086, 0.2, 25, 0, 0
IMU, 138499100, 0.01608115, 0.01158879, 0.01041395, 0.09705781, -0.04435519, -9.776476, 0, 0, 39.70642, 1, 1, 1000, 1000
MAG, 138539079, 259, 652, 146, 0, 0, 0, 0, 0, 0, 1, 138539044
RFND, 138539106, 0.2, 25, 0, 0
BARO, 138539196, -0.2882234, 987.8602, 38.48, 0.2382883, 138539, 0, 35
CTUN, 138539209, 0, 0, 0, 0.3022425, 0.03996109, 0.03996109, -0.28, 0, 0.19, 0, 0, -1
ATT, 138539285, 0, 0.49, 0, 0, 126.75, 126.75, 0, 1
RATE, 138539292, -2.207549, 0.1006773, -0.009526553, 0.01113269, -0.05277609, -0.001774059, -0.0001304999, -0.6342317, 0.0007441766, 796.8767, -2.084732, 0
NKF1, 138539300, 0.49, 0, 126.75, -0.1334683, 0.1176924, 0.01967597, 0, 0, 0, -0.03996109, 0, 0, 0.28
NKF2, 138539300, 0, 0, 0, 0, 0, 0, 0, 0, 0, 0, 0, 0, 0
NKF3, 138539300, 0, 0, 0, -0.26, 0.22, 0.02, 0, 0, 0, 0, 0
NKF4, 138539300, 0, 0, 0, 0, 0, 1.240545E-05, 0, 0, 0, 19, 229, 0, 0
NKF5, 138539300, 0, 0, 0, 0, 0.17, 0.13, 0, 0.19, 0.5, 6.238354E-05, 0.00336771, 0.006673558
NKQ1, 138539300, 0.4481421, 0.0005014451, 0.002798455, 0.8939578
AHR2, 138539346, 0.45, -0.06, 164.55, -0.28, 0, 0, 0.1343316, 0.00111293, 0.003847074, 0.9909284
MOTB, 138539411, 1, 1, 0, 1
RCIN, 138539416, 0, 0, 0, 0, 0, 0, 0, 0, 0, 0, 0, 0, 0, 0
RCOU, 138539422, 1238, 1225, 1221, 1240, 0, 0, 0, 0, 0, 0, 0, 0, 0, 0
VIBE, 138539431, 0.4811892, 0.4179839, 0.5285066, 0, 0, 0
CTRL, 138539438, 0.005149037, 0.001886511, 0.000750269, 0.001522568, 0.001239081
PRX, 138539468, 2, 0.64, 0, 0.53, 0, 2.99, 0, 2.41, 0, 0, 90, 0.53
IMU, 138539476, 0.0019113, -0.0007646873, -0.006011926, 0.1811065, 0.04216471, -9.783179, 0, 0, 39.70557, 1, 1, 1000, 1000
IMU, 138579081, -0.01579183, -0.01186755, -0.002752425, 0.08466227, -0.02078938, -9.788595, 0, 0, 39.70261, 1, 1, 1000, 1000
RFND, 138589028, 0.2, 25, 0, 0
IMU, 138619518, 0.00661912, 0.003660053, -0.00470699, 0.1428223, -0.1028299, -9.794632, 0, 0, 39.69735, 1, 1, 1000, 1000
MAG, 138638987, 259, 650, 150, 0, 0, 0, 0, 0, 0, 1, 138638978
RFND, 138639016, 0.2, 25, 0, 0
BARO, 138639080, -0.2769205, 987.8588, 38.47, 0.2472505, 138639, 0, 35
CTUN, 138639094, 0, 0, 0, 0.3022425, 0.04007402, 0.04007402, -0.27, 0, 0.19, 0, 0, -2
ATT, 138639227, 0, 0.47, 0, 0, 126.7, 126.7, 0, 1
RATE, 138639234, -2.132551, -0.7447115, -0.001425911, 0.02663631, -0.7243022, 0.004016641, -0.0001450833, -1.263831, 0.001376177, 916.2974, -4.971123, 0
NKF1, 138639242, 0.47, 0, 126.7, -0.1344062, 0.1179251, 0.02262463, 0, 0, 0, -0.04007402, 0, 0, 0.28
NKF2, 138639242, 0, 0, 0, 0, 0, 0, 0, 0, 0, 0, 0, 0, 0
NKF3, 138639242, 0, 0, 0, -0.28, 0.23, 0.02, 0, 0, 0, 0, 0
NKF4, 138639242, 0, 0, 0, 0, 0, 1.375395E-05, 0, 0, 0, 19, 229, 0, 0
NKF5, 138639242, 0, 0, 0, 0, 0.17, 0.13, 0, 0.19, 0.5, 7.305732E-05, 0.003555577, 0.007183314
NKQ1, 138639242, 0.4485077, 0.0004728535, 0.002650228, 0.893775
AHR2, 138639288, 0.43, -0.07, 164.54, -0.27, 0, 0, 0.134487, 0.00112341, 0.003699867, 0.9909078
MOTB, 138639296, 1, 1, 0, 1
RCIN, 138639300, 0, 0, 0, 0, 0, 0, 0, 0, 0, 0, 0, 0, 0, 0
RCOU, 138639305, 1230, 1221, 1225, 1221, 0, 0, 0, 0, 0, 0, 0, 0, 0, 0
VIBE, 138639314, 0.4649592, 0.439836, 0.4803793, 0, 0, 0
CTRL, 138639321, 0.005196671, 0.002558857, 0.0009037266, 0.001885309, 0.001115486
PRX, 138639419, 2, 0.64, 0, 0.53, 0, 3.54, 0, 2.41, 0, 0, 90, 0.53
IMU, 138659022, 0.01130746, 0.01188115, 0.01944549, 0.08276312, -0.0598835, -9.841638, 0, 0, 39.68933, 1, 1, 1000, 1000
RFND, 138689016, 0.2, 25, 0, 0
IMU, 138699015, -0.009093451, -0.00596157, 0.01110682, 0.06357189, -0.0321944, -9.789433, 0, 0, 39.67874, 1, 1, 1000, 1000
MAG, 138739317, 263, 656, 152, 0, 0, 0, 0, 0, 0, 1, 138739308
RFND, 138739346, 0.2, 25, 0, 0
BARO, 138739443, -0.3503892, 987.867, 38.46, 0.2763064, 138739, 0, 35
CTUN, 138739457, 0, 0, 0, 0.3022425, 0.03960949, 0.03960949, -0.35, 0, 0.19, 0, 0, -2
ATT, 138739662, 0, 0.47, 0, -0.01, 126.68, 126.68, 0, 1
RATE, 138739669, -2.154226, -0.6910601, -0.0009142873, 0.05157275, -0.6378307, 0.004542749, -0.0002528726, -0.4142922, 0.00105303, 932.6004, -7.304382, 0
NKF1, 138739676, 0.47, -0.01, 126.68, -0.1365473, 0.1201637, 0.02302717, 0, 0, 0, -0.03960949, 0, 0, 0.28
NKF2, 138739676, 0, 0, 0, 0, 0, 0, 0, 0, 0, 0, 0, 0, 0
NKF3, 138739676, 0, 0, 0, -0.28, 0.23, 0.02, 0, 0, 0, 0, 0
NKF4, 138739676, 0, 0, 0, 0, 0, 1.48308E-05, 0, 0, 0, 19, 229, 0, 0
NKF5, 138739676, 0, 0, 0, 0, 0.17, 0.13, 0, 0.19, 0.5, 6.589612E-05, 0.003171365, 0.006385878
NKQ1, 138739676, 0.4486831, 0.0005227135, 0.002670923, 0.8936868
AHR2, 138739721, 0.44, -0.07, 164.54, -0.35, 0, 0, 0.1344316, 0.001163158, 0.003727281, 0.9909152
MOTB, 138739729, 1, 1, 0, 1
RCIN, 138739733, 0, 0, 0, 0, 0, 0, 0, 0, 0, 0, 0, 0, 0, 0
RCOU, 138739739, 1230, 1221, 1227, 1221, 0, 0, 0, 0, 0, 0, 0, 0, 0, 0
VIBE, 138739747, 0.4564694, 0.4531637, 0.5278811, 0, 0, 0
CTRL, 138739754, 0.005285078, 0.002887436, 0.0009604575, 0.002069409, 0.001083177
PRX, 138739784, 2, 0.64, 0, 0.53, 0, 3.59, 0, 2.41, 0, 0, 90, 0.53
IMU, 138739791, -0.01190708, -0.01097595, -0.002173033, -0.03785552, -0.07059315, -9.730702, 0, 0, 39.6666, 1, 1, 1000, 1000
IMU, 138779027, 0.009383182, 0.007818315, 0.008315319, 0.1114926, -0.09505877, -9.780288, 0, 0, 39.65412, 1, 1, 1000, 1000
RFND, 138788940, 0.2, 25, 0, 0
IMU, 138819234, 0.009805438, 0.01170872, 0.004138397, 0.03401724, 0.007059169, -9.78788, 0, 0, 39.64206, 1, 1, 1000, 1000
MAG, 138838930, 263, 652, 148, 0, 0, 0, 0, 0, 0, 1, 138838921
RFND, 138838959, 0.2, 25, 0, 0
BARO, 138839066, -0.372995, 987.8692, 38.43, 0.1237491, 138839, 0, 35
CTUN, 138839081, 0, 0, 0, 0.3022425, 0.03961766, 0.03961766, -0.37, 0, 0.19, 0, 0, -2
ATT, 138839202, 0, 0.48, 0, 0, 126.65, 126.65, 0, 1
RATE, 138839209, -2.203934, 1.094981E-05, -0.003742852, -0.01914811, 0.03293727, -0.0002334671, 2.321004E-05, -0.4198347, 0.001234531, 931.7314, -6.338501, 0
NKF1, 138839217, 0.48, 0, 126.65, -0.1378852, 0.1225055, 0.02300571, 0, 0, 0, -0.03961766, 0, 0, 0.28
NKF2, 138839217, 0, 0, 0, 0, 0, 0, 0, 0, 0, 0, 0, 0, 0
