FMT, 128, 89, FMT, BBnNZ, Type,Length,Name,Format,Columns
FMT, 129, 31, PARM, QNf, TimeUS,Name,Value
FMT, 130, 46, GPS, QBIHBcLLefffB, TimeUS,Status,GMS,GWk,NSats,HDop,Lat,Lng,Alt,Spd,GCrs,VZ,U
FMT, 131, 46, GPS2, QBIHBcLLefffB, TimeUS,Status,GMS,GWk,NSats,HDop,Lat,Lng,Alt,Spd,GCrs,VZ,U
FMT, 132, 46, GPSB, QBIHBcLLefffB, TimeUS,Status,GMS,GWk,NSats,HDop,Lat,Lng,Alt,Spd,GCrs,VZ,U
FMT, 193, 24, GPA, QCCCCBI, TimeUS,VDop,HAcc,VAcc,SAcc,VV,SMS
FMT, 194, 24, GPA2, QCCCCBI, TimeUS,VDop,HAcc,VAcc,SAcc,VV,SMS
FMT, 195, 24, GPAB, QCCCCBI, TimeUS,VDop,HAcc,VAcc,SAcc,VV,SMS
FMT, 133, 53, IMU, QffffffIIfBBHH, TimeUS,GyrX,GyrY,GyrZ,AccX,AccY,AccZ,EG,EA,T,GH,AH,GHz,AHz
FMT, 134, 75, MSG, QZ, TimeUS,Message
FMT, 135, 39, RCIN, QHHHHHHHHHHHHHH, TimeUS,C1,C2,C3,C4,C5,C6,C7,C8,C9,C10,C11,C12,C13,C14
FMT, 136, 39, RCOU, QHHHHHHHHHHHHHH, TimeUS,C1,C2,C3,C4,C5,C6,C7,C8,C9,C10,C11,C12,C13,C14
FMT, 137, 15, RSSI, Qf, TimeUS,RXRSSI
FMT, 139, 37, BARO, QffcfIff, TimeUS,Alt,Press,Temp,CRt,SMS,Offset,GndTemp
FMT, 140, 22, POWR, QffHB, TimeUS,Vcc,VServo,Flags,Safety
FMT, 143, 45, CMD, QHHHfffffff, TimeUS,CTot,CNum,CId,Prm1,Prm2,Prm3,Prm4,Lat,Lng,Alt
FMT, 144, 20, RAD, QBBBBBHH, TimeUS,RSSI,RemRSSI,TxBuf,Noise,RemNoise,RxErrors,Fixed
FMT, 146, 43, CAM, QIHLLeeeccC, TimeUS,GPSTime,GPSWeek,Lat,Lng,Alt,RelAlt,GPSAlt,Roll,Pitch,Yaw
FMT, 232, 43, TRIG, QIHLLeeeccC, TimeUS,GPSTime,GPSWeek,Lat,Lng,Alt,RelAlt,GPSAlt,Roll,Pitch,Yaw
FMT, 162, 30, ARSP, QffcffB, TimeUS,Airspeed,DiffPress,Temp,RawPress,Offset,U
FMT, 164, 45, CURR, QfffcHHHHHHHHHH, TimeUS,Volt,Curr,CurrTot,Temp,V1,V2,V3,V4,V5,V6,V7,V8,V9,V10
FMT, 165, 45, CUR2, QfffcHHHHHHHHHH, TimeUS,Volt,Curr,CurrTot,Temp,V1,V2,V3,V4,V5,V6,V7,V8,V9,V10
FMT, 163, 27, ATT, QccccCCCC, TimeUS,DesRoll,Roll,DesPitch,Pitch,DesYaw,Yaw,ErrRP,ErrYaw
FMT, 166, 34, MAG, QhhhhhhhhhBI, TimeUS,MagX,MagY,MagZ,OfsX,OfsY,OfsZ,MOfsX,MOfsY,MOfsZ,Health,S
FMT, 169, 14, MODE, QMBB, TimeUS,Mode,ModeNum,Rsn
FMT, 196, 17, RFND, QCBCB, TimeUS,Dist1,Orient1,Dist2,Orient2
FMT, 223, 33, DMS, IIIIIBBBBBBBBBB, TimeMS,N,Dp,RT,RS,Er,Fa,Fmn,Fmx,Pa,Pmn,Pmx,Sa,Smn,Smx
FMT, 240, 41, BCN, QBBfffffff, TimeUS,Health,Cnt,D0,D1,D2,D3,PosX,PosY,PosZ
FMT, 138, 53, IMU2, QffffffIIfBBHH, TimeUS,GyrX,GyrY,GyrZ,AccX,AccY,AccZ,EG,EA,T,GH,AH,GHz,AHz
FMT, 147, 53, IMU3, QffffffIIfBBHH, TimeUS,GyrX,GyrY,GyrZ,AccX,AccY,AccZ,EG,EA,T,GH,AH,GHz,AHz
FMT, 141, 45, AHR2, QccCfLLffff, TimeUS,Roll,Pitch,Yaw,Alt,Lat,Lng,Q1,Q2,Q3,Q4
FMT, 180, 31, POS, QLLfff, TimeUS,Lat,Lng,Alt,RelHomeAlt,RelOriginAlt
FMT, 142, 45, SIM, QccCfLLffff, TimeUS,Roll,Pitch,Yaw,Alt,Lat,Lng,Q1,Q2,Q3,Q4
FMT, 198, 51, NKF1, QccCfffffffccc, TimeUS,Roll,Pitch,Yaw,VN,VE,VD,dPD,PN,PE,PD,GX,GY,GZ
FMT, 199, 35, NKF2, QbccccchhhhhhB, TimeUS,AZbias,GSX,GSY,GSZ,VWN,VWE,MN,ME,MD,MX,MY,MZ,MI
FMT, 200, 33, NKF3, Qcccccchhhcc, TimeUS,IVN,IVE,IVD,IPN,IPE,IPD,IMX,IMY,IMZ,IYAW,IVT
FMT, 201, 35, NKF4, QcccccfbbHBHHb, TimeUS,SV,SP,SH,SM,SVT,errRP,OFN,OFE,FS,TS,SS,GPS,PI
FMT, 202, 40, NKF5, QBhhhcccCCfff, TimeUS,NI,FIX,FIY,AFI,HAGL,offset,RI,rng,Herr,eAng,eVel,ePos
FMT, 203, 51, NKF6, QccCfffffffccc, TimeUS,Roll,Pitch,Yaw,VN,VE,VD,dPD,PN,PE,PD,GX,GY,GZ
FMT, 204, 35, NKF7, QbccccchhhhhhB, TimeUS,AZbias,GSX,GSY,GSZ,VWN,VWE,MN,ME,MD,MX,MY,MZ,MI
FMT, 205, 33, NKF8, Qcccccchhhcc, TimeUS,IVN,IVE,IVD,IPN,IPE,IPD,IMX,IMY,IMZ,IYAW,IVT
FMT, 206, 35, NKF9, QcccccfbbHBHHb, TimeUS,SV,SP,SH,SM,SVT,errRP,OFN,OFE,FS,TS,SS,GPS,PI
FMT, 207, 36, NKF0, QBccCCcccccccc, TimeUS,ID,rng,innov,SIV,TR,BPN,BPE,BPD,OFH,OFL,OFN,OFE,OFD
FMT, 208, 27, NKQ1, Qffff, TimeUS,Q1,Q2,Q3,Q4
FMT, 209, 27, NKQ2, Qffff, TimeUS,Q1,Q2,Q3,Q4
FMT, 210, 51, XKF1, QccCfffffffccc, TimeUS,Roll,Pitch,Yaw,VN,VE,VD,dPD,PN,PE,PD,GX,GY,GZ
FMT, 211, 34, XKF2, QccccchhhhhhB, TimeUS,AX,AY,AZ,VWN,VWE,MN,ME,MD,MX,MY,MZ,MI
FMT, 212, 33, XKF3, Qcccccchhhcc, TimeUS,IVN,IVE,IVD,IPN,IPE,IPD,IMX,IMY,IMZ,IYAW,IVT
FMT, 213, 35, XKF4, QcccccfbbHBHHb, TimeUS,SV,SP,SH,SM,SVT,errRP,OFN,OFE,FS,TS,SS,GPS,PI
FMT, 214, 40, XKF5, QBhhhcccCCfff, TimeUS,NI,FIX,FIY,AFI,HAGL,offset,RI,rng,Herr,eAng,eVel,ePos
FMT, 215, 51, XKF6, QccCfffffffccc, TimeUS,Roll,Pitch,Yaw,VN,VE,VD,dPD,PN,PE,PD,GX,GY,GZ
FMT, 216, 34, XKF7, QccccchhhhhhB, TimeUS,AX,AY,AZ,VWN,VWE,MN,ME,MD,MX,MY,MZ,MI
FMT, 217, 33, XKF8, Qcccccchhhcc, TimeUS,IVN,IVE,IVD,IPN,IPE,IPD,IMX,IMY,IMZ,IYAW,IVT
FMT, 218, 35, XKF9, QcccccfbbHBHHb, TimeUS,SV,SP,SH,SM,SVT,errRP,OFN,OFE,FS,TS,SS,GPS,PI
FMT, 219, 36, XKF0, QBccCCcccccccc, TimeUS,ID,rng,innov,SIV,TR,BPN,BPE,BPD,OFH,OFL,OFN,OFE,OFD
FMT, 220, 27, XKQ1, Qffff, TimeUS,Q1,Q2,Q3,Q4
FMT, 221, 27, XKQ2, Qffff, TimeUS,Q1,Q2,Q3,Q4
FMT, 222, 35, XKFD, Qffffff, TimeUS,IX,IY,IZ,IVX,IVY,IVZ
FMT, 148, 34, TERR, QBLLHffHH, TimeUS,Status,Lat,Lng,Spacing,TerrH,CHeight,Pending,Loaded
FMT, 149, 18, UBX1, QBHBBH, TimeUS,Instance,noisePerMS,jamInd,aPower,agcCnt
FMT, 150, 16, UBX2, QBbBbB, TimeUS,Instance,ofsI,magI,ofsQ,magQ
FMT, 151, 18, UBY1, QBHBBH, TimeUS,Instance,noisePerMS,jamInd,aPower,agcCnt
FMT, 152, 16, UBY2, QBbBbB, TimeUS,Instance,ofsI,magI,ofsQ,magQ
FMT, 170, 42, GRAW, QIHBBddfBbB, TimeUS,WkMS,Week,numSV,sv,cpMes,prMes,doMes,mesQI,cno,lli
FMT, 171, 24, GRXH, QdHbBB, TimeUS,rcvTime,week,leapS,numMeas,recStat
FMT, 172, 41, GRXS, QddfBBBHBBBBB, TimeUS,prMes,cpMes,doMes,gnss,sv,freq,lock,cno,prD,cpD,doD,trk
FMT, 173, 63, SBFE, QIHBBdddfffff, TimeUS,TOW,WN,Mode,Err,Lat,Lng,Height,Undul,Vn,Ve,Vu,COG
FMT, 153, 19, ESC1, Qcccc, TimeUS,RPM,Volt,Curr,Temp
FMT, 154, 19, ESC2, Qcccc, TimeUS,RPM,Volt,Curr,Temp
FMT, 155, 19, ESC3, Qcccc, TimeUS,RPM,Volt,Curr,Temp
FMT, 156, 19, ESC4, Qcccc, TimeUS,RPM,Volt,Curr,Temp
FMT, 157, 19, ESC5, Qcccc, TimeUS,RPM,Volt,Curr,Temp
FMT, 158, 19, ESC6, Qcccc, TimeUS,RPM,Volt,Curr,Temp
FMT, 159, 19, ESC7, Qcccc, TimeUS,RPM,Volt,Curr,Temp
FMT, 160, 19, ESC8, Qcccc, TimeUS,RPM,Volt,Curr,Temp
FMT, 167, 34, MAG2, QhhhhhhhhhBI, TimeUS,MagX,MagY,MagZ,OfsX,OfsY,OfsZ,MOfsX,MOfsY,MOfsZ,Health,S
FMT, 168, 34, MAG3, QhhhhhhhhhBI, TimeUS,MagX,MagY,MagZ,OfsX,OfsY,OfsZ,MOfsX,MOfsY,MOfsZ,Health,S
FMT, 174, 31, ACC1, QQfff, TimeUS,SampleUS,AccX,AccY,AccZ
FMT, 175, 31, ACC2, QQfff, TimeUS,SampleUS,AccX,AccY,AccZ
FMT, 176, 31, ACC3, QQfff, TimeUS,SampleUS,AccX,AccY,AccZ
FMT, 177, 31, GYR1, QQfff, TimeUS,SampleUS,GyrX,GyrY,GyrZ
FMT, 178, 31, GYR2, QQfff, TimeUS,SampleUS,GyrX,GyrY,GyrZ
FMT, 179, 31, GYR3, QQfff, TimeUS,SampleUS,GyrX,GyrY,GyrZ
FMT, 181, 35, PIDR, Qffffff, TimeUS,Des,P,I,D,FF,AFF
FMT, 182, 35, PIDP, Qffffff, TimeUS,Des,P,I,D,FF,AFF
FMT, 183, 35, PIDY, Qffffff, TimeUS,Des,P,I,D,FF,AFF
FMT, 184, 35, PIDA, Qffffff, TimeUS,Des,P,I,D,FF,AFF
FMT, 185, 35, PIDS, Qffffff, TimeUS,Des,P,I,D,FF,AFF
FMT, 186, 35, PIDL, Qffffff, TimeUS,Des,P,I,D,FF,AFF
FMT, 161, 37, BAR2, QffcfIff, TimeUS,Alt,Press,Temp,CRt,SMS,Offset,GndTemp
FMT, 197, 37, BAR3, QffcfIff, TimeUS,Alt,Press,Temp,CRt,SMS,Offset,GndTemp
FMT, 187, 35, VIBE, QfffIII, TimeUS,VibeX,VibeY,VibeZ,Clip0,Clip1,Clip2
FMT, 188, 47, IMT, Qfffffffff, TimeUS,DelT,DelvT,DelaT,DelAX,DelAY,DelAZ,DelVX,DelVY,DelVZ
FMT, 189, 47, IMT2, Qfffffffff, TimeUS,DelT,DelvT,DelaT,DelAX,DelAY,DelAZ,DelVX,DelVY,DelVZ
FMT, 190, 47, IMT3, Qfffffffff, TimeUS,DelT,DelvT,DelaT,DelAX,DelAY,DelAZ,DelVX,DelVY,DelVZ
FMT, 191, 24, ORGN, QBLLe, TimeUS,Type,Lat,Lng,Alt
FMT, 192, 19, RPM, Qff, TimeUS,rpm1,rpm2
FMT, 233, 47, GMB1, Iffffffffff, TimeMS,dt,dax,day,daz,dvx,dvy,dvz,jx,jy,jz
FMT, 234, 44, GMB2, IBfffffffff, TimeMS,es,ex,ey,ez,rx,ry,rz,tx,ty,tz
FMT, 235, 13, GMB3, Ihhh, TimeMS,rl_torque_cmd,el_torque_cmd,az_torque_cmd
FMT, 236, 59, RATE, Qffffffffffff, TimeUS,RDes,R,ROut,PDes,P,POut,YDes,Y,YOut,ADes,A,AOut
FMT, 237, 23, RALY, QBBLLh, TimeUS,Tot,Seq,Lat,Lng,Alt
FMT, 238, 43, VISO, Qffffffff, TimeUS,dt,AngDX,AngDY,AngDZ,PosDX,PosDY,PosDZ,conf
FMT, 224, 23, SBPH, QIII, TimeUS,CrcError,LastInject,IARhyp
FMT, 229, 80, SBR1, QHHBZ, TimeUS,msg_type,sender_id,msg_len,d1
FMT, 230, 205, SBR2, QHZZZ, TimeUS,msg_type,d2,d3,d4
FMT, 25, 41, ATUN, QBBfffffff, TimeUS,Axis,TuneStep,Targ,Min,Max,RP,RD,SP,ddt
FMT, 26, 19, ATDE, Qff, TimeUS,Angle,Rate
FMT, 31, 22, PTUN, QBfHHH, TimeUS,Param,TunVal,CtrlIn,TunLo,TunHi
FMT, 12, 28, OF, QBffff, TimeUS,Qual,flowX,flowY,bodyX,bodyY
FMT, 5, 51, NTUN, Qffffffffff, TimeUS,DPosX,DPosY,PosX,PosY,DVelX,DVelY,VelX,VelY,DAccX,DAccY
FMT, 4, 51, CTUN, Qffffffeccfhh, TimeUS,ThI,ABst,ThO,ThH,DAlt,Alt,BAlt,DSAlt,SAlt,TAlt,DCRt,CRt
FMT, 6, 32, PM, QHHIhBHII, TimeUS,NLon,NLoop,MaxT,PMT,I2CErr,INSErr,LogDrop,Mem
FMT, 30, 27, MOTB, Qffff, TimeUS,LiftMax,BatVolt,BatRes,ThLimit
FMT, 13, 12, EV, QB, TimeUS,Id
FMT, 20, 14, D16, QBh, TimeUS,Id,Value
FMT, 21, 14, DU16, QBH, TimeUS,Id,Value
FMT, 22, 16, D32, QBi, TimeUS,Id,Value
FMT, 23, 16, DU32, QBI, TimeUS,Id,Value
FMT, 24, 16, DFLT, QBf, TimeUS,Id,Value
FMT, 19, 13, ERR, QBB, TimeUS,Subsys,ECode
FMT, 32, 19, HELI, Qff, TimeUS,DRRPM,ERRPM
FMT, 33, 29, PL, QBBffff, TimeUS,Heal,TAcq,pX,pY,vX,vY
FMT, 34, 36, GUID, QBffffff, TimeUS,Type,pX,pY,pZ,vX,vY,vZ
FMT, 35, 32, THRO, QBffffbbbb, TimeUS,Stage,Vel,VelZ,Acc,AccEfZ,Throw,AttOk,HgtOk,PosOk
FMT, 36, 56, PRX, QBfffffffffff, TimeUS,Health,D0,D45,D90,D135,D180,D225,D270,D315,DUp,CAn,CDis
MODE, 73566221, 100, 100, 2
EV, 73574169, 15
MAG, 73634376, 390, 504, 302, 0, 0, 0, 0, 0, 0, 1, 73634368
RFND, 73634404, 0.2, 25, 0, 0
BARO, 73634443, -0.7231476, 993.1897, 31.64, 0.4743948, 73634, 0, 30.16
CTUN, 73634457, 0, 0, 0, 0.3013703, 0.06581431, 0.06581431, -0.72, 0, 0.19, 0, 0, 0
ATT, 73634530, 0, 0.28, 0, 1.13, 24.2, 24.2, 0, 1
RATE, 73634536, -1.300376, 0.01434588, -0.002829235, -5.123582, 0.01000429, -0.01209871, 0.01190088, 0.06011827, -0.0001415526, -35.27874, -1.757813, 0
NKF1, 73634543, 0.28, 1.13, 24.2, 0.003068459, -0.01269616, -0.00087108, 0, 0, 0, -0.06581431, 0.01, 0, -0.05
NKF2, 73634543, 31, 0, 0, 0, 0, 0, 0, 0, 0, 0, 0, 0, 0
NKF3, 73634543, 0, 0, 0, 0, 0, 0, 0, 0, 0, 0, 0
NKF4, 73634543, 0, 0, 0, 0, 0, 2.563671E-05, 0, 0, 0, 19, 229, 0, 0
NKF5, 73634543, 0, 0, 0, 0, 0.19, 0.13, 0, 0.19, 0.5, 3.979969E-05, 0.001884041, 0.003718527
NKQ1, 73634543, 0.9777147, -0.001314968, 0.0107374, 0.2096596
FMT, 254, 47, NKT1, QIffffffff, TimeUS,Cnt,IMUMin,IMUMax,EKFMin,EKFMax,AngMin,AngMax,VelMin,VelM
NKT1, 73634543, 6609, 0.0025, 0.0025, 0.009939966, 0.01019311, 0.001999509, 0.01499054, 0.001999507, 0.01499055
AHR2, 73634650, 0.52, 0.82, 18.7, -0.72, 0, 0, 0.9866749, 0.003320945, 0.00784667, 0.1624808
MOTB, 73634658, 1, 1, 0, 1
RCIN, 73634663, 0, 0, 0, 0, 0, 0, 0, 0, 0, 0, 0, 0, 0, 0
RCOU, 73634669, 1101, 1101, 1101, 1101, 0, 0, 0, 0, 0, 0, 0, 0, 0, 0
VIBE, 73634678, 0.0223458, 0.01983602, 0.02985605, 0, 0, 0
FMT, 253, 31, CTRL, Qfffff, TimeUS,RMSRollP,RMSRollD,RMSPitchP,RMSPitchD,RMSYaw
CTRL, 73634685, 0.00305124, 0.0001924138, 0.0120665, 0.000207489, 0.0002783654
PRX, 73634720, 2, 0.66, 0, 0.63, 0, 3.6, 0, 2.38, 0, 0, 90, 0.63
RFND, 73684198, 0.2, 25, 0, 0
MSG, 73718054, APM:Copter V3.5.7 (38483450)
MSG, 73718059, New mission
MSG, 73718069, Frame: QUAD
MODE, 73718074, Autonomous, 100, 2
MAG, 73734161, 389, 504, 305, 0, 0, 0, 0, 0, 0, 1, 73734153
RFND, 73734190, 0.2, 25, 0, 0
BARO, 73734229, -0.784337, 993.1967, 31.65, 0.02193262, 73734, 0, 30.16
CTUN, 73734242, 0, 0, 0, 0.3013703, 0.06598706, 0.06598706, -0.78, 0, 0.19, 0, 0, 0
ATT, 73734391, 0, 0.29, 0, 1.14, 24.21, 24.21, 0, 1
RATE, 73734399, -1.315366, 0.02416072, -0.003338398, -5.14061, 0.01045575, -0.01210884, 0.01128593, 0.1054108, -0.0002380657, -4.382437, -0.2493858, 0
NKF1, 73734406, 0.29, 1.14, 24.21, 0.003251853, -0.01299379, -0.0001082083, 0, 0, 0, -0.06598706, 0.01, 0, -0.05
NKF2, 73734406, 31, 0, 0, 0, 0, 0, 0, 0, 0, 0, 0, 0, 0
NKF3, 73734406, 0, 0, 0, 0, 0, 0, 0, 0, 0, 0, 0
NKF4, 73734406, 0, 0, 0, 0, 0, 2.387681E-05, 0, 0, 0, 19, 229, 0, 0
NKF5, 73734406, 0, 0, 0, 0, 0.19, 0.13, 0, 0.19, 0.5, 2.67842E-05, 0.001924532, 0.003804726
NKQ1, 73734406, 0.9776975, -0.001296167, 0.01077517, 0.2097379
AHR2, 73734586, 0.52, 0.82, 18.71, -0.78, 0, 0, 0.9866669, 0.003350395, 0.007884077, 0.162527
MOTB, 73734595, 1, 1, 0, 1
RCIN, 73734601, 0, 0, 0, 0, 0, 0, 0, 0, 0, 0, 0, 0, 0, 0
RCOU, 73734606, 1101, 1101, 1101, 1101, 0, 0, 0, 0, 0, 0, 0, 0, 0, 0
VIBE, 73734615, 0.01954721, 0.01870931, 0.03114193, 0, 0, 0
CTRL, 73734622, 0.003075553, 0.0002059439, 0.01210015, 0.0001885317, 0.000251381
PRX, 73734653, 2, 0.66, 0, 0.62, 0, 3.6, 0, 2.39, 0, 0, 90, 0.62
IMU, 73734660, 0.0007424527, 7.697615E-05, 0.0009258303, 0.2101402, -0.03465693, -9.489426, 0, 0, 33.64051, 1, 1, 1000, 1000
IMU, 73774625, -0.0002547988, -0.001012009, 4.195501E-05, 0.2098416, -0.02589981, -9.481923, 0, 0, 33.64249, 1, 1, 1000, 1000
RFND, 73784158, 0.2, 25, 0, 0
IMU, 73814353, 8.890964E-05, -0.0005436816, -0.000364063, 0.2114343, -0.03380112, -9.49349, 0, 0, 33.64485, 1, 1, 1000, 1000
MAG, 73834383, 385, 504, 304, 0, 0, 0, 0, 0, 0, 1, 73834375
RFND, 73834412, 0.2, 25, 0, 0
BARO, 73834452, -0.784337, 993.1967, 31.65, -0.3482853, 73834, 0, 30.16
CTUN, 73834465, 0, 0, 0, 0.3013703, 0.0661222, 0.0661222, -0.78, 0, 0.19, 0, 0, 0
ATT, 73834540, 0, 0.29, 0, 1.14, 24.22, 24.22, 0, 1
RATE, 73834546, -1.306362, -0.01180879, -0.003244843, -5.145992, 0.1038491, -0.01272933, 0.01081722, 0.03312954, -0.0001499765, -17.20164, 1.037979, 0
NKF1, 73834554, 0.29, 1.14, 24.22, 0.003477748, -0.0140089, -0.0004247319, 0, 0, 0, -0.0661222, 0.01, 0, -0.05
NKF2, 73834554, 31, 0, 0, 0, 0, 0, 0, 0, 0, 0, 0, 0, 0
NKF3, 73834554, 0, 0, 0, 0, 0, 0, 0, 0, 0, 0, 0
NKF4, 73834554, 0, 0, 0, 0, 0, 1.54635E-05, 0, 0, 0, 19, 229, 0, 0
NKF5, 73834554, 0, 0, 0, 0, 0.19, 0.13, 0, 0.19, 0.5, 1.710295E-05, 0.002005604, 0.003973742
NKQ1, 73834554, 0.9776866, -0.001313052, 0.01078275, 0.2097878
AHR2, 73834600, 0.52, 0.83, 18.71, -0.78, 0, 0, 0.9866638, 0.003343019, 0.00789181, 0.1625454
MOTB, 73834608, 1, 1, 0, 1
RCIN, 73834612, 0, 0, 0, 0, 0, 0, 0, 0, 0, 0, 0, 0, 0, 0
RCOU, 73834618, 1101, 1101, 1101, 1101, 0, 0, 0, 0, 0, 0, 0, 0, 0, 0
VIBE, 73834627, 0.02017805, 0.01873988, 0.03364406, 0, 0, 0
CTRL, 73834633, 0.003058042, 0.0001864705, 0.01210433, 0.0001910748, 0.0002418572
PRX, 73834663, 2, 0.66, 0, 0.63, 0, 3.6, 0, 2.4, 0, 0, 90, 0.63
IMU, 73854452, 0.0004333826, 0.0004376188, 6.80012E-05, 0.2046486, -0.02071608, -9.484086, 0, 0, 33.64695, 1, 1, 1000, 1000
RFND, 73884309, 0.2, 25, 0, 0
IMU, 73894436, 0.0002818204, -3.472592E-05, 0.001335889, 0.2067735, -0.02776616, -9.494131, 0, 0, 33.65004, 1, 1, 1000, 1000
MAG, 73934219, 391, 501, 305, 0, 0, 0, 0, 0, 0, 1, 73934210
RFND, 73934249, 0.2, 25, 0, 0
BARO, 73934348, -0.7954624, 993.1975, 31.65, -0.402474, 73934, 0, 30.16
CTUN, 73934363, 0, 0, 0, 0.3013703, 0.06620754, 0.06620754, -0.79, 0, 0.19, 0, 0, 0
ATT, 73934669, 0, 0.28, 0, 1.14, 24.23, 24.23, 0, 1
RATE, 73934676, -1.304907, -0.01789925, -0.003158188, -5.14251, -0.006628325, -0.01219552, 0.01215428, 0.06301557, -0.0002889879, 6.373924, -1.365185, 0
NKF1, 73934685, 0.28, 1.14, 24.23, 0.002584619, -0.01485586, 0.0001573808, 0, 0, 0, -0.06620754, 0.01, 0, -0.05
NKF2, 73934685, 31, 0, 0, 0, 0, 0, 0, 0, 0, 0, 0, 0, 0
NKF3, 73934685, 0, 0, 0, 0, -0.01, 0, 0, 0, 0, 0, 0
NKF4, 73934685, 0, 0, 0, 0, 0, 1.035859E-05, 0, 0, 0, 19, 229, 0, 0
NKF5, 73934685, 0, 0, 0, 0, 0.19, 0.13, 0, 0.19, 0.5, 1.576181E-05, 0.00192122, 0.004080895
NKQ1, 73934685, 0.9776689, -0.001316515, 0.01077495, 0.2098704
AHR2, 73934731, 0.52, 0.82, 18.71, -0.79, 0, 0, 0.9866556, 0.003349083, 0.007881961, 0.162596
MOTB, 73934738, 1, 1, 0, 1
RCIN, 73934744, 0, 0, 0, 0, 0, 0, 0, 0, 0, 0, 0, 0, 0, 0
RCOU, 73934750, 1101, 1101, 1101, 1101, 0, 0, 0, 0, 0, 0, 0, 0, 0, 0
VIBE, 73934758, 0.01855662, 0.02145972, 0.03335067, 0, 0, 0
CTRL, 73934765, 0.003064392, 0.0001894647, 0.01211529, 0.0001764278, 0.0002322356
PRX, 73934795, 2, 0.66, 0, 0.62, 0, 3.6, 0, 2.38, 0, 0, 90, 0.62
IMU, 73934803, 1.062277E-05, -0.0002219399, 0.0001794611, 0.1974563, -0.02175324, -9.476366, 0, 0, 33.65389, 1, 1, 1000, 1000
IMU, 73974394, 0.0001983577, 0.00232775, -0.000900675, 0.2066117, -0.02120782, -9.483887, 0, 0, 33.6585, 1, 1, 1000, 1000
RFND, 73984530, 0.2, 25, 0, 0
IMU, 74014376, 0.001415465, -0.001680302, 0.000368251, 0.1924246, -0.02044164, -9.494749, 0, 0, 33.66203, 1, 1, 1000, 1000
MAG, 74034309, 389, 501, 305, 0, 0, 0, 0, 0, 0, 1, 74034245
RFND, 74034338, 0.2, 25, 0, 0
BARO, 74034379, -0.7898998, 993.1973, 31.65, -0.2758505, 74034, 0, 30.16
CTUN, 74034393, 0, 0, 0, 0.3013703, 0.06622475, 0.06622475, -0.78, 0, 0.19, 0, 0, 0
ATT, 74034466, 0, 0.29, 0, 1.14, 24.23, 24.23, 0, 1
RATE, 74034472, -1.320909, 0.04170628, -0.003110647, -5.16688, 0.08767486, -0.01286855, 0.01074012, 0.004122706, -0.0001678642, 4.293976, -0.4237175, 0
NKF1, 74034479, 0.29, 1.14, 24.23, 0.002460727, -0.01565852, 0.0001060241, 0, 0, 0, -0.06622475, 0.01, 0, -0.05
NKF2, 74034479, 31, 0, 0, 0, 0, 0, 0, 0, 0, 0, 0, 0, 0
NKF3, 74034479, 0, 0, 0, 0, -0.01, 0, 0, 0, 0, 0, 0
NKF4, 74034479, 0, 0, 0, 0, 0, 6.940456E-06, 0, 0, 0, 19, 229, 0, 0
NKF5, 74034479, 0, 0, 0, 0, 0.19, 0.13, 0, 0.19, 0.5, 2.25578E-05, 0.001913239, 0.004162033
NKQ1, 74034479, 0.9776587, -0.001294256, 0.01082732, 0.2099159
AHR2, 74034546, 0.53, 0.83, 18.72, -0.78, 0, 0, 0.986653, 0.00338539, 0.007928352, 0.1626085
MOTB, 74034555, 1, 1, 0, 1
RCIN, 74034559, 0, 0, 0, 0, 0, 0, 0, 0, 0, 0, 0, 0, 0, 0
RCOU, 74034565, 1101, 1101, 1101, 1101, 0, 0, 0, 0, 0, 0, 0, 0, 0, 0
VIBE, 74034574, 0.02189923, 0.02219737, 0.03271133, 0, 0, 0
CTRL, 74034580, 0.003103757, 0.0001706571, 0.01215613, 0.0002293101, 0.00022359
PRX, 74034611, 2, 0.66, 0, 0.63, 0, 3.6, 0, 2.39, 0, 0, 90, 0.63
IMU, 74054332, -0.0006073524, 0.001102675, 0.0005113278, 0.2134293, -0.0374683, -9.488315, 0, 0, 33.66391, 1, 1, 1000, 1000
RFND, 74084143, 0.2, 25, 0, 0
IMU, 74094391, -0.000903673, -0.0007440288, -0.0008314367, 0.2033094, -0.0375094, -9.482365, 0, 0, 33.66505, 1, 1, 1000, 1000
MAG, 74134341, 388, 505, 307, 0, 0, 0, 0, 0, 0, 1, 74134334
RFND, 74134371, 0.2, 25, 0, 0
BARO, 74134411, -0.7453983, 993.1922, 31.65, -0.1162121, 74134, 0, 30.16
CTUN, 74134425, 0, 0, 0, 0.3013703, 0.06625088, 0.06625088, -0.74, 0, 0.19, 0, 0, 0
ATT, 74134624, 0, 0.29, 0, 1.15, 24.24, 24.24, 0, 1
RATE, 74134630, -1.309186, -0.03107869, -0.003009367, -5.182889, 0.06297749, -0.0124082, 0.01282246, 0.1325324, -0.000140908, 10.00049, 0.6701469, 0
NKF1, 74134639, 0.29, 1.15, 24.24, 0.001987387, -0.01722222, 0.0002469256, 0, 0, 0, -0.06625088, 0.01, 0, -0.05
NKF2, 74134639, 31, 0, 0, 0, 0, 0, 0, 0, 0, 0, 0, 0, 0
NKF3, 74134639, 0, 0, 0, 0, -0.01, 0, 0, 0, 0, 0, 0
NKF4, 74134639, 0, 0, 0, 0, 0, 4.72115E-06, 0, 0, 0, 19, 229, 0, 0
NKF5, 74134639, 0, 0, 0, 0, 0.19, 0.13, 0, 0.19, 0.5, 2.946048E-05, 0.001906426, 0.004158757
NKQ1, 74134639, 0.9776472, -0.001328727, 0.01085314, 0.2099676
AHR2, 74134687, 0.52, 0.83, 18.72, -0.74, 0, 0, 0.9866497, 0.003364592, 0.007948068, 0.1626279
MOTB, 74134695, 1, 1, 0, 1
RCIN, 74134699, 0, 0, 0, 0, 0, 0, 0, 0, 0, 0, 0, 0, 0, 0
RCOU, 74134705, 1101, 1101, 1101, 1101, 0, 0, 0, 0, 0, 0, 0, 0, 0, 0
VIBE, 74134713, 0.02039371, 0.02030761, 0.03362019, 0, 0, 0
CTRL, 74134720, 0.003081257, 0.0001735605, 0.01220811, 0.0002199101, 0.0001990914
PRX, 74134751, 2, 0.66, 0, 0.63, 0, 3.6, 0, 2.39, 0, 0, 90, 0.63
IMU, 74134758, -0.0002184167, 0.0009925857, 0.001389942, 0.1991161, -0.02374352, -9.495724, 0, 0, 33.66652, 1, 1, 1000, 1000
IMU, 74174640, 0.0001610156, -0.000926658, -0.0001633389, 0.2074527, -0.03757068, -9.477484, 0, 0, 33.66829, 1, 1, 1000, 1000
RFND, 74184347, 0.2, 25, 0, 0
IMU, 74214408, -6.953815E-05, 0.001899579, 0.000340302, 0.2106135, -0.02262386, -9.475802, 0, 0, 33.67055, 1, 1, 1000, 1000
MAG, 74234180, 392, 502, 302, 0, 0, 0, 0, 0, 0, 1, 74234171
RFND, 74234209, 0.2, 25, 0, 0
BARO, 74234247, -0.734273, 993.1909, 31.66, 0.03650494, 74234, 0, 30.16
CTUN, 74234315, 0, 0, 0, 0.3013703, 0.06624041, 0.06624041, -0.73, 0, 0.19, 0, 0, 0
ATT, 74234388, 0, 0.28, 0, 1.15, 24.24, 24.24, 0, 1
RATE, 74234393, -1.293562, -0.06820238, -0.002713826, -5.18605, -0.04019318, -0.01174625, 0.01228466, 0.02904072, -0.0001504617, 28.37966, -0.3976822, 0
NKF1, 74234401, 0.28, 1.15, 24.24, 0.001821182, -0.01781367, 0.0007007322, 0, 0, 0, -0.06624041, 0.01, 0, -0.05
NKF2, 74234401, 31, 0, 0, 0, 0, 0, 0, 0, 0, 0, 0, 0, 0
NKF3, 74234401, 0, 0, 0, 0, -0.01, 0, 0, 0, 0, 0, 0
NKF4, 74234401, 0, 0, 0, 0, 0, 3.203867E-06, 0, 0, 0, 19, 229, 0, 0
NKF5, 74234401, 0, 0, 0, 0, 0.19, 0.13, 0, 0.19, 0.5, 3.450276E-05, 0.00188424, 0.00411395
NKQ1, 74234401, 0.977636, -0.001356059, 0.01085254, 0.2100198
AHR2, 74234448, 0.52, 0.83, 18.72, -0.73, 0, 0, 0.9866468, 0.003351116, 0.007940414, 0.1626467
MOTB, 74234455, 1, 1, 0, 1
RCIN, 74234459, 0, 0, 0, 0, 0, 0, 0, 0, 0, 0, 0, 0, 0, 0
RCOU, 74234465, 1101, 1101, 1101, 1101, 0, 0, 0, 0, 0, 0, 0, 0, 0, 0
VIBE, 74234473, 0.01859104, 0.0207427, 0.03424935, 0, 0, 0
CTRL, 74234480, 0.00306298, 0.0001555403, 0.012219, 0.0002364837, 0.000192309
PRX, 74234532, 2, 0.66, 0, 0.63, 0, 3.6, 0, 2.38, 0, 0, 90, 0.63
IMU, 74254464, -0.001204823, -0.001033562, 0.0001220328, 0.2071256, -0.03032031, -9.496527, 0, 0, 33.67257, 1, 1, 1000, 1000
RFND, 74284226, 0.2, 25, 0, 0
IMU, 74294348, -0.0007454545, -0.000575131, 0.0004004778, 0.2067424, -0.02754773, -9.49692, 0, 0, 33.67488, 1, 1, 1000, 1000
MAG, 74334316, 393, 500, 303, 0, 0, 0, 0, 0, 0, 1, 74334247
RFND, 74334344, 0.2, 25, 0, 0
BARO, 74334384, -0.6953343, 993.1863, 31.66, 0.1686185, 74334, 0, 30.16
CTUN, 74334444, 0, 0, 0, 0.3013703, 0.06628646, 0.06628646, -0.69, 0, 0.19, 0, 0, 0
ATT, 74334616, 0, 0.28, 0, 1.15, 24.25, 24.25, 0, 1
RATE, 74334623, -1.274415, -0.0111144, -0.002980335, -5.203764, 0.1545782, -0.01289957, 0.01185437, 0.07095024, -0.0001627557, -6.105731, 0.3920555, 0
NKF1, 74334631, 0.28, 1.15, 24.25, 0.002056389, -0.01918868, -0.0001507588, 0, 0, 0, -0.06628646, 0.01, 0, -0.05
NKF2, 74334631, 31, 0, 0, 0, 0, 0, 0, 0, 0, 0, 0, 0, 0
NKF3, 74334631, 0, 0, 0, 0, -0.01, 0, 0, 0, 0, 0, 0
NKF4, 74334631, 0, 0, 0, 0, 0, 2.211631E-06, 0, 0, 0, 19, 229, 0, 0
NKF5, 74334631, 0, 0, 0, 0, 0.19, 0.13, 0, 0.19, 0.5, 3.771403E-05, 0.001850099, 0.00406196
NKQ1, 74334631, 0.9776219, -0.00140196, 0.01087868, 0.2100835
AHR2, 74334678, 0.52, 0.83, 18.72, -0.69, 0, 0, 0.9866415, 0.003320959, 0.00795972, 0.1626779
MOTB, 74334686, 1, 1, 0, 1
RCIN, 74334690, 0, 0, 0, 0, 0, 0, 0, 0, 0, 0, 0, 0, 0, 0
RCOU, 74334696, 1101, 1101, 1101, 1101, 0, 0, 0, 0, 0, 0, 0, 0, 0, 0
VIBE, 74334705, 0.02054447, 0.01990931, 0.03867779, 0, 0, 0
CTRL, 74334712, 0.003011747, 0.0001662255, 0.01224166, 0.0002461478, 0.0001825861
PRX, 74334744, 2, 0.66, 0, 0.63, 0, 0.57, 0, 2.39, 0, 0, 180, 0.57
IMU, 74334750, 0.0001295674, 0.00259147, 0.0003164261, 0.211325, -0.03556992, -9.493097, 0, 0, 33.67755, 1, 1, 1000, 1000
IMU, 74374378, 0.001158364, -0.0004729773, 0.0002198324, 0.2153662, -0.03235197, -9.48784, 0, 0, 33.6806, 1, 1, 1000, 1000
RFND, 74384139, 0.2, 25, 0, 0
IMU, 74414210, -0.0005363002, -0.001101583, -0.0002491881, 0.2084767, -0.02151579, -9.474961, 0, 0, 33.68344, 1, 1, 1000, 1000
MAG, 74434145, 389, 502, 302, 0, 0, 0, 0, 0, 0, 1, 74434137
RFND, 74434171, 0.2, 25, 0, 0
BARO, 74434208, -0.7287104, 993.19, 31.66, 0.2294604, 74434, 0, 30.16
CTUN, 74434221, 0, 0, 0, 0.3013703, 0.06636754, 0.06636754, -0.72, 0, 0.19, 0, 0, 0
ATT, 74434343, 0, 0.28, 0, 1.15, 24.26, 24.26, 0, 1
RATE, 74434350, -1.264297, -0.07623365, -0.002603595, -5.188694, -0.08217347, -0.01206463, 0.011309, 0.09092514, -0.0001782024, 3.349887, -0.8313179, 0
NKF1, 74434358, 0.28, 1.15, 24.26, 0.002109644, -0.02025098, 8.271326E-05, 0, 0, 0, -0.06636754, 0.01, 0, -0.05
NKF2, 74434358, 31, 0, 0, 0, 0, 0, 0, 0, 0, 0, 0, 0, 0
NKF3, 74434358, 0, 0, 0, 0, -0.01, 0, 0, 0, 0, 0, 0
NKF4, 74434358, 0, 0, 0, 0, 0, 1.558856E-06, 0, 0, 0, 19, 229, 0, 0
NKF5, 74434358, 0, 0, 0, 0, 0.19, 0.13, 0, 0.19, 0.5, 3.90162E-05, 0.001798272, 0.003949194
NKQ1, 74434358, 0.9776089, -0.001416518, 0.01084496, 0.210146
AHR2, 74434402, 0.52, 0.83, 18.73, -0.72, 0, 0, 0.9866371, 0.003319276, 0.007921028, 0.162707
MOTB, 74434410, 1, 1, 0, 1
RCIN, 74434414, 0, 0, 0, 0, 0, 0, 0, 0, 0, 0, 0, 0, 0, 0
RCOU, 74434420, 1101, 1101, 1101, 1101, 0, 0, 0, 0, 0, 0, 0, 0, 0, 0
VIBE, 74434429, 0.0204992, 0.01920341, 0.03518169, 0, 0, 0
CTRL, 74434435, 0.002995914, 0.0001667123, 0.01222886, 0.0002289247, 0.0001815645
PRX, 74434466, 2, 0.66, 0, 0.63, 0, 0.57, 0, 2.38, 0, 0, 180, 0.57
IMU, 74454380, -0.0001101963, -0.0006282628, 0.001744413, 0.2113501, -0.02907448, -9.513579, 0, 0, 33.68661, 1, 1, 1000, 1000
RFND, 74484173, 0.2, 25, 0, 0
IMU, 74494209, -4.293721E-05, -0.001839357, 0.001000962, 0.2224898, -0.0241843, -9.477917, 0, 0, 33.68935, 1, 1, 1000, 1000
MAG, 74534184, 392, 505, 300, 0, 0, 0, 0, 0, 0, 1, 74534176
RFND, 74534216, 0.2, 25, 0, 0
BARO, 74534325, -0.7620864, 993.1937, 31.66, 0.1651419, 74534, 0, 30.16
CTUN, 74534340, 0, 0, 0, 0.3013703, 0.06647362, 0.06647362, -0.76, 0, 0.19, 0, 0, 0
DU32, 74534374, 7, 50357752
ATT, 74534596, 0, 0.28, 0, 1.15, 24.27, 24.27, 0, 1
RATE, 74534602, -1.269398, 0.0003663756, -0.002641584, -5.180565, 0.02360649, -0.01231232, 0.01259224, 0.1046026, -0.0003141978, -9.502546, 0.8342743, 0
NKF1, 74534610, 0.28, 1.15, 24.27, 0.002878511, -0.02144381, -0.0002346308, 0, 0, 0, -0.06647362, 0.01, 0, -0.05
NKF2, 74534610, 31, 0, 0, 0, 0, 0, 0, 0, 0, 0, 0, 0, 0
NKF3, 74534610, 0, 0, 0, 0, -0.01, 0, 0, 0, 0, 0, 0
NKF4, 74534610, 0, 0, 0, 0, 0, 1.141702E-06, 0, 0, 0, 19, 229, 0, 0
NKF5, 74534610, 0, 0, 0, 0, 0.19, 0.13, 0, 0.19, 0.5, 3.952107E-05, 0.001747135, 0.00384798
NKQ1, 74534610, 0.9775887, -0.001405091, 0.01083269, 0.2102403
AHR2, 74534657, 0.52, 0.83, 18.73, -0.76, 0, 0, 0.986627, 0.003343781, 0.007906592, 0.1627684
MOTB, 74534665, 1, 1, 0, 1
RCIN, 74534669, 0, 0, 0, 0, 0, 0, 0, 0, 0, 0, 0, 0, 0, 0
RCOU, 74534675, 1101, 1101, 1101, 1101, 0, 0, 0, 0, 0, 0, 0, 0, 0, 0
VIBE, 74534683, 0.02002793, 0.02152206, 0.03352113, 0, 0, 0
CTRL, 74534691, 0.003000042, 0.0001796943, 0.01220114, 0.0002327688, 0.0002104497
PRX, 74534721, 2, 0.66, 0, 0.63, 0, 3.6, 0, 2.39, 0, 0, 90, 0.63
IMU, 74534728, 0.000330564, 0.0003053764, 0.0009019913, 0.2216875, -0.03916593, -9.496679, 0, 0, 33.69125, 1, 1, 1000, 1000
IMU, 74574406, -0.001137509, 0.0001210381, 0.0003227633, 0.214382, -0.01794044, -9.48681, 0, 0, 33.69248, 1, 1, 1000, 1000
RFND, 74584062, 0.2, 25, 0, 0
IMU, 74614212, -0.0002956643, -0.0002817464, 0.0005122325, 0.2049736, -0.01929356, -9.483231, 0, 0, 33.69426, 1, 1, 1000, 1000
MAG, 74634156, 388, 502, 306, 0, 0, 0, 0, 0, 0, 1, 74634148
RFND, 74634187, 0.2, 25, 0, 0
BARO, 74634221, -0.717585, 993.1891, 31.67, 0.01042997, 74634, 0, 30.16
CTUN, 74634235, 0, 0, 0, 0.3013703, 0.06657273, 0.06657273, -0.71, 0, 0.19, 0, 0, 0
ATT, 74634355, 0, 0.27, 0, 1.14, 24.28, 24.28, 0, 1
RATE, 74634361, -1.258358, -0.01064176, -0.003036643, -5.172546, -0.08181611, -0.01172384, 0.01049467, 0.1335596, -0.0002590865, -17.92724, 1.325226, 0
NKF1, 74634369, 0.27, 1.14, 24.28, 0.002722785, -0.02166671, -0.0004426478, 0, 0, 0, -0.06657273, 0.01, 0, -0.05
NKF2, 74634369, 31, 0, 0, 0, 0, 0, 0, 0, 0, 0, 0, 0, 0
NKF3, 74634369, 0, 0, 0, 0, -0.02, 0, 0, 0, 0, 0, 0
NKF4, 74634369, 0, 0, 0, 0, 0, 8.788431E-07, 0, 0, 0, 19, 229, 0, 0
NKF5, 74634369, 0, 0, 0, 0, 0.19, 0.13, 0, 0.19, 0.5, 3.905026E-05, 0.001680324, 0.003698892
NKQ1, 74634369, 0.9775723, -0.001424777, 0.0108124, 0.210318
AHR2, 74634414, 0.52, 0.82, 18.74, -0.71, 0, 0, 0.9866198, 0.003335836, 0.007887351, 0.1628128
MOTB, 74634421, 1, 1, 0, 1
RCIN, 74634426, 0, 0, 0, 0, 0, 0, 0, 0, 0, 0, 0, 0, 0, 0
RCOU, 74634431, 1101, 1101, 1101, 1101, 0, 0, 0, 0, 0, 0, 0, 0, 0, 0
VIBE, 74634440, 0.01945117, 0.02103732, 0.0303621, 0, 0, 0
CTRL, 74634446, 0.002968213, 0.0001792614, 0.01219525, 0.0002145601, 0.0002237797
PRX, 74634477, 2, 0.66, 0, 0.62, 0, 3.6, 0, 2.4, 0, 0, 90, 0.62
IMU, 74654314, 0.0007391629, -0.0004474631, 0.001295117, 0.2081685, -0.02660005, -9.495933, 0, 0, 33.69606, 1, 1, 1000, 1000
RFND, 74684184, 0.2, 25, 0, 0
IMU, 74694208, 0.00128177, 0.0002274697, -0.0006242735, 0.2049473, -0.01778759, -9.482437, 0, 0, 33.69748, 1, 1, 1000, 1000
MAG, 74734420, 391, 498, 299, 0, 0, 0, 0, 0, 0, 1, 74734411
RFND, 74734454, 0.2, 25, 0, 0
BARO, 74734512, -0.6730836, 993.184, 31.67, -0.0608418, 74734, 0, 30.16
CTUN, 74734526, 0, 0, 0, 0.3013703, 0.06670195, 0.06670195, -0.67, 0, 0.19, 0, 0, 0
ATT, 74734603, 0, 0.28, 0, 1.14, 24.29, 24.29, 0, 1
RATE, 74734609, -1.261453, -0.03915154, -0.00258066, -5.174089, -0.03321306, -0.01212584, 0.01277677, 0.05136165, -0.0001797129, -29.44062, 0.9349823, 0
NKF1, 74734617, 0.28, 1.14, 24.29, 0.002603571, -0.02227395, -0.0007269288, 0, 0, 0, -0.06670195, 0.01, 0, -0.05
NKF2, 74734617, 31, 0, 0, 0, 0, 0, 0, 0, 0, 0, 0, 0, 0
NKF3, 74734617, 0, 0, 0, 0, -0.02, 0, 0, 0, 0, 0, 0
NKF4, 74734617, 0, 0, 0, 0, 0, 7.204343E-07, 0, 0, 0, 19, 229, 0, 0
NKF5, 74734617, 0, 0, 0, 0, 0.19, 0.13, 0, 0.19, 0.5, 3.859459E-05, 0.001621998, 0.003574746
NKQ1, 74734617, 0.977559, -0.001416939, 0.01081587, 0.210379
AHR2, 74734662, 0.52, 0.82, 18.74, -0.67, 0, 0, 0.9866152, 0.003355398, 0.007892584, 0.1628402
MOTB, 74734670, 1, 1, 0, 1
RCIN, 74734674, 0, 0, 0, 0, 0, 0, 0, 0, 0, 0, 0, 0, 0, 0
RCOU, 74734680, 1101, 1101, 1101, 1101, 0, 0, 0, 0, 0, 0, 0, 0, 0, 0
VIBE, 74734689, 0.01765754, 0.01980766, 0.03132562, 0, 0, 0
CTRL, 74734696, 0.002988698, 0.000162954, 0.01219194, 0.0001997157, 0.0002387346
PRX, 74734727, 2, 0.66, 0, 0.63, 0, 3.6, 0, 2.39, 0, 0, 90, 0.63
IMU, 74734734, -0.0003587234, -0.0006864552, -2.848495E-05, 0.2127796, -0.02260662, -9.497484, 0, 0, 33.69924, 1, 1, 1000, 1000
IMU, 74774401, 0.0001176932, 0.0003755516, 0.0004807335, 0.2123872, -0.02568526, -9.482714, 0, 0, 33.70067, 1, 1, 1000, 1000
RFND, 74784234, 0.2, 25, 0, 0
IMU, 74814557, -0.0004692227, -0.0002980605, 0.0004347093, 0.2154671, -0.02698177, -9.496367, 0, 0, 33.70265, 1, 1, 1000, 1000
MAG, 74834185, 392, 500, 303, 0, 0, 0, 0, 0, 0, 1, 74834177
RFND, 74834217, 0.2, 25, 0, 0
BARO, 74834305, -0.6508329, 993.1814, 31.67, 0.07127178, 74834, 0, 30.16
CTUN, 74834319, 0, 0, 0, 0.3013703, 0.06687888, 0.06687888, -0.65, 0, 0.19, 0, 0, 0
ATT, 74834450, 0, 0.27, 0, 1.14, 24.3, 24.3, 0, 1
RATE, 74834456, -1.253344, -0.002059682, -0.003022923, -5.166863, -0.08587335, -0.01185649, 0.0112862, 0.100437, -0.0002320358, -41.08785, -0.6150246, 0
NKF1, 74834464, 0.27, 1.14, 24.3, 0.002717334, -0.02289272, -0.001014515, 0, 0, 0, -0.06687888, 0.01, 0, -0.05
NKF2, 74834464, 31, 0, 0, 0, 0, 0, 0, 0, 0, 0, 0, 0, 0
NKF3, 74834464, 0, 0, 0, 0, -0.02, 0, 0, 0, 0, 0, 0
NKF4, 74834464, 0, 0, 0, 0, 0, 6.455357E-07, 0, 0, 0, 19, 229, 0, 0
NKF5, 74834464, 0, 0, 0, 0, 0.19, 0.13, 0, 0.19, 0.5, 3.748436E-05, 0.001549423, 0.003407413
NKQ1, 74834464, 0.9775419, -0.001432215, 0.01079869, 0.2104597
AHR2, 74834534, 0.52, 0.82, 18.75, -0.65, 0, 0, 0.9866075, 0.003348933, 0.007876013, 0.1628876
MOTB, 74834542, 1, 1, 0, 1
RCIN, 74834547, 0, 0, 0, 0, 0, 0, 0, 0, 0, 0, 0, 0, 0, 0
RCOU, 74834553, 1101, 1101, 1101, 1101, 0, 0, 0, 0, 0, 0, 0, 0, 0, 0
VIBE, 74834561, 0.01663146, 0.01921551, 0.03367281, 0, 0, 0
CTRL, 74834568, 0.002961732, 0.0001513857, 0.0121822, 0.0001974445, 0.0002287068
PRX, 74834597, 2, 0.66, 0, 0.63, 0, 3.6, 0, 2.39, 0, 0, 90, 0.63
IMU, 74854473, 0.000170447, -9.692436E-05, -7.141351E-05, 0.2175483, -0.0109199, -9.468253, 0, 0, 33.70493, 1, 1, 1000, 1000
RFND, 74884147, 0.2, 25, 0, 0
IMU, 74894336, -0.0004455722, 0.0007125263, -0.0003984835, 0.2142586, -0.01840986, -9.493216, 0, 0, 33.70612, 1, 1, 1000, 1000
MAG, 74934174, 393, 499, 305, 0, 0, 0, 0, 0, 0, 1, 74934165
RFND, 74934205, 0.2, 25, 0, 0
BARO, 74934241, -0.6619582, 993.1831, 31.67, 0.2468437, 74934, 0, 30.16
CTUN, 74934308, 0, 0, 0, 0.3013703, 0.06701336, 0.06701336, -0.66, 0, 0.19, 0, 0, 0
ATT, 74934378, 0, 0.27, 0, 1.14, 24.3, 24.31, 0, 1
RATE, 74934384, -1.230806, -0.04131737, -0.002942274, -5.16462, -0.07157314, -0.01164507, 0.01036431, 0.1512444, -0.0002563749, -29.49512, 0.3305435, 0
NKF1, 74934392, 0.27, 1.14, 24.31, 0.003049032, -0.02377699, -0.0007282746, 0, 0, 0, -0.06701336, 0.01, 0, -0.05
NKF2, 74934392, 31, 0, 0, 0, 0, 0, 0, 0, 0, 0, 0, 0, 0
NKF3, 74934392, 0, 0, 0, 0, -0.02, 0, 0, 0, 0, 0, 0
NKF4, 74934392, 0, 0, 0, 0, 0, 6.07855E-07, 0, 0, 0, 19, 229, 0, 0
NKF5, 74934392, 0, 0, 0, 0, 0.19, 0.13, 0, 0.19, 0.5, 3.702192E-05, 0.001491739, 0.003277659
NKQ1, 74934392, 0.9775241, -0.001476944, 0.01078605, 0.2105427
AHR2, 74934436, 0.52, 0.82, 18.75, -0.66, 0, 0, 0.9865996, 0.003310944, 0.007862308, 0.1629375
MOTB, 74934444, 1, 1, 0, 1
RCIN, 74934448, 0, 0, 0, 0, 0, 0, 0, 0, 0, 0, 0, 0, 0, 0
RCOU, 74934454, 1101, 1101, 1101, 1101, 0, 0, 0, 0, 0, 0, 0, 0, 0, 0
VIBE, 74934462, 0.020334, 0.01933002, 0.03733694, 0, 0, 0
CTRL, 74934469, 0.002916326, 0.0001374487, 0.01217955, 0.0001901187, 0.0002301591
PRX, 74934523, 2, 0.66, 0, 0.63, 0, 0.59, 0, 2.4, 0, 0, 180, 0.59
IMU, 74934532, -0.000396193, -0.001356076, 0.001713828, 0.1997747, -0.03044756, -9.491377, 0, 0, 33.70578, 1, 1, 1000, 1000
IMU, 74974391, 0.001007202, -0.001248725, 0.0003350606, 0.211807, -0.01710133, -9.498251, 0, 0, 33.70612, 1, 1, 1000, 1000
RFND, 74984147, 0.2, 25, 0, 0
IMU, 75014203, -0.0006830196, 0.0001713719, 0.0003554534, 0.2122637, -0.02483596, -9.482386, 0, 0, 33.70592, 1, 1, 1000, 1000
MAG, 75034111, 393, 500, 300, 0, 0, 0, 0, 0, 0, 1, 75034103
RFND, 75034144, 0.2, 25, 0, 0
BARO, 75034180, -0.7453983, 993.192, 31.68, 0.2242453, 75034, 0, 30.16
CTUN, 75034192, 0, 0, 0, 0.3013703, 0.0671823, 0.0671823, -0.74, 0, 0.19, 0, 0, 0
ATT, 75034432, 0, 0.27, 0, 1.14, 24.31, 24.31, 0, 1
RATE, 75034439, -1.233264, 0.01850913, -0.002995224, -5.163265, 0.008793615, -0.01219512, 0.009403792, 0.04814696, -0.0002178585, -47.78143, -0.359726, 0
NKF1, 75034447, 0.27, 1.14, 24.31, 0.003434164, -0.02453565, -0.001179788, 0, 0, 0, -0.0671823, 0.01, 0, -0.05
NKF2, 75034447, 31, 0, 0, 0, 0, 0, 0, 0, 0, 0, 0, 0, 0
NKF3, 75034447, 0, 0, 0, 0, -0.03, 0, 0, 0, 0, 0, 0
NKF4, 75034447, 0, 0, 0, 0, 0, 6.29636E-07, 0, 0, 0, 19, 229, 0, 0
NKF5, 75034447, 0, 0, 0, 0, 0.19, 0.13, 0, 0.19, 0.5, 3.596396E-05, 0.001418723, 0.003102907
NKQ1, 75034447, 0.9775105, -0.001468319, 0.01078409, 0.2106061
AHR2, 75034514, 0.52, 0.82, 18.76, -0.74, 0, 0, 0.9865946, 0.00332715, 0.007858258, 0.1629677
MOTB, 75034524, 1, 1, 0, 1
RCIN, 75034529, 0, 0, 0, 0, 0, 0, 0, 0, 0, 0, 0, 0, 0, 0
RCOU, 75034534, 1101, 1101, 1101, 1101, 0, 0, 0, 0, 0, 0, 0, 0, 0, 0
VIBE, 75034543, 0.02020174, 0.01797632, 0.03514941, 0, 0, 0
CTRL, 75034549, 0.002919118, 0.0001539278, 0.01215785, 0.0001784849, 0.0002364041
PRX, 75034579, 2, 0.66, 0, 0.63, 0, 0.59, 0, 2.39, 0, 0, 180, 0.59
IMU, 75054340, 0.0003873021, 0.0001195926, 0.001042108, 0.2149369, -0.02762887, -9.498713, 0, 0, 33.70605, 1, 1, 1000, 1000
RFND, 75084159, 0.2, 25, 0, 0
IMU, 75094454, 0.0005402872, 0.0002980501, 0.001042613, 0.2080964, -0.03411482, -9.483971, 0, 0, 33.70777, 1, 1, 1000, 1000
MAG, 75134221, 387, 503, 305, 0, 0, 0, 0, 0, 0, 1, 75134212
RFND, 75134312, 0.2, 25, 0, 0
BARO, 75134350, -0.6842089, 993.1852, 31.68, 0.006953403, 75134, 0, 30.16
CTUN, 75134363, 0, 0, 0, 0.3013703, 0.06730319, 0.06730319, -0.68, 0, 0.19, 0, 0, 0
ATT, 75134436, 0, 0.27, 0, 1.15, 24.32, 24.32, 0, 1
RATE, 75134442, -1.233905, -0.05069938, -0.002622732, -5.184565, 0.04954735, -0.01221128, 0.01278457, 0.04577449, -0.0001830979, -7.769869, -1.134109, 0
NKF1, 75134450, 0.27, 1.15, 24.32, 0.003706229, -0.02590716, -0.0001918486, 0, 0, 0, -0.06730319, 0.01, 0, -0.05
NKF2, 75134450, 31, 0, 0, 0, 0, 0, 0, 0, 0, 0, 0, 0, 0
NKF3, 75134450, 0, 0, 0, 0, -0.03, 0, 0, 0, 0, 0, 0
NKF4, 75134450, 0, 0, 0, 0, 0, 6.560732E-07, 0, 0, 0, 19, 229, 0, 0
NKF5, 75134450, 0, 0, 0, 0, 0.19, 0.13, 0, 0.19, 0.5, 3.494166E-05, 0.001339692, 0.002912157
NKQ1, 75134450, 0.9774976, -0.001476353, 0.01082464, 0.2106638
AHR2, 75134494, 0.52, 0.83, 18.76, -0.68, 0, 0, 0.9865901, 0.003329219, 0.007899608, 0.1629926
MOTB, 75134503, 1, 1, 0, 1
RCIN, 75134508, 0, 0, 0, 0, 0, 0, 0, 0, 0, 0, 0, 0, 0, 0
RCOU, 75134514, 1101, 1101, 1101, 1101, 0, 0, 0, 0, 0, 0, 0, 0, 0, 0
VIBE, 75134523, 0.02192135, 0.01911497, 0.03145935, 0, 0, 0
CTRL, 75134530, 0.002922435, 0.000150341, 0.01220423, 0.0002262223, 0.0002310198
PRX, 75134560, 2, 0.66, 0, 0.62, 0, 3.6, 0, 2.4, 0, 0, 90, 0.62
IMU, 75134568, -0.0005603408, 0.0007580021, -0.0001258992, 0.2077857, -0.03553693, -9.476908, 0, 0, 33.70964, 1, 1, 1000, 1000
IMU, 75174158, 0.001023648, -0.00101249, 0.001264878, 0.2143932, -0.03341683, -9.472055, 0, 0, 33.71109, 1, 1, 1000, 1000
RFND, 75184184, 0.2, 25, 0, 0
IMU, 75214340, 0.0007375103, -0.002029708, 0.0006198441, 0.2161442, -0.02859481, -9.467669, 0, 0, 33.71253, 1, 1, 1000, 1000
MAG, 75234547, 393, 501, 305, 0, 0, 0, 0, 0, 0, 1, 75234539
RFND, 75234580, 0.2, 25, 0, 0
BARO, 75234618, -0.7287104, 993.1903, 31.68, -0.1651419, 75234, 0, 30.16
CTUN, 75234630, 0, 0, 0, 0.3013703, 0.06731848, 0.06731848, -0.72, 0, 0.19, 0, 0, 0
ATT, 75234832, 0, 0.27, 0, 1.15, 24.33, 24.33, 0, 1
RATE, 75234838, -1.24853, 0.04992507, -0.00311317, -5.181056, 0.03907475, -0.01289208, 0.009357457, 0.1592211, -0.0002725477, 13.84632, 0.201416, 0
NKF1, 75234846, 0.27, 1.15, 24.33, 0.004330092, -0.0268592, 0.0003418843, 0, 0, 0, -0.06731848, 0.01, 0, -0.05
NKF2, 75234846, 31, 0, 0, 0, 0, 0, 0, 0, 0, 0, 0, 0, 0
NKF3, 75234846, 0, 0, 0, 0, -0.03, 0, 0, 0, 0, 0, 0
NKF4, 75234846, 0, 0, 0, 0, 0, 7.306591E-07, 0, 0, 0, 19, 229, 0, 0
NKF5, 75234846, 0, 0, 0, 0, 0.19, 0.13, 0, 0.19, 0.5, 3.487772E-05, 0.001295577, 0.002808549
NKQ1, 75234846, 0.9774758, -0.00145286, 0.01082382, 0.2107647
AHR2, 75234891, 0.52, 0.83, 18.77, -0.72, 0, 0, 0.9865788, 0.003363285, 0.007898744, 0.1630602
MOTB, 75234900, 1, 1, 0, 1
RCIN, 75234904, 0, 0, 0, 0, 0, 0, 0, 0, 0, 0, 0, 0, 0, 0
RCOU, 75234910, 1101, 1101, 1101, 1101, 0, 0, 0, 0, 0, 0, 0, 0, 0, 0
VIBE, 75234918, 0.01941777, 0.02049489, 0.03441938, 0, 0, 0
CTRL, 75234925, 0.002939794, 0.0001530063, 0.01219218, 0.0002431026, 0.0002316987
PRX, 75234955, 2, 0.66, 0, 0.63, 0, 3.6, 0, 2.4, 0, 0, 90, 0.63
IMU, 75254359, -0.0003105368, 0.0001880827, 0.0002702314, 0.2240972, -0.02057151, -9.479094, 0, 0, 33.71325, 1, 1, 1000, 1000
RFND, 75284333, 0.2, 25, 0, 0
IMU, 75294509, -0.0007499364, -0.0009832653, -0.0002440906, 0.2146372, -0.03381358, -9.483408, 0, 0, 33.71312, 1, 1, 1000, 1000
MAG, 75334356, 387, 501, 304, 0, 0, 0, 0, 0, 0, 1, 75334348
RFND, 75334390, 0.2, 25, 0, 0
BARO, 75334429, -0.6842089, 993.1853, 31.68, -0.1355902, 75334, 0, 30.16
CTUN, 75334442, 0, 0, 0, 0.3013703, 0.06730782, 0.06730782, -0.68, 0, 0.19, 0, 0, 0
ATT, 75334541, 0, 0.27, 0, 1.14, 24.34, 24.34, 0, 1
RATE, 75334547, -1.215804, -0.09665229, -0.00261762, -5.169711, 0.02420562, -0.01248491, 0.01214705, 0.04989677, -0.0001953373, -9.447864, 1.315498, 0
NKF1, 75334555, 0.27, 1.14, 24.34, 0.004910487, -0.02796127, -0.0002332806, 0, 0, 0, -0.06730782, 0.01, 0, -0.05
NKF2, 75334555, 31, 0, 0, 0, 0, 0, 0, 0, 0, 0, 0, 0, 0
NKF3, 75334555, 0, 0, 0, 0.01, -0.03, 0, 0, 0, 0, 0, 0
NKF4, 75334555, 0, 0, 0, 0, 0, 8.04132E-07, 0, 0, 0, 19, 229, 0, 0
NKF5, 75334555, 0, 0, 0, 0, 0.19, 0.13, 0, 0.19, 0.5, 3.395047E-05, 0.001217455, 0.002618812
NKQ1, 75334555, 0.9774659, -0.001506403, 0.01078834, 0.2108119
AHR2, 75334601, 0.52, 0.82, 18.77, -0.68, 0, 0, 0.9865769, 0.00332224, 0.007868143, 0.163074
MOTB, 75334609, 1, 1, 0, 1
RCIN, 75334613, 0, 0, 0, 0, 0, 0, 0, 0, 0, 0, 0, 0, 0, 0
RCOU, 75334620, 1101, 1101, 1101, 1101, 0, 0, 0, 0, 0, 0, 0, 0, 0, 0
VIBE, 75334628, 0.01963306, 0.02218341, 0.03193175, 0, 0, 0
CTRL, 75334635, 0.002887013, 0.0001471203, 0.01217081, 0.000223606, 0.000231967
PRX, 75334665, 2, 0.66, 0, 0.63, 0, 0.56, 0, 2.4, 0, 0, 180, 0.56
IMU, 75334673, -0.0013622, 0.0003156459, -5.448935E-05, 0.2130993, -0.03364585, -9.501114, 0, 0, 33.7131, 1, 1, 1000, 1000
IMU, 75374333, -0.0002297991, 0.001365211, 0.0006403881, 0.2179649, -0.02572984, -9.468287, 0, 0, 33.71326, 1, 1, 1000, 1000
RFND, 75384161, 0.2, 25, 0, 0
IMU, 75414414, 9.788822E-05, -9.64541E-06, 0.000415734, 0.2122717, -0.02360815, -9.480498, 0, 0, 33.71316, 1, 1, 1000, 1000
MAG, 75434177, 395, 502, 308, 0, 0, 0, 0, 0, 0, 1, 75434169
RFND, 75434206, 0.2, 25, 0, 0
BARO, 75434245, -0.7120223, 993.1886, 31.68, -0.0208601, 75434, 0, 30.16
CTUN, 75434333, 0, 0, 0, 0.3013703, 0.06727714, 0.06727714, -0.71, 0, 0.19, 0, 0, 0
ATT, 75434562, 0, 0.26, 0, 1.14, 24.35, 24.35, 0, 1
RATE, 75434568, -1.199591, -0.00673986, -0.002717289, -5.174274, 0.01375641, -0.01226367, 0.01004943, 0.1247715, -0.0002702123, 32.6054, 0.08335114, 0
NKF1, 75434577, 0.26, 1.14, 24.35, 0.005730719, -0.02918645, 0.0008050716, 0, 0, 0, -0.06727714, 0.01, 0, -0.05
NKF2, 75434577, 31, 0, 0, 0, 0, 0, 0, 0, 0, 0, 0, 0, 0
NKF3, 75434577, 0, 0, 0, 0.01, -0.03, 0, 0, 0, 0, 0, 0
NKF4, 75434577, 0, 0, 0, 0, 0, 9.04604E-07, 0, 0, 0, 19, 229, 0, 0
NKF5, 75434577, 0, 0, 0, 0, 0.2, 0.13, 0, 0.19, 0.5, 3.421613E-05, 0.001177597, 0.0025276
NKQ1, 75434577, 0.977444, -0.001543113, 0.01079017, 0.2109135
AHR2, 75434623, 0.52, 0.82, 18.78, -0.71, 0, 0, 0.9865655, 0.003298485, 0.007874272, 0.1631427
MOTB, 75434630, 1, 1, 0, 1
RCIN, 75434634, 0, 0, 0, 0, 0, 0, 0, 0, 0, 0, 0, 0, 0, 0
RCOU, 75434640, 1101, 1101, 1101, 1101, 0, 0, 0, 0, 0, 0, 0, 0, 0, 0
VIBE, 75434649, 0.02079031, 0.02012842, 0.03457901, 0, 0, 0
CTRL, 75434656, 0.002841431, 0.0001446781, 0.01218723, 0.0002170267, 0.0002387
PRX, 75434687, 2, 0.66, 0, 0.63, 0, 0.57, 0, 2.39, 0, 0, 180, 0.57
IMU, 75454361, -0.0004089031, -2.325479E-05, 0.0006136684, 0.2275288, -0.02749741, -9.482628, 0, 0, 33.71305, 1, 1, 1000, 1000
RFND, 75484136, 0.2, 25, 0, 0
IMU, 75494426, 0.0003706918, -0.0005574843, 0.0007723271, 0.2065566, -0.02950091, -9.489411, 0, 0, 33.71312, 1, 1, 1000, 1000
MAG, 75534357, 392, 496, 302, 0, 0, 0, 0, 0, 0, 1, 75534348
RFND, 75534385, 0.2, 25, 0, 0
BARO, 75534426, -0.7287104, 993.1906, 31.68, 0.02086, 75534, 0, 30.16
CTUN, 75534441, 0, 0, 0, 0.3013703, 0.06720615, 0.06720615, -0.72, 0, 0.19, 0, 0, 0
DU32, 75534476, 7, 50357752
ATT, 75534577, 0, 0.26, 0, 1.15, 24.36, 24.36, 0, 1
RATE, 75534584, -1.197664, 0.01733338, -0.002855234, -5.18314, 0.0660008, -0.01224932, 0.01132491, 0.1336113, -0.000274848, -8.64969, 2.847004, 0
NKF1, 75534591, 0.26, 1.15, 24.36, 0.006523181, -0.03043317, -0.0002135726, 0, 0, 0, -0.06720615, 0.01, 0, -0.05
NKF2, 75534591, 31, 0, 0, 0, 0, 0, 0, 0, 0, 0, 0, 0, 0
NKF3, 75534591, 0, 0, 0, 0.01, -0.04, 0, 0, 0, 0, 0, 0
NKF4, 75534591, 0, 0, 0, 0, 0, 1.023475E-06, 0, 0, 0, 19, 229, 0, 0
NKF5, 75534591, 0, 0, 0, 0, 0.19, 0.13, 0, 0.19, 0.5, 3.325232E-05, 0.001104882, 0.002341714
NKQ1, 75534591, 0.9774287, -0.001551513, 0.01080683, 0.2109833
AHR2, 75534638, 0.52, 0.83, 18.78, -0.72, 0, 0, 0.9865593, 0.003301994, 0.007894352, 0.1631793
MOTB, 75534646, 1, 1, 0, 1
RCIN, 75534650, 0, 0, 0, 0, 0, 0, 0, 0, 0, 0, 0, 0, 0, 0
RCOU, 75534656, 1101, 1101, 1101, 1101, 0, 0, 0, 0, 0, 0, 0, 0, 0, 0
VIBE, 75534665, 0.02024521, 0.01844496, 0.03405312, 0, 0, 0
CTRL, 75534671, 0.002829315, 0.0001461856, 0.0122132, 0.0002026747, 0.0002421658
PRX, 75534702, 2, 0.66, 0, 0.63, 0, 0.56, 0, 2.38, 0, 0, 180, 0.56
IMU, 75534709, 0.0006279232, 0.001044876, 0.001404556, 0.2113093, -0.03038612, -9.515776, 0, 0, 33.71312, 1, 1, 1000, 1000
EV, 75568927, 57
IMU, 75574230, 0.0004542366, -0.0001799648, -0.0001771101, 0.2049683, -0.02101983, -9.490322, 0, 0, 33.71312, 1, 1, 1000, 1000
RFND, 75584209, 0.2, 25, 0, 0
IMU, 75614440, 0.0002039084, -9.21812E-05, 0.0002633903, 0.2067873, -0.02046233, -9.498707, 0, 0, 33.71317, 1, 1, 1000, 1000
MAG, 75634131, 389, 502, 302, 0, 0, 0, 0, 0, 0, 1, 75634122
RFND, 75634159, 0.2, 25, 0, 0
BARO, 75634198, -0.6897716, 993.1859, 31.68, -0.01216834, 75634, 0, 30.16
CTUN, 75634212, 0, 0, 0, 0.3013703, 0.06727399, 0.06727399, -0.68, 0, 0.19, 0, 0, 0
ATT, 75634368, 0, 0.26, 0, 1.15, 24.37, 24.37, 0, 1
RATE, 75634375, -1.197618, -0.03492824, -0.002611869, -5.190029, 0.05329952, -0.01246279, 0.01199336, 0.06194342, -0.0002107607, -40.55906, -0.3563881, 0
NKF1, 75634509, 0.26, 1.15, 24.37, 0.006616515, -0.03159013, -0.001001458, 0, 0, 0, -0.06727399, 0.01, 0, -0.05
NKF2, 75634509, 31, 0, 0, 0, 0, 0, 0, 0, 0, 0, 0, 0, 0
NKF3, 75634509, 0, 0, 0, 0.01, -0.04, 0, 0, 0, 0, 0, 0
NKF4, 75634509, 0, 0, 0, 0, 0, 1.135748E-06, 0, 0, 0, 19, 229, 0, 0
NKF5, 75634509, 0, 0, 0, 0, 0.19, 0.13, 0, 0.19, 0.5, 3.368407E-05, 0.001075827, 0.002267573
NKQ1, 75634509, 0.9774134, -0.001552346, 0.01081885, 0.2110537
AHR2, 75634558, 0.52, 0.83, 18.79, -0.68, 0, 0, 0.986553, 0.003312767, 0.007909403, 0.1632167
MOTB, 75634567, 1, 1, 0, 1
RCIN, 75634572, 0, 0, 0, 0, 0, 0, 0, 0, 0, 0, 0, 0, 0, 0
RCOU, 75634577, 1116, 1116, 1116, 1116, 0, 0, 0, 0, 0, 0, 0, 0, 0, 0
VIBE, 75634586, 0.02096296, 0.02157628, 0.03342353, 0, 0, 0
CTRL, 75634593, 0.002833244, 0.0001445621, 0.0122163, 0.0002071409, 0.0002455807
PRX, 75634624, 2, 0.66, 0, 0.63, 0, 0.56, 0, 2.39, 0, 0, 180, 0.56
IMU, 75654336, -0.0001506864, -0.000421505, 0.0006089474, 0.217372, -0.04062865, -9.488238, 0, 0, 33.71328, 1, 1, 1000, 1000
RFND, 75684129, 0.2, 25, 0, 0
IMU, 75694359, 0.0002800018, 0.0006710084, 0.00052136, 0.2206106, -0.02231647, -9.501968, 0, 0, 33.7132, 1, 1, 1000, 1000
MAG, 75734192, 388, 502, 300, 0, 0, 0, 0, 0, 0, 1, 75734184
RFND, 75734221, 0.2, 25, 0, 0
BARO, 75734314, -0.7732117, 993.1951, 31.69, -0.0486734, 75734, 0, 30.16
CTUN, 75734329, 0, 0, 0, 0.3013703, 0.06738447, 0.06738447, -0.77, 0, 0.19, 0, 0, 0
ATT, 75734399, 0, 0.26, 0, 1.15, 24.37, 24.37, 0, 1
RATE, 75734405, -1.182846, 0.007666942, -0.002964282, -5.187313, 0.03462453, -0.0125059, 0.01183212, 0.01991163, -0.0002290654, -53.98081, -1.158619, 0
NKF1, 75734412, 0.26, 1.15, 24.37, 0.007294764, -0.03343281, -0.001332859, 0, 0, 0, -0.06738447, 0.01, 0, -0.05
NKF2, 75734412, 31, 0, 0, 0, 0, 0, 0, 0, 0, 0, 0, 0, 0
NKF3, 75734412, 0, 0, 0, 0.01, -0.04, 0, 0, 0, 0, 0, 0
NKF4, 75734412, 0, 0, 0, 0, 0, 1.301152E-06, 0, 0, 0, 19, 229, 0, 0
NKF5, 75734412, 0, 0, 0, 0, 0.19, 0.13, 0, 0.19, 0.5, 3.246975E-05, 0.001017337, 0.002086395
NKQ1, 75734412, 0.9774002, -0.001578216, 0.01080831, 0.2111147
AHR2, 75734456, 0.52, 0.83, 18.79, -0.77, 0, 0, 0.9865485, 0.003297275, 0.007903082, 0.1632446
MOTB, 75734464, 1, 1, 0, 1
RCIN, 75734468, 0, 0, 0, 0, 0, 0, 0, 0, 0, 0, 0, 0, 0, 0
RCOU, 75734474, 1140, 1140, 1140, 1140, 0, 0, 0, 0, 0, 0, 0, 0, 0, 0
VIBE, 75734482, 0.02199297, 0.02183997, 0.03576126, 0, 0, 0
CTRL, 75734510, 0.002794118, 0.0001595765, 0.01221501, 0.0002313062, 0.0002354336
PRX, 75734542, 2, 0.66, 0, 0.62, 0, 3.6, 0, 2.39, 0, 0, 90, 0.62
IMU, 75734549, 0.0004580648, 0.00049763, -0.000576683, 0.2070209, -0.04019704, -9.476881, 0, 0, 33.71428, 1, 1, 1000, 1000
IMU, 75774248, 0.0003490867, -0.0003106811, 0.002248659, 0.2013793, -0.02491264, -9.501289, 0, 0, 33.71647, 1, 1, 1000, 1000
RFND, 75784203, 0.2, 25, 0, 0
IMU, 75814246, 0.0009098338, 8.581566E-05, -0.0001655738, 0.2145658, -0.02023107, -9.497522, 0, 0, 33.71902, 1, 1, 1000, 1000
MAG, 75834123, 387, 506, 303, 0, 0, 0, 0, 0, 0, 1, 75834114
RFND, 75834151, 0.2, 25, 0, 0
BARO, 75834190, -0.7565237, 993.1936, 31.69, -0.08517843, 75834, 0, 30.16
CTUN, 75834203, 0, 0, 0, 0.3013703, 0.06754549, 0.06754549, -0.75, 0, 0.19, 0, 0, 0
ATT, 75834459, 0, 0.26, 0, 1.15, 24.38, 24.38, 0, 1
RATE, 75834465, -1.178014, -0.0003097231, -0.002635017, -5.193759, -0.04117557, -0.01184819, 0.01177064, 0.08436219, -0.0002200087, -78.50796, -0.3333092, 0
NKF1, 75834474, 0.26, 1.15, 24.38, 0.007311563, -0.03491464, -0.001938468, 0, 0, 0, -0.06754549, 0.01, 0, -0.05
NKF2, 75834474, 31, 0, 0, 0, 0, 0, 0, 0, 0, 0, 0, 0, 0
NKF3, 75834474, 0, 0, 0, 0.01, -0.05, 0, 0, 0, 0, 0, 0
NKF4, 75834474, 0, 0, 0, 0, 0, 1.434305E-06, 0, 0, 0, 19, 229, 0, 0
NKF5, 75834474, 0, 0, 0, 0, 0.19, 0.13, 0, 0.19, 0.5, 3.12306E-05, 0.0009345011, 0.001865078
NKQ1, 75834474, 0.9773834, -0.001593453, 0.01081856, 0.2111922
AHR2, 75834540, 0.52, 0.83, 18.8, -0.75, 0, 0, 0.986541, 0.003295538, 0.007915484, 0.1632892
MOTB, 75834548, 1, 1, 0, 1
RCIN, 75834553, 0, 0, 0, 0, 0, 0, 0, 0, 0, 0, 0, 0, 0, 0
RCOU, 75834559, 1164, 1164, 1164, 1164, 0, 0, 0, 0, 0, 0, 0, 0, 0, 0
VIBE, 75834567, 0.01862948, 0.02319525, 0.03121171, 0, 0, 0
CTRL, 75834573, 0.002782943, 0.0001989192, 0.01224611, 0.0002116961, 0.0002355412
PRX, 75834604, 2, 0.66, 0, 0.63, 0, 3.6, 0, 2.4, 0, 0, 90, 0.63
IMU, 75854199, -0.0001273487, -0.002803189, -0.0009869135, 0.2165615, -0.0237694, -9.490267, 0, 0, 33.72154, 1, 1, 1000, 1000
RFND, 75884446, 0.2, 25, 0, 0
IMU, 75894398, 0.001306231, -0.0003986504, 0.0001026787, 0.2049096, -0.02334434, -9.486052, 0, 0, 33.72447, 1, 1, 1000, 1000
MAG, 75934161, 383, 503, 299, 0, 0, 0, 0, 0, 0, 1, 75934153
RFND, 75934189, 0.2, 25, 0, 0
BARO, 75934225, -0.7287104, 993.1906, 31.69, -0.1390669, 75934, 0, 30.16
CTUN, 75934239, 0, 0, 0, 0.3013703, 0.06773473, 0.06773473, -0.72, 0, 0.19, 0, 0, 0
ATT, 75934366, 0, 0.26, 0, 1.15, 24.39, 24.39, 0, 1
RATE, 75934372, -1.186733, -0.009911583, -0.002579675, -5.187188, -0.02076612, -0.01193968, 0.01183979, 0.1541912, -0.000301831, -94.34344, 0.4676819, 0
NKF1, 75934380, 0.26, 1.15, 24.39, 0.007880005, -0.03595151, -0.002329468, 0, 0, 0, -0.06773473, 0.01, 0, -0.05
NKF2, 75934380, 31, 0, 0, 0, 0, 0, 0, 0, 0, 0, 0, 0, 0
NKF3, 75934380, 0, 0, 0, 0.01, -0.05, 0, 0, 0, 0, 0, 0
NKF4, 75934380, 0, 0, 0, 0, 0, 1.63448E-06, 0, 0, 0, 19, 229, 0, 0
NKF5, 75934380, 0, 0, 0, 0, 0.19, 0.13, 0, 0.19, 0.5, 3.186952E-05, 0.0009195469, 0.00184933
NKQ1, 75934380, 0.9773649, -0.001577981, 0.01080917, 0.2112783
AHR2, 75934425, 0.52, 0.83, 18.8, -0.72, 0, 0, 0.9865322, 0.003327487, 0.007903955, 0.163342
MOTB, 75934433, 1, 1, 0, 1
RCIN, 75934438, 0, 0, 0, 0, 0, 0, 0, 0, 0, 0, 0, 0, 0, 0
RCOU, 75934443, 1188, 1188, 1188, 1188, 0, 0, 0, 0, 0, 0, 0, 0, 0, 0
VIBE, 75934452, 0.03439028, 0.04686265, 0.03790447, 0, 0, 0
CTRL, 75934459, 0.0028082, 0.0001844883, 0.01222628, 0.0002426068, 0.000223502
PRX, 75934508, 2, 0.66, 0, 0.63, 0, 3.6, 0, 2.39, 0, 0, 90, 0.63
IMU, 75934517, 0.0001514374, -0.0004691826, 0.001766345, 0.2185311, -0.02710693, -9.492712, 0, 0, 33.72709, 1, 1, 1000, 1000
IMU, 75974221, 0.0006445447, -0.0003243102, -0.002773992, 0.2457394, -0.04901712, -9.481385, 0, 0, 33.72924, 1, 1, 1000, 1000
RFND, 75984135, 0.2, 25, 0, 0
IMU, 76014412, -0.001949236, 0.0008219784, -0.002698438, 0.2529888, -0.09528395, -9.491175, 0, 0, 33.73118, 1, 1, 1000, 1000
MAG, 76034150, 387, 507, 303, 0, 0, 0, 0, 0, 0, 1, 76034142
RFND, 76034180, 0.2, 25, 0, 0
BARO, 76034218, -0.734273, 993.1909, 31.7, -0.1112536, 76034, 0, 30.16
CTUN, 76034231, 0, 0, 0, 0.3013703, 0.06791767, 0.06791767, -0.73, 0, 0.19, 0, 0, 0
ATT, 76034377, 0, 0.25, 0, 1.16, 24.4, 24.4, 0, 1
RATE, 76034512, -1.149715, -0.08220937, -0.002252373, -5.223687, 0.1004517, -0.01312833, 0.01160925, -0.04664538, 0.0001950156, -91.73751, -1.098061, 0
NKF1, 76034522, 0.25, 1.16, 24.4, 0.008688147, -0.03706038, -0.002265124, 0, 0, 0, -0.06791767, 0.01, 0, -0.05
NKF2, 76034522, 31, 0, 0, 0, 0, 0, 0, 0, 0, 0, 0, 0, 0
NKF3, 76034522, 0, 0, 0, 0.01, -0.05, 0, 0, 0, 0, 0, 0
NKF4, 76034522, 0, 0, 0, 0, 0, 1.809081E-06, 0, 0, 0, 19, 229, 0, 0
NKF5, 76034522, 0, 0, 0, 0, 0.2, 0.13, 0, 0.19, 0.5, 3.016768E-05, 0.0008373583, 0.001625918
NKQ1, 76034522, 0.9773487, -0.001655853, 0.01086271, 0.2113501
AHR2, 76034568, 0.51, 0.83, 18.81, -0.73, 0, 0, 0.9865255, 0.00326432, 0.007958957, 0.1633809
MOTB, 76034577, 1, 1, 0, 1
RCIN, 76034581, 0, 0, 0, 0, 0, 0, 0, 0, 0, 0, 0, 0, 0, 0
RCOU, 76034587, 1211, 1211, 1211, 1211, 0, 0, 0, 0, 0, 0, 0, 0, 0, 0
VIBE, 76034596, 0.3142051, 0.3837827, 0.2465331, 0, 0, 0
CTRL, 76034602, 0.002764007, 0.0003521375, 0.01227698, 0.0002959332, 0.0003122373
PRX, 76034633, 2, 0.66, 0, 0.63, 0, 3.6, 0, 2.39, 0, 0, 90, 0.63
IMU, 76054348, 0.002960526, -0.0004374607, 0.007120005, 0.2332143, -0.03428697, -9.482111, 0, 0, 33.73292, 1, 1, 1000, 1000
RFND, 76084201, 0.2, 25, 0, 0
IMU, 76094500, -0.003106659, 0.003449856, 0.0127874, 0.1758954, -0.04189847, -9.470419, 0, 0, 33.73451, 1, 1, 1000, 1000
MAG, 76134159, 396, 499, 314, 0, 0, 0, 0, 0, 0, 1, 76134150
RFND, 76134186, 0.2, 25, 0, 0
BARO, 76134223, -0.6619582, 993.1825, 31.7, 0.03476664, 76134, 0, 30.16
CTUN, 76134236, 0, 0, 0, 0.3013703, 0.06807732, 0.06807732, -0.66, 0, 0.19, 0, 0, 0
ATT, 76134360, 0, 0.24, 0, 1.16, 24.41, 24.41, 0, 1
RATE, 76134366, -1.120122, -0.2649797, -0.001103574, -5.249794, 0.2577327, -0.01481927, 0.01129426, 0.1375446, -5.915099E-05, -65.81848, 1.15118, 0
NKF1, 76134374, 0.24, 1.16, 24.41, 0.009294163, -0.03766436, -0.001625148, 0, 0, 0, -0.06807732, 0.01, 0, -0.05
NKF2, 76134374, 31, 0, 0, 0, 0, 0, 0, 0, 0, 0, 0, 0, 0
NKF3, 76134374, 0, 0, 0, 0.01, -0.05, 0, 0, 0, 0, 0, 0
NKF4, 76134374, 0, 0, 0, 0, 0, 2.03093E-06, 0, 0, 0, 19, 229, 0, 0
NKF5, 76134374, 0, 0, 0, 0, 0.2, 0.13, 0, 0.19, 0.5, 3.117228E-05, 0.0008279893, 0.001629955
NKQ1, 76134374, 0.9773321, -0.001730901, 0.01089998, 0.2114248
AHR2, 76134419, 0.51, 0.84, 18.81, -0.66, 0, 0, 0.9865186, 0.003193104, 0.007995655, 0.1634225
MOTB, 76134426, 1, 1, 0, 1
RCIN, 76134431, 0, 0, 0, 0, 0, 0, 0, 0, 0, 0, 0, 0, 0, 0
RCOU, 76134437, 1222, 1246, 1221, 1248, 0, 0, 0, 0, 0, 0, 0, 0, 0, 0
VIBE, 76134445, 0.5159492, 0.4051528, 0.5664542, 0, 0, 0
CTRL, 76134452, 0.002693167, 0.000527736, 0.0123053, 0.00051, 0.0003145635
PRX, 76134483, 2, 0.66, 0, 0.63, 0, 3.6, 0, 2.38, 0, 0, 90, 0.63
IMU, 76134512, -0.004300189, 0.004391483, 0.001475261, 0.2630588, -0.01006153, -9.498401, 0, 0, 33.73612, 1, 1, 1000, 1000
IMU, 76174346, -0.00238314, -0.002748947, 0.008403125, 0.2810399, -0.02253451, -9.452879, 0, 0, 33.73747, 1, 1, 1000, 1000
RFND, 76184223, 0.2, 25, 0, 0
IMU, 76214340, 0.003510445, -0.003694028, 0.00376083, 0.2602901, 0.01699568, -9.474192, 0, 0, 33.73869, 1, 1, 1000, 1000
MAG, 76234146, 390, 504, 301, 0, 0, 0, 0, 0, 0, 1, 76234138
RFND, 76234175, 0.2, 25, 0, 0
BARO, 76234214, -0.6452702, 993.1812, 31.7, 0.1877403, 76234, 0, 30.16
CTUN, 76234228, 0, 0, 0, 0.3013703, 0.06824033, 0.06824033, -0.64, 0, 0.19, 0, 0, 0
ATT, 76234468, 0, 0.24, 0, 1.16, 24.4, 24.4, 0, 1
RATE, 76234475, -1.114169, -0.04249784, -0.002019083, -5.228369, -0.1137915, -0.01224145, 0.01124834, -0.008742538, -0.0002091263, -113.3881, 0.6118774, 0
NKF1, 76234483, 0.24, 1.16, 24.4, 0.008464377, -0.03999297, -0.002799707, 0, 0, 0, -0.06824033, 0.01, 0, -0.05
NKF2, 76234483, 31, 0, 0, 0, 0, 0, 0, 0, 0, 0, 0, 0, 0
NKF3, 76234483, 0, 0, 0, 0.01, -0.06, 0, 0, 0, 0, 0, 0
NKF4, 76234483, 0, 0, 0, 0, 0, 2.265839E-06, 0, 0, 0, 19, 229, 0, 0
NKF5, 76234483, 0, 0, 0, 0, 0.2, 0.13, 0, 0.19, 0.5, 2.927347E-05, 0.0007465396, 0.001402763
NKQ1, 76234483, 0.9773476, -0.001726717, 0.01085762, 0.2113545
AHR2, 76234553, 0.51, 0.83, 18.8, -0.64, 0, 0, 0.9865363, 0.003197345, 0.007952264, 0.1633177
MOTB, 76234561, 1, 1, 0, 1
RCIN, 76234565, 0, 0, 0, 0, 0, 0, 0, 0, 0, 0, 0, 0, 0, 0
RCOU, 76234571, 1224, 1241, 1221, 1245, 0, 0, 0, 0, 0, 0, 0, 0, 0, 0
VIBE, 76234580, 0.4196299, 0.4636192, 0.5242727, 0, 0, 0
CTRL, 76234586, 0.002668954, 0.0006680464, 0.01232742, 0.0007728476, 0.0002852993
PRX, 76234616, 2, 0.66, 0, 0.62, 0, 3.6, 0, 2.4, 0, 0, 90, 0.62
IMU, 76254238, 0.001597701, 0.00484388, -0.01769526, 0.1813747, -0.0215941, -9.454509, 0, 0, 33.73945, 1, 1, 1000, 1000
RFND, 76284161, 0.2, 25, 0, 0
IMU, 76294423, -0.0002223131, 0.001921269, 0.0178806, 0.2715489, -0.04923633, -9.512008, 0, 0, 33.73953, 1, 1, 1000, 1000
MAG, 76334146, 390, 507, 301, 0, 0, 0, 0, 0, 0, 1, 76334137
RFND, 76334174, 0.2, 25, 0, 0
BARO, 76334210, -0.5395794, 993.1694, 31.7, 0.3163772, 76334, 0, 30.16
CTUN, 76334223, 0, 0, 0, 0.3013703, 0.0684561, 0.0684561, -0.53, 0, 0.19, 0, 0, 0
ATT, 76334347, 0, 0.25, 0, 1.14, 24.41, 24.41, 0, 1
RATE, 76334353, -1.188834, 0.2448547, -0.005610809, -5.166093, -0.4133108, -0.009710603, 0.01159418, 1.286223, -0.000322286, -82.74869, -0.8173943, 0
NKF1, 76334361, 0.25, 1.14, 24.41, 0.009131896, -0.04134315, -0.002043177, 0, 0, 0, -0.0684561, 0.01, 0, -0.05
NKF2, 76334361, 31, 0, 0, 0, 0, 0, 0, 0, 0, 0, 0, 0, 0
NKF3, 76334361, 0, 0, 0, 0.01, -0.06, 0, 0, 0, 0, 0, 0
NKF4, 76334361, 0, 0, 0, 0, 0, 2.503647E-06, 0, 0, 0, 19, 229, 0, 0
NKF5, 76334361, 0, 0, 0, 0, 0.2, 0.13, 0, 0.19, 0.5, 3.037653E-05, 0.0007440728, 0.001397367
NKQ1, 76334361, 0.9773239, -0.00161257, 0.0107696, 0.2114698
AHR2, 76334406, 0.52, 0.82, 18.81, -0.53, 0, 0, 0.986523, 0.00330875, 0.007864222, 0.1634002
MOTB, 76334414, 1, 1, 0, 1
RCIN, 76334418, 0, 0, 0, 0, 0, 0, 0, 0, 0, 0, 0, 0, 0, 0
RCOU, 76334425, 1230, 1237, 1221, 1247, 0, 0, 0, 0, 0, 0, 0, 0, 0, 0
VIBE, 76334433, 0.3577055, 0.3950329, 0.5298446, 0, 0, 0
CTRL, 76334440, 0.002690839, 0.0007067166, 0.01225104, 0.001093028, 0.0003418493
PRX, 76334469, 2, 0.66, 0, 0.63, 0, 3.6, 0, 2.4, 0, 0, 90, 0.63
IMU, 76334477, 0.004598187, -0.007320473, 0.0215231, 0.1974939, -0.05986279, -9.479952, 0, 0, 33.73935, 1, 1, 1000, 1000
IMU, 76374219, 0.004408445, -0.002725923, -0.001463568, 0.01268871, -0.02945831, -9.454487, 0, 0, 33.73814, 1, 1, 1000, 1000
RFND, 76384154, 0.2, 25, 0, 0
IMU, 76414371, 0.002131143, -8.411582E-05, -0.0076946, 0.2290256, -0.03417657, -9.460071, 0, 0, 33.73609, 1, 1, 1000, 1000
MAG, 76434190, 392, 509, 308, 0, 0, 0, 0, 0, 0, 1, 76434182
RFND, 76434216, 0.2, 25, 0, 0
BARO, 76434308, -0.5395794, 993.1694, 31.7, 0.4432757, 76434, 0, 30.16
CTUN, 76434322, 0, 0, 0, 0.3013703, 0.06868199, 0.06868199, -0.53, 0, 0.19, 0, 0, 0
ATT, 76434390, 0, 0.25, 0, 1.13, 24.42, 24.42, 0, 1
RATE, 76434396, -1.159689, -0.2100433, -0.002727732, -5.119514, -0.1421755, -0.01064295, 0.01139484, 0.3498982, 7.417396E-05, -81.45845, -4.950142, 0
NKF1, 76434403, 0.25, 1.13, 24.42, 0.007783195, -0.04259381, -0.00201132, 0, 0, 0, -0.06868199, 0.01, 0, -0.05
NKF2, 76434403, 31, 0, 0, 0, 0, 0, 0, 0, 0, 0, 0, 0, 0
NKF3, 76434403, 0, 0, 0, 0.01, -0.07, 0, 0, 0, 0, 0, 0
NKF4, 76434403, 0, 0, 0, 0, 0, 2.801016E-06, 0, 0, 0, 19, 229, 0, 0
NKF5, 76434403, 0, 0, 0, 0, 0.2, 0.13, 0, 0.19, 0.5, 2.807703E-05, 0.0006656919, 0.00119889
NKQ1, 76434403, 0.977316, -0.001611698, 0.01067016, 0.2115114
AHR2, 76434449, 0.51, 0.81, 18.81, -0.53, 0, 0, 0.9865225, 0.003308066, 0.007763177, 0.1634081
MOTB, 76434456, 1, 1, 0, 1
RCIN, 76434460, 0, 0, 0, 0, 0, 0, 0, 0, 0, 0, 0, 0, 0, 0
RCOU, 76434466, 1226, 1239, 1221, 1243, 0, 0, 0, 0, 0, 0, 0, 0, 0, 0
VIBE, 76434475, 0.5414345, 0.4298232, 0.5796619, 0, 0, 0
CTRL, 76434481, 0.002754543, 0.001240355, 0.01213046, 0.001162977, 0.0003840924
PRX, 76434535, 2, 0.66, 0, 0.63, 0, 3.6, 0, 2.39, 0, 0, 90, 0.63
IMU, 76454192, 0.005078781, -0.006918179, -0.007248034, 0.4155366, 0.010068, -9.504879, 0, 0, 33.73392, 1, 1, 1000, 1000
RFND, 76484665, 0.2, 25, 0, 0
IMU, 76494382, -0.003052435, 0.0009749801, 0.005364212, 0.08998968, -0.0460884, -9.472169, 0, 0, 33.73009, 1, 1, 1000, 1000
MAG, 76534149, 389, 505, 307, 0, 0, 0, 0, 0, 0, 1, 76534140
RFND, 76534177, 0.2, 25, 0, 0
BARO, 76534213, -0.5507048, 993.1703, 31.69, 0.4902107, 76534, 0, 30.16
CTUN, 76534226, 0, 0, 0, 0.3013703, 0.06879759, 0.06879759, -0.55, 0, 0.19, 0, 0, 0
DU32, 76534314, 7, 33580536
ATT, 76534409, 0, 0.26, 0, 1.13, 24.44, 24.44, 0, 1
RATE, 76534416, -1.205585, -0.2667741, -0.001684075, -5.100377, -0.06116532, -0.01163932, 0.01167134, 1.05333, -0.0007821486, -30.58639, -0.1011848, 0
NKF1, 76534424, 0.26, 1.13, 24.44, 0.01131927, -0.04418043, -0.0007552195, 0, 0, 0, -0.06879759, 0.01, 0, -0.05
NKF2, 76534424, 31, 0, 0, 0, 0, 0, 0, 0, 0, 0, 0, 0, 0
NKF3, 76534424, 0, 0, 0, 0.01, -0.07, 0, 0, 0, 0, 0, 0
NKF4, 76534424, 0, 0, 0, 0, 0, 3.054322E-06, 0, 0, 0, 19, 229, 0, 0
NKF5, 76534424, 0, 0, 0, 0, 0.2, 0.13, 0, 0.19, 0.5, 2.944065E-05, 0.0006717977, 0.001232394
NKQ1, 76534424, 0.9772826, -0.001546251, 0.01065289, 0.2116673
AHR2, 76534472, 0.52, 0.81, 18.82, -0.55, 0, 0, 0.9865021, 0.003378963, 0.007725914, 0.1635318
MOTB, 76534480, 1, 1, 0, 1
RCIN, 76534484, 0, 0, 0, 0, 0, 0, 0, 0, 0, 0, 0, 0, 0, 0
RCOU, 76534515, 1222, 1239, 1221, 1243, 0, 0, 0, 0, 0, 0, 0, 0, 0, 0
VIBE, 76534525, 0.5390219, 0.4387556, 0.5607643, 0, 0, 0
CTRL, 76534530, 0.002866829, 0.001452695, 0.0119998, 0.001213373, 0.0003549793
PRX, 76534562, 2, 0.66, 0, 0.62, 0, 3.6, 0, 2.39, 0, 0, 90, 0.62
IMU, 76534569, -0.004331411, -0.001174387, 0.01745817, 0.2143801, -0.070941, -9.48666, 0, 0, 33.72356, 1, 1, 1000, 1000
PM, 76534580, 30, 4000, 3782, 10, 0, 0, 6, 262144
IMU, 76574214, 0.009295993, 0.002625224, -0.004327791, 0.3383403, -0.04570301, -9.48852, 0, 0, 33.71391, 1, 1, 1000, 1000
RFND, 76584149, 0.2, 25, 0, 0
IMU, 76614441, 0.001029709, -0.01304461, -0.007697284, 0.2601143, 0.07924108, -9.421782, 0, 0, 33.70208, 1, 1, 1000, 1000
