FMT, 128, 89, FMT, BBnNZ, Type,Length,Name,Format,Columns
FMT, 129, 31, PARM, QNf, TimeUS,Name,Value
FMT, 130, 46, GPS, QBIHBcLLefffB, TimeUS,Status,GMS,GWk,NSats,HDop,Lat,Lng,Alt,Spd,GCrs,VZ,U
FMT, 131, 46, GPS2, QBIHBcLLefffB, TimeUS,Status,GMS,GWk,NSats,HDop,Lat,Lng,Alt,Spd,GCrs,VZ,U
FMT, 132, 46, GPSB, QBIHBcLLefffB, TimeUS,Status,GMS,GWk,NSats,HDop,Lat,Lng,Alt,Spd,GCrs,VZ,U
FMT, 193, 24, GPA, QCCCCBI, TimeUS,VDop,HAcc,VAcc,SAcc,VV,SMS
FMT, 194, 24, GPA2, QCCCCBI, TimeUS,VDop,HAcc,VAcc,SAcc,VV,SMS
FMT, 195, 24, GPAB, QCCCCBI, TimeUS,VDop,HAcc,VAcc,SAcc,VV,SMS
FMT, 133, 53, IMU, QffffffIIfBBHH, TimeUS,GyrX,GyrY,GyrZ,AccX,AccY,AccZ,EG,EA,T,GH,AH,GHz,AHz
FMT, 134, 75, MSG, QZ, TimeUS,Message
FMT, 135, 39, RCIN, QHHHHHHHHHHHHHH, TimeUS,C1,C2,C3,C4,C5,C6,C7,C8,C9,C10,C11,C12,C13,C14
FMT, 136, 39, RCOU, QHHHHHHHHHHHHHH, TimeUS,C1,C2,C3,C4,C5,C6,C7,C8,C9,C10,C11,C12,C13,C14
FMT, 137, 15, RSSI, Qf, TimeUS,RXRSSI
FMT, 139, 37, BARO, QffcfIff, TimeUS,Alt,Press,Temp,CRt,SMS,Offset,GndTemp
FMT, 140, 22, POWR, QffHB, TimeUS,Vcc,VServo,Flags,Safety
FMT, 143, 45, CMD, QHHHfffffff, TimeUS,CTot,CNum,CId,Prm1,Prm2,Prm3,Prm4,Lat,Lng,Alt
FMT, 144, 20, RAD, QBBBBBHH, TimeUS,RSSI,RemRSSI,TxBuf,Noise,RemNoise,RxErrors,Fixed
FMT, 146, 43, CAM, QIHLLeeeccC, TimeUS,GPSTime,GPSWeek,Lat,Lng,Alt,RelAlt,GPSAlt,Roll,Pitch,Yaw
FMT, 232, 43, TRIG, QIHLLeeeccC, TimeUS,GPSTime,GPSWeek,Lat,Lng,Alt,RelAlt,GPSAlt,Roll,Pitch,Yaw
FMT, 162, 30, ARSP, QffcffB, TimeUS,Airspeed,DiffPress,Temp,RawPress,Offset,U
FMT, 164, 45, CURR, QfffcHHHHHHHHHH, TimeUS,Volt,Curr,CurrTot,Temp,V1,V2,V3,V4,V5,V6,V7,V8,V9,V10
FMT, 165, 45, CUR2, QfffcHHHHHHHHHH, TimeUS,Volt,Curr,CurrTot,Temp,V1,V2,V3,V4,V5,V6,V7,V8,V9,V10
FMT, 163, 27, ATT, QccccCCCC, TimeUS,DesRoll,Roll,DesPitch,Pitch,DesYaw,Yaw,ErrRP,ErrYaw
FMT, 166, 34, MAG, QhhhhhhhhhBI, TimeUS,MagX,MagY,MagZ,OfsX,OfsY,OfsZ,MOfsX,MOfsY,MOfsZ,Health,S
FMT, 169, 14, MODE, QMBB, TimeUS,Mode,ModeNum,Rsn
FMT, 196, 17, RFND, QCBCB, TimeUS,Dist1,Orient1,Dist2,Orient2
FMT, 223, 33, DMS, IIIIIBBBBBBBBBB, TimeMS,N,Dp,RT,RS,Er,Fa,Fmn,Fmx,Pa,Pmn,Pmx,Sa,Smn,Smx
FMT, 240, 41, BCN, QBBfffffff, TimeUS,Health,Cnt,D0,D1,D2,D3,PosX,PosY,PosZ
FMT, 138, 53, IMU2, QffffffIIfBBHH, TimeUS,GyrX,GyrY,GyrZ,AccX,AccY,AccZ,EG,EA,T,GH,AH,GHz,AHz
FMT, 147, 53, IMU3, QffffffIIfBBHH, TimeUS,GyrX,GyrY,GyrZ,AccX,AccY,AccZ,EG,EA,T,GH,AH,GHz,AHz
FMT, 141, 45, AHR2, QccCfLLffff, TimeUS,Roll,Pitch,Yaw,Alt,Lat,Lng,Q1,Q2,Q3,Q4
FMT, 180, 31, POS, QLLfff, TimeUS,Lat,Lng,Alt,RelHomeAlt,RelOriginAlt
FMT, 142, 45, SIM, QccCfLLffff, TimeUS,Roll,Pitch,Yaw,Alt,Lat,Lng,Q1,Q2,Q3,Q4
FMT, 198, 51, NKF1, QccCfffffffccc, TimeUS,Roll,Pitch,Yaw,VN,VE,VD,dPD,PN,PE,PD,GX,GY,GZ
FMT, 199, 35, NKF2, QbccccchhhhhhB, TimeUS,AZbias,GSX,GSY,GSZ,VWN,VWE,MN,ME,MD,MX,MY,MZ,MI
FMT, 200, 33, NKF3, Qcccccchhhcc, TimeUS,IVN,IVE,IVD,IPN,IPE,IPD,IMX,IMY,IMZ,IYAW,IVT
FMT, 201, 35, NKF4, QcccccfbbHBHHb, TimeUS,SV,SP,SH,SM,SVT,errRP,OFN,OFE,FS,TS,SS,GPS,PI
FMT, 202, 40, NKF5, QBhhhcccCCfff, TimeUS,NI,FIX,FIY,AFI,HAGL,offset,RI,rng,Herr,eAng,eVel,ePos
FMT, 203, 51, NKF6, QccCfffffffccc, TimeUS,Roll,Pitch,Yaw,VN,VE,VD,dPD,PN,PE,PD,GX,GY,GZ
FMT, 204, 35, NKF7, QbccccchhhhhhB, TimeUS,AZbias,GSX,GSY,GSZ,VWN,VWE,MN,ME,MD,MX,MY,MZ,MI
FMT, 205, 33, NKF8, Qcccccchhhcc, TimeUS,IVN,IVE,IVD,IPN,IPE,IPD,IMX,IMY,IMZ,IYAW,IVT
FMT, 206, 35, NKF9, QcccccfbbHBHHb, TimeUS,SV,SP,SH,SM,SVT,errRP,OFN,OFE,FS,TS,SS,GPS,PI
FMT, 207, 36, NKF0, QBccCCcccccccc, TimeUS,ID,rng,innov,SIV,TR,BPN,BPE,BPD,OFH,OFL,OFN,OFE,OFD
FMT, 208, 27, NKQ1, Qffff, TimeUS,Q1,Q2,Q3,Q4
FMT, 209, 27, NKQ2, Qffff, TimeUS,Q1,Q2,Q3,Q4
FMT, 210, 51, XKF1, QccCfffffffccc, TimeUS,Roll,Pitch,Yaw,VN,VE,VD,dPD,PN,PE,PD,GX,GY,GZ
FMT, 211, 34, XKF2, QccccchhhhhhB, TimeUS,AX,AY,AZ,VWN,VWE,MN,ME,MD,MX,MY,MZ,MI
FMT, 212, 33, XKF3, Qcccccchhhcc, TimeUS,IVN,IVE,IVD,IPN,IPE,IPD,IMX,IMY,IMZ,IYAW,IVT
FMT, 213, 35, XKF4, QcccccfbbHBHHb, TimeUS,SV,SP,SH,SM,SVT,errRP,OFN,OFE,FS,TS,SS,GPS,PI
FMT, 214, 40, XKF5, QBhhhcccCCfff, TimeUS,NI,FIX,FIY,AFI,HAGL,offset,RI,rng,Herr,eAng,eVel,ePos
FMT, 215, 51, XKF6, QccCfffffffccc, TimeUS,Roll,Pitch,Yaw,VN,VE,VD,dPD,PN,PE,PD,GX,GY,GZ
FMT, 216, 34, XKF7, QccccchhhhhhB, TimeUS,AX,AY,AZ,VWN,VWE,MN,ME,MD,MX,MY,MZ,MI
FMT, 217, 33, XKF8, Qcccccchhhcc, TimeUS,IVN,IVE,IVD,IPN,IPE,IPD,IMX,IMY,IMZ,IYAW,IVT
FMT, 218, 35, XKF9, QcccccfbbHBHHb, TimeUS,SV,SP,SH,SM,SVT,errRP,OFN,OFE,FS,TS,SS,GPS,PI
FMT, 219, 36, XKF0, QBccCCcccccccc, TimeUS,ID,rng,innov,SIV,TR,BPN,BPE,BPD,OFH,OFL,OFN,OFE,OFD
FMT, 220, 27, XKQ1, Qffff, TimeUS,Q1,Q2,Q3,Q4
FMT, 221, 27, XKQ2, Qffff, TimeUS,Q1,Q2,Q3,Q4
FMT, 222, 35, XKFD, Qffffff, TimeUS,IX,IY,IZ,IVX,IVY,IVZ
FMT, 148, 34, TERR, QBLLHffHH, TimeUS,Status,Lat,Lng,Spacing,TerrH,CHeight,Pending,Loaded
FMT, 149, 18, UBX1, QBHBBH, TimeUS,Instance,noisePerMS,jamInd,aPower,agcCnt
FMT, 150, 16, UBX2, QBbBbB, TimeUS,Instance,ofsI,magI,ofsQ,magQ
FMT, 151, 18, UBY1, QBHBBH, TimeUS,Instance,noisePerMS,jamInd,aPower,agcCnt
FMT, 152, 16, UBY2, QBbBbB, TimeUS,Instance,ofsI,magI,ofsQ,magQ
FMT, 170, 42, GRAW, QIHBBddfBbB, TimeUS,WkMS,Week,numSV,sv,cpMes,prMes,doMes,mesQI,cno,lli
FMT, 171, 24, GRXH, QdHbBB, TimeUS,rcvTime,week,leapS,numMeas,recStat
FMT, 172, 41, GRXS, QddfBBBHBBBBB, TimeUS,prMes,cpMes,doMes,gnss,sv,freq,lock,cno,prD,cpD,doD,trk
FMT, 173, 63, SBFE, QIHBBdddfffff, TimeUS,TOW,WN,Mode,Err,Lat,Lng,Height,Undul,Vn,Ve,Vu,COG
FMT, 153, 19, ESC1, Qcccc, TimeUS,RPM,Volt,Curr,Temp
FMT, 154, 19, ESC2, Qcccc, TimeUS,RPM,Volt,Curr,Temp
FMT, 155, 19, ESC3, Qcccc, TimeUS,RPM,Volt,Curr,Temp
FMT, 156, 19, ESC4, Qcccc, TimeUS,RPM,Volt,Curr,Temp
FMT, 157, 19, ESC5, Qcccc, TimeUS,RPM,Volt,Curr,Temp
FMT, 158, 19, ESC6, Qcccc, TimeUS,RPM,Volt,Curr,Temp
FMT, 159, 19, ESC7, Qcccc, TimeUS,RPM,Volt,Curr,Temp
FMT, 160, 19, ESC8, Qcccc, TimeUS,RPM,Volt,Curr,Temp
FMT, 167, 34, MAG2, QhhhhhhhhhBI, TimeUS,MagX,MagY,MagZ,OfsX,OfsY,OfsZ,MOfsX,MOfsY,MOfsZ,Health,S
FMT, 168, 34, MAG3, QhhhhhhhhhBI, TimeUS,MagX,MagY,MagZ,OfsX,OfsY,OfsZ,MOfsX,MOfsY,MOfsZ,Health,S
FMT, 174, 31, ACC1, QQfff, TimeUS,SampleUS,AccX,AccY,AccZ
FMT, 175, 31, ACC2, QQfff, TimeUS,SampleUS,AccX,AccY,AccZ
FMT, 176, 31, ACC3, QQfff, TimeUS,SampleUS,AccX,AccY,AccZ
FMT, 177, 31, GYR1, QQfff, TimeUS,SampleUS,GyrX,GyrY,GyrZ
FMT, 178, 31, GYR2, QQfff, TimeUS,SampleUS,GyrX,GyrY,GyrZ
FMT, 179, 31, GYR3, QQfff, TimeUS,SampleUS,GyrX,GyrY,GyrZ
FMT, 181, 35, PIDR, Qffffff, TimeUS,Des,P,I,D,FF,AFF
FMT, 182, 35, PIDP, Qffffff, TimeUS,Des,P,I,D,FF,AFF
FMT, 183, 35, PIDY, Qffffff, TimeUS,Des,P,I,D,FF,AFF
FMT, 184, 35, PIDA, Qffffff, TimeUS,Des,P,I,D,FF,AFF
FMT, 185, 35, PIDS, Qffffff, TimeUS,Des,P,I,D,FF,AFF
FMT, 186, 35, PIDL, Qffffff, TimeUS,Des,P,I,D,FF,AFF
FMT, 161, 37, BAR2, QffcfIff, TimeUS,Alt,Press,Temp,CRt,SMS,Offset,GndTemp
FMT, 197, 37, BAR3, QffcfIff, TimeUS,Alt,Press,Temp,CRt,SMS,Offset,GndTemp
FMT, 187, 35, VIBE, QfffIII, TimeUS,VibeX,VibeY,VibeZ,Clip0,Clip1,Clip2
FMT, 188, 47, IMT, Qfffffffff, TimeUS,DelT,DelvT,DelaT,DelAX,DelAY,DelAZ,DelVX,DelVY,DelVZ
FMT, 189, 47, IMT2, Qfffffffff, TimeUS,DelT,DelvT,DelaT,DelAX,DelAY,DelAZ,DelVX,DelVY,DelVZ
FMT, 190, 47, IMT3, Qfffffffff, TimeUS,DelT,DelvT,DelaT,DelAX,DelAY,DelAZ,DelVX,DelVY,DelVZ
FMT, 191, 24, ORGN, QBLLe, TimeUS,Type,Lat,Lng,Alt
FMT, 192, 19, RPM, Qff, TimeUS,rpm1,rpm2
FMT, 233, 47, GMB1, Iffffffffff, TimeMS,dt,dax,day,daz,dvx,dvy,dvz,jx,jy,jz
FMT, 234, 44, GMB2, IBfffffffff, TimeMS,es,ex,ey,ez,rx,ry,rz,tx,ty,tz
FMT, 235, 13, GMB3, Ihhh, TimeMS,rl_torque_cmd,el_torque_cmd,az_torque_cmd
FMT, 236, 59, RATE, Qffffffffffff, TimeUS,RDes,R,ROut,PDes,P,POut,YDes,Y,YOut,ADes,A,AOut
FMT, 237, 23, RALY, QBBLLh, TimeUS,Tot,Seq,Lat,Lng,Alt
FMT, 238, 43, VISO, Qffffffff, TimeUS,dt,AngDX,AngDY,AngDZ,PosDX,PosDY,PosDZ,conf
FMT, 224, 23, SBPH, QIII, TimeUS,CrcError,LastInject,IARhyp
FMT, 229, 80, SBR1, QHHBZ, TimeUS,msg_type,sender_id,msg_len,d1
FMT, 230, 205, SBR2, QHZZZ, TimeUS,msg_type,d2,d3,d4
FMT, 25, 41, ATUN, QBBfffffff, TimeUS,Axis,TuneStep,Targ,Min,Max,RP,RD,SP,ddt
FMT, 26, 19, ATDE, Qff, TimeUS,Angle,Rate
FMT, 31, 22, PTUN, QBfHHH, TimeUS,Param,TunVal,CtrlIn,TunLo,TunHi
FMT, 12, 28, OF, QBffff, TimeUS,Qual,flowX,flowY,bodyX,bodyY
FMT, 5, 51, NTUN, Qffffffffff, TimeUS,DPosX,DPosY,PosX,PosY,DVelX,DVelY,VelX,VelY,DAccX,DAccY
FMT, 4, 51, CTUN, Qffffffeccfhh, TimeUS,ThI,ABst,ThO,ThH,DAlt,Alt,BAlt,DSAlt,SAlt,TAlt,DCRt,CRt
FMT, 6, 32, PM, QHHIhBHII, TimeUS,NLon,NLoop,MaxT,PMT,I2CErr,INSErr,LogDrop,Mem
FMT, 30, 27, MOTB, Qffff, TimeUS,LiftMax,BatVolt,BatRes,ThLimit
FMT, 13, 12, EV, QB, TimeUS,Id
FMT, 20, 14, D16, QBh, TimeUS,Id,Value
FMT, 21, 14, DU16, QBH, TimeUS,Id,Value
FMT, 22, 16, D32, QBi, TimeUS,Id,Value
FMT, 23, 16, DU32, QBI, TimeUS,Id,Value
FMT, 24, 16, DFLT, QBf, TimeUS,Id,Value
FMT, 19, 13, ERR, QBB, TimeUS,Subsys,ECode
FMT, 32, 19, HELI, Qff, TimeUS,DRRPM,ERRPM
FMT, 33, 29, PL, QBBffff, TimeUS,Heal,TAcq,pX,pY,vX,vY
FMT, 34, 36, GUID, QBffffff, TimeUS,Type,pX,pY,pZ,vX,vY,vZ
FMT, 35, 32, THRO, QBffffbbbb, TimeUS,Stage,Vel,VelZ,Acc,AccEfZ,Throw,AttOk,HgtOk,PosOk
FMT, 36, 56, PRX, QBfffffffffff, TimeUS,Health,D0,D45,D90,D135,D180,D225,D270,D315,DUp,CAn,CDis
MODE, 73894159, 100, 100, 2
RFND, 73896808, 0.2, 25, 0, 0
FMT, 254, 47, NKT1, QIffffffff, TimeUS,Cnt,IMUMin,IMUMax,EKFMin,EKFMax,AngMin,AngMax,VelMin,VelM
FMT, 253, 31, CTRL, Qfffff, TimeUS,RMSRollP,RMSRollD,RMSPitchP,RMSPitchD,RMSYaw
MSG, 74037544, APM:Copter V3.5.7 (38483450)
MSG, 74037548, New mission
MSG, 74037558, Frame: QUAD
MODE, 74037563, Autonomous, 100, 2
MAG, 74046912, 389, 522, 334, 0, 0, 0, 0, 0, 0, 1, 74046903
RFND, 74046944, 0.2, 25, 0, 0
BARO, 74046979, 0.1094413, 993.1906, 33.82, -0.1145235, 74046, 0, 32.87
CTUN, 74046992, 0, 0, 0, 0.2988498, 0.06643665, 0.06643665, 0.1, 0, 0.19, 0, 0, 0
ATT, 74047220, 0, 0.42, 0, 0.98, 79.18, 79.18, 0, 1
RATE, 74047227, -1.912115, -0.006635713, -0.004891859, -4.41947, 0.07818414, -0.0106473, 0.01660737, 0.04072145, -4.161871E-05, 4.454378, -0.4724503, 0
NKF1, 74047237, 0.42, 0.98, 79.18, -0.0007602422, 0.08242851, 0.0001099846, 0, 0, 0, -0.06643665, 0, 0.01, -0.02
NKF2, 74047237, 31, 0, 0, 0, 0, 0, 0, 0, 0, 0, 0, 0, 0
NKF3, 74047237, 0, 0, 0, 0, 0.01, 0, 0, 0, 0, 0, 0
NKF4, 74047237, 0, 0, 0, 0, 0, 3.196424E-05, 0, 0, 0, 19, 229, 0, 0
NKF5, 74047237, 0, 0, 0, 0, 0.19, 0.13, 0, 0.19, 0.5, 8.889109E-05, 0.01819888, 0.03845166
NKQ1, 74047237, 0.770555, -0.004338398, 0.008621257, 0.6373005
AHR2, 74047343, 0.39, 1.39, 77.9, 0.09999999, 0, 0, 0.7776263, -0.005021325, 0.01162552, 0.6285993
MOTB, 74047427, 1, 1, 0, 1
RCIN, 74047432, 0, 0, 0, 0, 0, 0, 0, 0, 0, 0, 0, 0, 0, 0
RCOU, 74047438, 1101, 1101, 1101, 1101, 0, 0, 0, 0, 0, 0, 0, 0, 0, 0
VIBE, 74047447, 0.02078469, 0.02024372, 0.03169811, 0, 0, 0
CTRL, 74047453, 0.004501311, 0.000157451, 0.0104175, 0.0002298342, 5.157007E-05
PRX, 74047485, 2, 0.61, 0, 0.62, 0, 3.6, 0, 2.41, 0, 0, 0, 0.61
IMU, 74067149, 0.0006051538, -0.00111189, -8.940858E-05, 0.2066734, -0.03508529, -9.479712, 0, 0, 35.73713, 1, 1, 1000, 1000
RFND, 74096920, 0.2, 25, 0, 0
IMU, 74107576, -0.000244866, 0.0005223826, -5.180133E-05, 0.2067154, -0.02399773, -9.488165, 0, 0, 35.73745, 1, 1, 1000, 1000
MAG, 74147007, 387, 526, 329, 0, 0, 0, 0, 0, 0, 1, 74146999
RFND, 74147043, 0.2, 25, 0, 0
BARO, 74147079, 0.1739836, 993.1836, 33.82, 0.07380134, 74147, 0, 32.87
CTUN, 74147092, 0, 0, 0, 0.2988498, 0.06642609, 0.06642609, 0.17, 0, 0.19, 0, 0, 0
ATT, 74147194, 0, 0.42, 0, 0.97, 79.19, 79.19, 0, 1
RATE, 74147201, -1.909972, -0.01448053, -0.004415763, -4.408721, -0.05664726, -0.01016582, 0.0150706, 0.05500218, -5.639009E-05, 18.60172, -0.1067162, 0
NKF1, 74147208, 0.42, 0.97, 79.19, -0.001261994, 0.08395549, 0.0004593016, 0, 0, 0, -0.06642609, 0, 0.01, -0.02
NKF2, 74147208, 31, 0, 0, 0, 0, 0, 0, 0, 0, 0, 0, 0, 0
NKF3, 74147208, 0, 0, 0, 0, 0.01, 0, 0, 0, 0, 0, 0
NKF4, 74147208, 0, 0, 0, 0, 0, 2.162017E-05, 0, 0, 0, 19, 229, 0, 0
NKF5, 74147208, 0, 0, 0, 0, 0.19, 0.13, 0, 0.19, 0.5, 8.739779E-05, 0.01741719, 0.03686862
NKQ1, 74147208, 0.7705377, -0.004329326, 0.008603252, 0.6373217
AHR2, 74147329, 0.39, 1.38, 77.9, 0.17, 0, 0, 0.7776218, -0.00494775, 0.01154228, 0.6286069
MOTB, 74147340, 1, 1, 0, 1
RCIN, 74147401, 0, 0, 0, 0, 0, 0, 0, 0, 0, 0, 0, 0, 0, 0
RCOU, 74147409, 1101, 1101, 1101, 1101, 0, 0, 0, 0, 0, 0, 0, 0, 0, 0
VIBE, 74147418, 0.02019594, 0.01901334, 0.03029348, 0, 0, 0
CTRL, 74147425, 0.004505907, 0.000164485, 0.01039109, 0.0002248579, 4.784489E-05
PRX, 74147456, 2, 0.61, 0, 0.62, 0, 3.6, 0, 2.41, 0, 0, 0, 0.61
IMU, 74147464, -9.398493E-05, -0.0007532313, 0.0005040193, 0.2082437, -0.0344713, -9.485449, 0, 0, 35.73765, 1, 1, 1000, 1000
IMU, 74187113, 0.0007633182, -0.0009561589, 0.0004300568, 0.2074864, -0.02233304, -9.481289, 0, 0, 35.73781, 1, 1, 1000, 1000
RFND, 74196961, 0.2, 25, 0, 0
IMU, 74227007, -6.068838E-05, 6.34999E-05, -8.288985E-05, 0.2065981, -0.02911238, -9.489203, 0, 0, 35.73781, 1, 1, 1000, 1000
MAG, 74247042, 385, 526, 326, 0, 0, 0, 0, 0, 0, 1, 74247034
RFND, 74247076, 0.2, 25, 0, 0
BARO, 74247111, 0.1094413, 993.1906, 33.82, 0.1870187, 74247, 0, 32.87
CTUN, 74247124, 0, 0, 0, 0.2988498, 0.06639157, 0.06639157, 0.1, 0, 0.19, 0, 0, 0
ATT, 74247223, 0, 0.42, 0, 0.97, 79.19, 79.19, 0, 1
RATE, 74247229, -1.916864, 0.03043273, -0.00472513, -4.410225, 0.05526328, -0.01053842, 0.01586967, 0.06693633, -3.500039E-05, 23.62519, 0.05674362, 0
NKF1, 74247236, 0.42, 0.97, 79.19, -0.002353218, 0.08597214, 0.000583338, 0, 0, 0, -0.06639157, 0, 0.01, -0.02
NKF2, 74247236, 31, 0, 0, 0, 0, 0, 0, 0, 0, 0, 0, 0, 0
NKF3, 74247236, 0, 0, 0, 0, 0.02, 0, 0, 0, 0, 0, 0
NKF4, 74247236, 0, 0, 0, 0, 0, 1.432584E-05, 0, 0, 0, 19, 229, 0, 0
NKF5, 74247236, 0, 0, 0, 0, 0.19, 0.13, 0, 0.19, 0.5, 7.872214E-05, 0.01666161, 0.03520353
NKQ1, 74247236, 0.7705281, -0.004321136, 0.008612816, 0.6373332
AHR2, 74247433, 0.39, 1.37, 77.9, 0.09999999, 0, 0, 0.7776253, -0.004875775, 0.01148576, 0.6286043
MOTB, 74247442, 1, 1, 0, 1
RCIN, 74247447, 0, 0, 0, 0, 0, 0, 0, 0, 0, 0, 0, 0, 0, 0
RCOU, 74247453, 1101, 1101, 1101, 1101, 0, 0, 0, 0, 0, 0, 0, 0, 0, 0
VIBE, 74247462, 0.01881742, 0.02087314, 0.03675649, 0, 0, 0
CTRL, 74247469, 0.004513002, 0.0001624579, 0.01038009, 0.0002240913, 4.452945E-05
PRX, 74247499, 2, 0.61, 0, 0.62, 0, 3.6, 0, 2.41, 0, 0, 0, 0.61
IMU, 74266929, 0.0002423913, 0.0009393334, 0.0002452306, 0.2113751, -0.03767581, -9.470991, 0, 0, 35.73781, 1, 1, 1000, 1000
RFND, 74296860, 0.2, 25, 0, 0
IMU, 74306984, 0.0003709949, -0.0006412811, -0.0003400517, 0.2052085, -0.02450488, -9.475735, 0, 0, 35.73786, 1, 1, 1000, 1000
MAG, 74346955, 382, 522, 332, 0, 0, 0, 0, 0, 0, 1, 74346947
RFND, 74346990, 0.2, 25, 0, 0
BARO, 74347024, 0.09260419, 993.1923, 33.82, 0.1482418, 74347, 0, 32.87
CTUN, 74347037, 0, 0, 0, 0.2988498, 0.06623258, 0.06623258, 0.09, 0, 0.19, 0, 0, 0
ATT, 74347133, 0, 0.42, 0, 0.97, 79.19, 79.19, 0, 1
RATE, 74347139, -1.917952, 0.01181695, -0.00467711, -4.396245, -0.1256241, -0.009649592, 0.01645363, -0.003264337, 1.715753E-05, 70.89429, 0.02985001, 0
NKF1, 74347147, 0.42, 0.97, 79.19, -0.00237486, 0.08796816, 0.001750476, 0, 0, 0, -0.06623258, 0, 0.01, -0.02
NKF2, 74347147, 31, 0, 0, 0, 0, 0, 0, 0, 0, 0, 0, 0, 0
NKF3, 74347147, 0, 0, 0, 0, 0.02, 0, 0, 0, 0, 0, 0
NKF4, 74347147, 0, 0, 0, 0, 0, 9.653784E-06, 0, 0, 0, 19, 229, 0, 0
NKF5, 74347147, 0, 0, 0, 0, 0.19, 0.13, 0, 0.19, 0.5, 6.82586E-05, 0.01592099, 0.03358851
NKQ1, 74347147, 0.7705239, -0.00429987, 0.00859399, 0.6373388
AHR2, 74347190, 0.39, 1.36, 77.9, 0.09, 0, 0, 0.7776345, -0.004794451, 0.01139795, 0.6285951
MOTB, 74347197, 1, 1, 0, 1
RCIN, 74347202, 0, 0, 0, 0, 0, 0, 0, 0, 0, 0, 0, 0, 0, 0
RCOU, 74347207, 1101, 1101, 1101, 1101, 0, 0, 0, 0, 0, 0, 0, 0, 0, 0
VIBE, 74347216, 0.02064693, 0.02117292, 0.0374137, 0, 0, 0
CTRL, 74347222, 0.004519049, 0.0001541636, 0.01036196, 0.0002144214, 4.666181E-05
PRX, 74347333, 2, 0.61, 0, 0.62, 0, 3.6, 0, 2.41, 0, 0, 0, 0.61
IMU, 74347343, 0.0003652388, -0.001956746, -0.0005136228, 0.2217308, -0.04252184, -9.486037, 0, 0, 35.73786, 1, 1, 1000, 1000
IMU, 74387036, 0.0002797361, -0.0004343633, 0.001308638, 0.2081004, -0.04908542, -9.51528, 0, 0, 35.73786, 1, 1, 1000, 1000
RFND, 74396817, 0.2, 25, 0, 0
IMU, 74427092, 0.0001348028, -0.0001677117, -0.0004731238, 0.2084976, -0.03945529, -9.485005, 0, 0, 35.73786, 1, 1, 1000, 1000
MAG, 74446977, 384, 530, 330, 0, 0, 0, 0, 0, 0, 1, 74446968
RFND, 74447011, 0.2, 25, 0, 0
BARO, 74447047, 0.1739836, 993.1836, 33.82, 0.008673482, 74447, 0, 32.87
CTUN, 74447060, 0, 0, 0, 0.2988498, 0.06612828, 0.06612828, 0.17, 0, 0.19, 0, 0, 0
ATT, 74447164, 0, 0.42, 0, 0.97, 79.19, 79.19, 0, 1
RATE, 74447170, -1.912728, -0.02735505, -0.004414047, -4.394012, -0.01423757, -0.01044047, 0.01556235, 0.02181894, -4.429835E-05, 43.57124, -1.031971, 0
NKF1, 74447177, 0.42, 0.97, 79.19, -0.001981701, 0.08993656, 0.001075833, 0, 0, 0, -0.06612828, 0, 0.01, -0.02
NKF2, 74447177, 31, 0, 0, 0, 0, 0, 0, 0, 0, 0, 0, 0, 0
NKF3, 74447177, 0, 0, 0, 0, 0.04, 0, 0, 0, 0, 0, 0
NKF4, 74447177, 0, 0, 0, 0, 0, 6.620427E-06, 0, 0, 0, 19, 229, 0, 0
NKF5, 74447177, 0, 0, 0, 0, 0.19, 0.13, 0, 0.19, 0.5, 5.848911E-05, 0.01521727, 0.03200588
NKQ1, 74447177, 0.7705008, -0.004306084, 0.00858376, 0.6373667
AHR2, 74447222, 0.39, 1.35, 77.9, 0.17, 0, 0, 0.7776255, -0.004741574, 0.01132138, 0.6286079
MOTB, 74447229, 1, 1, 0, 1
RCIN, 74447234, 0, 0, 0, 0, 0, 0, 0, 0, 0, 0, 0, 0, 0, 0
RCOU, 74447240, 1101, 1101, 1101, 1101, 0, 0, 0, 0, 0, 0, 0, 0, 0, 0
VIBE, 74447341, 0.01961962, 0.02150068, 0.03449606, 0, 0, 0
CTRL, 74447432, 0.004512758, 0.0001518866, 0.01033542, 0.0001998308, 4.869698E-05
PRX, 74447465, 2, 0.61, 0, 0.62, 0, 3.6, 0, 2.42, 0, 0, 0, 0.61
IMU, 74467094, -0.001494479, -0.0003317275, -0.0005221321, 0.2119408, -0.03750956, -9.477175, 0, 0, 35.73788, 1, 1, 1000, 1000
RFND, 74496976, 0.2, 25, 0, 0
IMU, 74507060, 0.0003750985, -0.0008532039, 0.0002613517, 0.2223494, -0.04082331, -9.483326, 0, 0, 35.73786, 1, 1, 1000, 1000
MAG, 74547217, 385, 528, 337, 0, 0, 0, 0, 0, 0, 1, 74547209
RFND, 74547339, 0.2, 25, 0, 0
BARO, 74547465, 0.2160764, 993.1789, 33.82, -0.01341064, 74547, 0, 32.87
CTUN, 74547479, 0, 0, 0, 0.2988498, 0.06601024, 0.06601024, 0.21, 0, 0.19, 0, 0, 0
ATT, 74547584, 0, 0.42, 0, 0.97, 79.2, 79.2, 0, 1
RATE, 74547590, -1.910404, 0.02834119, -0.004680209, -4.384184, -0.07802328, -0.01000535, 0.01484009, 0.07208304, -8.168941E-05, 29.27405, 1.364708, 0
NKF1, 74547598, 0.42, 0.97, 79.2, -0.001860609, 0.09212152, 0.0007228161, 0, 0, 0, -0.06601024, 0, 0.01, -0.02
NKF2, 74547598, 31, 0, 0, 0, 0, 0, 0, 0, 0, 0, 0, 0, 0
NKF3, 74547598, 0, 0, 0, 0, 0.05, 0, 0, 0, 0, 0, 0
NKF4, 74547598, 0, 0, 0, 0, 0, 4.601858E-06, 0, 0, 0, 19, 229, 0, 0
NKF5, 74547598, 0, 0, 0, 0, 0.19, 0.13, 0, 0.19, 0.5, 5.058804E-05, 0.01454981, 0.03045348
NKQ1, 74547598, 0.7704788, -0.004299505, 0.008565751, 0.6373938
AHR2, 74547647, 0.39, 1.33, 77.9, 0.21, 0, 0, 0.7776178, -0.004678514, 0.01124468, 0.6286193
MOTB, 74547654, 1, 1, 0, 1
RCIN, 74547659, 0, 0, 0, 0, 0, 0, 0, 0, 0, 0, 0, 0, 0, 0
RCOU, 74547664, 1101, 1101, 1101, 1101, 0, 0, 0, 0, 0, 0, 0, 0, 0, 0
VIBE, 74547673, 0.01948275, 0.01907467, 0.0317766, 0, 0, 0
CTRL, 74547680, 0.004499146, 0.0001655056, 0.01032632, 0.0002032346, 4.965773E-05
PRX, 74547711, 2, 0.61, 0, 0.62, 0, 3.6, 0, 2.41, 0, 0, 0, 0.61
IMU, 74547718, 0.0006534694, -0.001126233, 0.0008019587, 0.2208005, -0.04623999, -9.499744, 0, 0, 35.73775, 1, 1, 1000, 1000
IMU, 74587194, -0.0006581829, -0.001608456, 4.649203E-05, 0.2124662, -0.03789008, -9.472491, 0, 0, 35.73777, 1, 1, 1000, 1000
RFND, 74596979, 0.2, 25, 0, 0
IMU, 74627169, 0.0006319777, 0.00063169, 0.0007270933, 0.212236, -0.03761256, -9.496859, 0, 0, 35.73768, 1, 1, 1000, 1000
MAG, 74646966, 386, 524, 335, 0, 0, 0, 0, 0, 0, 1, 74646957
RFND, 74647000, 0.2, 25, 0, 0
BARO, 74647036, 0.1852084, 993.1823, 33.83, 0.1771012, 74647, 0, 32.87
CTUN, 74647048, 0, 0, 0, 0.2988498, 0.06594021, 0.06594021, 0.18, 0, 0.19, 0, 0, 0
ATT, 74647150, 0, 0.42, 0, 0.97, 79.2, 79.2, 0, 1
RATE, 74647156, -1.911069, -0.03344407, -0.004225036, -4.375747, -0.02177944, -0.01011811, 0.01527037, 0.01940065, -8.730714E-05, 33.67028, -1.107883, 0
NKF1, 74647163, 0.42, 0.97, 79.2, -0.0021609, 0.09400044, 0.0008313648, 0, 0, 0, -0.06594021, 0, 0.01, -0.02
NKF2, 74647163, 31, 0, 0, 0, 0, 0, 0, 0, 0, 0, 0, 0, 0
NKF3, 74647163, 0, 0, 0, 0, 0.05, 0, 0, 0, 0, 0, 0
NKF4, 74647163, 0, 0, 0, 0, 0, 3.337879E-06, 0, 0, 0, 19, 229, 0, 0
NKF5, 74647163, 0, 0, 0, 0, 0.19, 0.13, 0, 0.19, 0.5, 4.42762E-05, 0.01388197, 0.02891898
NKQ1, 74647163, 0.7704592, -0.004286825, 0.008555411, 0.6374175
AHR2, 74647207, 0.39, 1.32, 77.9, 0.18, 0, 0, 0.7776128, -0.004609913, 0.01117639, 0.6286272
MOTB, 74647215, 1, 1, 0, 1
RCIN, 74647219, 0, 0, 0, 0, 0, 0, 0, 0, 0, 0, 0, 0, 0, 0
RCOU, 74647225, 1101, 1101, 1101, 1101, 0, 0, 0, 0, 0, 0, 0, 0, 0, 0
VIBE, 74647233, 0.02096189, 0.0181241, 0.03312518, 0, 0, 0
CTRL, 74647240, 0.004510143, 0.0002006044, 0.01030135, 0.0002006525, 5.848017E-05
PRX, 74647447, 2, 0.61, 0, 0.62, 0, 3.6, 0, 2.42, 0, 0, 0, 0.61
IMU, 74667093, -0.0007976244, 0.0009031711, 0.0005079053, 0.2156205, -0.04795433, -9.509105, 0, 0, 35.73849, 1, 1, 1000, 1000
RFND, 74696953, 0.2, 25, 0, 0
IMU, 74707201, 0.00069289, -0.0004975779, 0.0008868278, 0.2189152, -0.02893442, -9.491803, 0, 0, 35.73907, 1, 1, 1000, 1000
DU32, 74744405, 7, 50389208
MAG, 74747059, 390, 525, 334, 0, 0, 0, 0, 0, 0, 1, 74747050
RFND, 74747091, 0.2, 25, 0, 0
BARO, 74747127, 0.1683713, 993.1841, 33.83, 0.2858804, 74747, 0, 32.87
CTUN, 74747140, 0, 0, 0, 0.2988498, 0.06592277, 0.06592277, 0.16, 0, 0.19, 0, 0, 0
ATT, 74747428, 0, 0.42, 0, 0.96, 79.21, 79.21, 0, 1
RATE, 74747437, -1.912693, 0.05781475, -0.004855885, -4.362331, -0.02746249, -0.01018234, 0.01364136, 0.02611959, -0.0001152003, -2.770736, 0.4601479, 0
NKF1, 74747446, 0.42, 0.96, 79.21, -0.001934178, 0.09633509, -6.841324E-05, 0, 0, 0, -0.06592277, 0, 0.01, -0.02
NKF2, 74747446, 31, 0, 0, 0, 0, 0, 0, 0, 0, 0, 0, 0, 0
NKF3, 74747446, 0, 0, 0, 0, 0.06, 0, 0, 0, 0, 0, 0
NKF4, 74747446, 0, 0, 0, 0, 0, 2.513752E-06, 0, 0, 0, 19, 229, 0, 0
NKF5, 74747446, 0, 0, 0, 0, 0.19, 0.13, 0, 0.19, 0.5, 4.089065E-05, 0.01328474, 0.02752002
NKQ1, 74747446, 0.7704277, -0.004268485, 0.008537151, 0.6374559
AHR2, 74747492, 0.39, 1.31, 77.91, 0.16, 0, 0, 0.7775964, -0.004536264, 0.01110303, 0.6286493
MOTB, 74747500, 1, 1, 0, 1
RCIN, 74747504, 0, 0, 0, 0, 0, 0, 0, 0, 0, 0, 0, 0, 0, 0
RCOU, 74747510, 1101, 1101, 1101, 1101, 0, 0, 0, 0, 0, 0, 0, 0, 0, 0
VIBE, 74747518, 0.02104585, 0.01938164, 0.03594613, 0, 0, 0
CTRL, 74747525, 0.004502019, 0.0001800688, 0.01027691, 0.000187357, 8.23099E-05
PRX, 74747555, 2, 0.61, 0, 0.62, 0, 3.6, 0, 2.42, 0, 0, 0, 0.61
IMU, 74747562, 0.001168037, -0.0002435687, -6.819291E-07, 0.1957469, -0.0448197, -9.490866, 0, 0, 35.73856, 1, 1, 1000, 1000
IMU, 74787108, -0.0002060894, -0.0005993519, -0.0008860223, 0.2103683, -0.03229972, -9.48009, 0, 0, 35.73788, 1, 1, 1000, 1000
RFND, 74796989, 0.2, 25, 0, 0
IMU, 74826997, 0.0005708646, -2.527275E-05, -0.001879969, 0.2026941, -0.03687243, -9.474515, 0, 0, 35.73734, 1, 1, 1000, 1000
MAG, 74846898, 383, 526, 327, 0, 0, 0, 0, 0, 0, 1, 74846890
RFND, 74846931, 0.2, 25, 0, 0
BARO, 74846966, 0.1543403, 993.1858, 33.83, 0.1263019, 74846, 0, 32.87
CTUN, 74846979, 0, 0, 0, 0.2988498, 0.06592152, 0.06592152, 0.15, 0, 0.19, 0, 0, 0
ATT, 74847073, 0, 0.42, 0, 0.96, 79.2, 79.2, 0, 1
RATE, 74847078, -1.912035, 0.0102717, -0.00458203, -4.355341, -0.05075032, -0.01005934, 0.01620781, 0.004019671, 8.270143E-05, 18.15506, 0.6557465, 0
NKF1, 74847086, 0.42, 0.96, 79.2, -0.001865436, 0.09870767, 0.000448273, 0, 0, 0, -0.06592152, 0, 0.01, -0.02
NKF2, 74847086, 31, 0, 0, 0, 0, 0, 0, 0, 0, 0, 0, 0, 0
NKF3, 74847086, 0, 0, 0, 0, 0.06, 0, 0, 0, 0, 0, 0
NKF4, 74847086, 0, 0, 0, 0, 0, 2.052206E-06, 0, 0, 0, 19, 229, 0, 0
NKF5, 74847086, 0, 0, 0, 0, 0.19, 0.13, 0, 0.19, 0.5, 3.816556E-05, 0.01266883, 0.0261071
NKQ1, 74847086, 0.7704364, -0.004259813, 0.008525685, 0.6374457
AHR2, 74847128, 0.39, 1.3, 77.9, 0.15, 0, 0, 0.7776197, -0.004473234, 0.01103678, 0.6286222
MOTB, 74847136, 1, 1, 0, 1
RCIN, 74847141, 0, 0, 0, 0, 0, 0, 0, 0, 0, 0, 0, 0, 0, 0
RCOU, 74847146, 1101, 1101, 1101, 1101, 0, 0, 0, 0, 0, 0, 0, 0, 0, 0
VIBE, 74847155, 0.02020274, 0.0202158, 0.02843781, 0, 0, 0
CTRL, 74847161, 0.004506623, 0.0001655161, 0.01025747, 0.000183268, 7.914435E-05
PRX, 74847192, 2, 0.61, 0, 0.62, 0, 3.6, 0, 2.42, 0, 0, 0, 0.61
IMU, 74866921, 9.211914E-05, -0.0002375336, 0.00034331, 0.2168917, -0.03865869, -9.490396, 0, 0, 35.73753, 1, 1, 1000, 1000
RFND, 74896938, 0.2, 25, 0, 0
IMU, 74907103, -0.0001747403, -0.0007545323, 0.0004504977, 0.2114764, -0.03392826, -9.47523, 0, 0, 35.73833, 1, 1, 1000, 1000
MAG, 74946942, 385, 524, 335, 0, 0, 0, 0, 0, 0, 1, 74946934
RFND, 74946977, 0.2, 25, 0, 0
BARO, 74947012, 0.1375032, 993.1874, 33.83, -0.08512411, 74947, 0, 32.87
CTUN, 74947024, 0, 0, 0, 0.2988498, 0.06590251, 0.06590251, 0.13, 0, 0.19, 0, 0, 0
ATT, 74947166, 0, 0.42, 0, 0.96, 79.21, 79.21, 0, 1
RATE, 74947172, -1.912043, 0.00903349, -0.004698748, -4.350783, 0.1010012, -0.01087544, 0.01496302, 0.09353229, -5.373967E-05, 27.0924, 0.9716034, 0
NKF1, 74947180, 0.42, 0.96, 79.21, -0.001775048, 0.1011764, 0.0006689482, 0, 0, 0, -0.06590251, 0, 0.01, -0.02
NKF2, 74947180, 31, 0, 0, 0, 0, 0, 0, 0, 0, 0, 0, 0, 0
NKF3, 74947180, 0, 0, 0, 0, 0.08, 0, 0, 0, 0, 0, 0
NKF4, 74947180, 0, 0, 0, 0, 0, 1.808255E-06, 0, 0, 0, 19, 229, 0, 0
NKF5, 74947180, 0, 0, 0, 0, 0.19, 0.13, 0, 0.19, 0.5, 3.788865E-05, 0.01213926, 0.02483524
NKQ1, 74947180, 0.7704164, -0.004257635, 0.008518315, 0.63747
AHR2, 74947220, 0.39, 1.29, 77.9, 0.13, 0, 0, 0.7776145, -0.0044195, 0.01097607, 0.62863
MOTB, 74947227, 1, 1, 0, 1
RCIN, 74947231, 0, 0, 0, 0, 0, 0, 0, 0, 0, 0, 0, 0, 0, 0
RCOU, 74947237, 1101, 1101, 1101, 1101, 0, 0, 0, 0, 0, 0, 0, 0, 0, 0
VIBE, 74947318, 0.02047391, 0.02137407, 0.02979036, 0, 0, 0
CTRL, 74947328, 0.004500857, 0.0001463287, 0.01023963, 0.0002503359, 7.057337E-05
PRX, 74947421, 2, 0.61, 0, 0.62, 0, 3.6, 0, 2.41, 0, 0, 0, 0.61
IMU, 74947431, 0.0003170932, 0.001999184, 0.001174632, 0.2113799, -0.04689984, -9.49479, 0, 0, 35.73916, 1, 1, 1000, 1000
IMU, 74986973, 0.0007447163, -0.001345105, 0.0004202325, 0.2099493, -0.04014638, -9.516215, 0, 0, 35.74004, 1, 1, 1000, 1000
RFND, 74996890, 0.2, 25, 0, 0
IMU, 75026915, 2.415753E-05, 7.595332E-06, 0.001016828, 0.2075182, -0.03914693, -9.493685, 0, 0, 35.74077, 1, 1, 1000, 1000
MAG, 75046940, 385, 526, 331, 0, 0, 0, 0, 0, 0, 1, 75046931
RFND, 75046974, 0.2, 25, 0, 0
BARO, 75047010, 0.1066351, 993.1908, 33.83, -0.1677718, 75046, 0, 32.87
CTUN, 75047022, 0, 0, 0, 0.2988498, 0.06594747, 0.06594747, 0.1, 0, 0.19, 0, 0, 0
ATT, 75047127, 0, 0.42, 0, 0.96, 79.21, 79.21, 0, 1
RATE, 75047133, -1.924119, 0.01972539, -0.004608639, -4.347279, -0.009459632, -0.01006063, 0.01513193, 0.02615734, -0.0001240512, -25.44956, 0.1613617, 0
NKF1, 75047140, 0.42, 0.96, 79.21, -0.001822615, 0.1037228, -0.0006283841, 0, 0, 0, -0.06594747, 0, 0.01, -0.02
NKF2, 75047140, 31, 0, 0, 0, 0, 0, 0, 0, 0, 0, 0, 0, 0
NKF3, 75047140, 0, 0, 0, 0, 0.08, 0, 0, 0, 0, 0, 0
NKF4, 75047140, 0, 0, 0, 0, 0, 1.721473E-06, 0, 0, 0, 19, 229, 0, 0
NKF5, 75047140, 0, 0, 0, 0, 0.19, 0.13, 0, 0.19, 0.5, 3.704727E-05, 0.01157164, 0.02351748
NKQ1, 75047140, 0.770387, -0.004233278, 0.008528265, 0.6375055
AHR2, 75047182, 0.4, 1.28, 77.91, 0.09999999, 0, 0, 0.7776006, -0.004344048, 0.0109339, 0.6286484
MOTB, 75047189, 1, 1, 0, 1
RCIN, 75047194, 0, 0, 0, 0, 0, 0, 0, 0, 0, 0, 0, 0, 0, 0
RCOU, 75047199, 1101, 1101, 1101, 1101, 0, 0, 0, 0, 0, 0, 0, 0, 0, 0
VIBE, 75047208, 0.02012488, 0.02060994, 0.03000701, 0, 0, 0
CTRL, 75047214, 0.004531666, 0.0001407852, 0.01024273, 0.0002372916, 8.253667E-05
PRX, 75047245, 2, 0.61, 0, 0.62, 0, 3.6, 0, 2.42, 0, 0, 0, 0.61
IMU, 75067172, -0.0006614824, -0.000928787, 0.001077016, 0.2120502, -0.02908363, -9.478971, 0, 0, 35.74142, 1, 1, 1000, 1000
RFND, 75096925, 0.2, 25, 0, 0
IMU, 75107331, 0.0009996518, 0.001002753, -0.0002370427, 0.2160808, -0.04334308, -9.497239, 0, 0, 35.74266, 1, 1, 1000, 1000
MAG, 75146934, 387, 529, 338, 0, 0, 0, 0, 0, 0, 1, 75146926
RFND, 75146964, 0.2, 25, 0, 0
BARO, 75147002, 0.06173613, 993.1959, 33.83, -0.1950059, 75146, 0, 32.87
CTUN, 75147014, 0, 0, 0, 0.2988498, 0.06604073, 0.06604073, 0.06, 0, 0.19, 0, 0, 0
ATT, 75147112, 0, 0.42, 0, 0.96, 79.22, 79.22, 0, 1
RATE, 75147119, -1.927447, -0.01927166, -0.004276767, -4.336668, 0.008539606, -0.01051153, 0.01645355, 0.04316022, -2.654768E-05, -19.77532, 0.001716614, 0
NKF1, 75147127, 0.42, 0.96, 79.22, -0.001794351, 0.1060374, -0.0004882794, 0, 0, 0, -0.06604073, 0, 0.01, -0.02
NKF2, 75147127, 31, 0, 0, 0, 0, 0, 0, 0, 0, 0, 0, 0, 0
NKF3, 75147127, 0, 0, 0, 0, 0.09, 0, 0, 0, 0, 0, 0
NKF4, 75147127, 0, 0, 0, 0, 0, 1.776356E-06, 0, 0, 0, 19, 229, 0, 0
NKF5, 75147127, 0, 0, 0, 0, 0.19, 0.13, 0, 0.19, 0.5, 3.856501E-05, 0.01110467, 0.02241882
NKQ1, 75147127, 0.7703758, -0.00421583, 0.008515968, 0.6375194
AHR2, 75147170, 0.4, 1.27, 77.91, 0.06, 0, 0, 0.7776043, -0.004278712, 0.0108743, 0.6286455
MOTB, 75147178, 1, 1, 0, 1
RCIN, 75147182, 0, 0, 0, 0, 0, 0, 0, 0, 0, 0, 0, 0, 0, 0
RCOU, 75147188, 1101, 1101, 1101, 1101, 0, 0, 0, 0, 0, 0, 0, 0, 0, 0
VIBE, 75147196, 0.01876302, 0.02032584, 0.03825897, 0, 0, 0
CTRL, 75147203, 0.004540624, 0.0001652696, 0.01021457, 0.0002404968, 8.316988E-05
PRX, 75147234, 2, 0.61, 0, 0.62, 0, 3.6, 0, 2.41, 0, 0, 0, 0.61
IMU, 75147241, -0.0001768228, 0.0003855369, 0.0002952241, 0.206334, -0.04092358, -9.48502, 0, 0, 35.74421, 1, 1, 1000, 1000
IMU, 75187084, 5.859425E-05, 0.0003789865, 0.0004383296, 0.2002203, -0.03519144, -9.486609, 0, 0, 35.74567, 1, 1, 1000, 1000
RFND, 75196875, 0.2, 25, 0, 0
IMU, 75226957, 0.001009874, 0.0009725281, 0.0007674441, 0.2103307, -0.03416988, -9.476563, 0, 0, 35.74689, 1, 1, 1000, 1000
MAG, 75246922, 388, 523, 331, 0, 0, 0, 0, 0, 0, 1, 75246913
RFND, 75246951, 0.2, 25, 0, 0
BARO, 75246987, 0.07576706, 993.1942, 33.83, -0.2424248, 75246, 0, 32.87
CTUN, 75247000, 0, 0, 0, 0.2988498, 0.06615052, 0.06615052, 0.07, 0, 0.19, 0, 0, 0
ATT, 75247096, 0, 0.42, 0, 0.96, 79.22, 79.22, 0, 1
RATE, 75247102, -1.934253, -0.01193101, -0.004288813, -4.333636, -0.1120261, -0.009539552, 0.01992662, -0.002738979, -0.0001179829, -35.15673, 0.4890442, 0
NKF1, 75247110, 0.42, 0.96, 79.22, -0.00175126, 0.1082992, -0.0008680673, 0, 0, 0, -0.06615052, 0, 0.01, -0.02
NKF2, 75247110, 31, 0, 0, 0, 0, 0, 0, 0, 0, 0, 0, 0, 0
NKF3, 75247110, 0, 0, 0, 0, 0.09, 0, 0, 0, 0, 0, 0
NKF4, 75247110, 0, 0, 0, 0, 0, 1.874595E-06, 0, 0, 0, 19, 229, 0, 0
NKF5, 75247110, 0, 0, 0, 0, 0.19, 0.13, 0, 0.19, 0.5, 3.82639E-05, 0.01058026, 0.02120318
NKQ1, 75247110, 0.7703484, -0.004200786, 0.008520406, 0.6375526
AHR2, 75247153, 0.4, 1.26, 77.91, 0.07, 0, 0, 0.7775921, -0.004215667, 0.01083137, 0.6286617
MOTB, 75247159, 1, 1, 0, 1
RCIN, 75247164, 0, 0, 0, 0, 0, 0, 0, 0, 0, 0, 0, 0, 0, 0
RCOU, 75247169, 1101, 1101, 1101, 1101, 0, 0, 0, 0, 0, 0, 0, 0, 0, 0
VIBE, 75247178, 0.02038379, 0.01882947, 0.03171469, 0, 0, 0
CTRL, 75247185, 0.00456346, 0.0001705938, 0.01021876, 0.0002339684, 8.68097E-05
PRX, 75247215, 2, 0.61, 0, 0.62, 0, 3.6, 0, 2.41, 0, 0, 0, 0.61
IMU, 75267009, 0.0004227872, -0.001298653, -0.0002042731, 0.218811, -0.04746411, -9.500413, 0, 0, 35.74737, 1, 1, 1000, 1000
RFND, 75296840, 0.2, 25, 0, 0
IMU, 75306967, 0.0005332655, -0.001458677, -0.0006602138, 0.2165755, -0.03313882, -9.483768, 0, 0, 35.74668, 1, 1, 1000, 1000
MAG, 75347655, 385, 522, 328, 0, 0, 0, 0, 0, 0, 1, 75347647
RFND, 75347684, 0.2, 25, 0, 0
BARO, 75347718, 0.07296088, 993.1945, 33.83, -0.2470132, 75347, 0, 32.87
CTUN, 75347731, 0, 0, 0, 0.2988498, 0.06631467, 0.06631467, 0.07, 0, 0.19, 0, 0, 0
ATT, 75347827, 0, 0.43, 0, 0.95, 79.22, 79.22, 0, 1
RATE, 75347834, -1.938766, 0.05269471, -0.004815219, -4.294847, -0.1375308, -0.009532847, 0.01487053, -0.01078575, 4.087896E-05, -33.70363, -2.004623, 0
NKF1, 75347841, 0.43, 0.95, 79.22, -0.001491518, 0.1113235, -0.0008321884, 0, 0, 0, -0.06631467, 0, 0.01, -0.02
NKF2, 75347841, 31, 0, 0, 0, 0, 0, 0, 0, 0, 0, 0, 0, 0
NKF3, 75347841, 0, 0, 0, 0, 0.11, 0, 0, 0, 0, 0, 0
NKF4, 75347841, 0, 0, 0, 0, 0, 2.117622E-06, 0, 0, 0, 19, 229, 0, 0
NKF5, 75347841, 0, 0, 0, 0, 0.19, 0.13, 0, 0.19, 0.5, 4.054526E-05, 0.01017087, 0.02023501
NKQ1, 75347841, 0.7703457, -0.004145575, 0.00846707, 0.6375568
AHR2, 75347885, 0.4, 1.25, 77.91, 0.07, 0, 0, 0.7776043, -0.004113759, 0.0107273, 0.6286491
MOTB, 75347892, 1, 1, 0, 1
RCIN, 75347896, 0, 0, 0, 0, 0, 0, 0, 0, 0, 0, 0, 0, 0, 0
RCOU, 75347902, 1101, 1101, 1101, 1101, 0, 0, 0, 0, 0, 0, 0, 0, 0, 0
VIBE, 75347911, 0.02180484, 0.01810666, 0.03134412, 0, 0, 0
CTRL, 75347918, 0.00456359, 0.0001662112, 0.01013125, 0.0002142935, 7.777006E-05
PRX, 75347948, 2, 0.61, 0, 0.62, 0, 3.6, 0, 2.42, 0, 0, 0, 0.61
IMU, 75347956, 0.001078997, -0.002164266, -0.0006455929, 0.2206199, -0.03354571, -9.465208, 0, 0, 35.74649, 1, 1, 1000, 1000
IMU, 75386935, 0.0001411152, 0.0001809831, 0.0007649865, 0.2094402, -0.03793838, -9.503948, 0, 0, 35.74674, 1, 1, 1000, 1000
RFND, 75396854, 0.2, 25, 0, 0
IMU, 75427010, -0.0001029075, 0.0008378492, -0.0002296905, 0.2109165, -0.02672707, -9.474457, 0, 0, 35.74658, 1, 1, 1000, 1000
MAG, 75447021, 385, 525, 327, 0, 0, 0, 0, 0, 0, 1, 75447012
RFND, 75447050, 0.2, 25, 0, 0
BARO, 75447087, 0.06173613, 993.1959, 33.83, -0.1577999, 75447, 0, 32.87
CTUN, 75447101, 0, 0, 0, 0.2988498, 0.06647278, 0.06647278, 0.06, 0, 0.19, 0, 0, 0
ATT, 75447197, 0, 0.43, 0, 0.95, 79.22, 79.23, 0, 1
RATE, 75447202, -1.94696, 0.04089981, -0.004822514, -4.291137, -0.06023122, -0.009763354, 0.01473216, 0.08663971, -2.933016E-05, -60.55195, 0.1430511, 0
NKF1, 75447210, 0.43, 0.95, 79.23, -0.001913738, 0.114014, -0.00149511, 0, 0, 0, -0.06647278, 0, 0.01, -0.02
NKF2, 75447210, 31, 0, 0, 0, 0, 0, 0, 0, 0, 0, 0, 0, 0
NKF3, 75447210, 0, 0, 0, 0, 0.12, 0, 0, 0, 0, 0, 0
NKF4, 75447210, 0, 0, 0, 0, 0, 2.31635E-06, 0, 0, 0, 19, 229, 0, 0
NKF5, 75447210, 0, 0, 0, 0, 0.19, 0.13, 0, 0.19, 0.5, 4.332654E-05, 0.00982939, 0.01942247
NKQ1, 75447210, 0.7703214, -0.004132492, 0.008470931, 0.6375863
AHR2, 75447332, 0.4, 1.24, 77.91, 0.06, 0, 0, 0.777595, -0.004054253, 0.01068216, 0.6286616
MOTB, 75447399, 1, 1, 0, 1
RCIN, 75447406, 0, 0, 0, 0, 0, 0, 0, 0, 0, 0, 0, 0, 0, 0
RCOU, 75447412, 1101, 1101, 1101, 1101, 0, 0, 0, 0, 0, 0, 0, 0, 0, 0
VIBE, 75447421, 0.02169025, 0.02024818, 0.0350934, 0, 0, 0
CTRL, 75447428, 0.004578389, 0.000165299, 0.01011307, 0.0002084926, 6.542665E-05
PRX, 75447458, 2, 0.61, 0, 0.62, 0, 3.6, 0, 2.42, 0, 0, 0, 0.61
IMU, 75466958, 0.001126984, -0.0002749094, 0.0006584866, 0.2211138, -0.04483346, -9.475685, 0, 0, 35.74766, 1, 1, 1000, 1000
RFND, 75496924, 0.2, 25, 0, 0
IMU, 75506961, 5.404198E-05, -3.660389E-05, -0.000730406, 0.2103583, -0.02257007, -9.495731, 0, 0, 35.74811, 1, 1, 1000, 1000
MAG, 75546900, 384, 524, 333, 0, 0, 0, 0, 0, 0, 1, 75546891
RFND, 75546928, 0.2, 25, 0, 0
BARO, 75546964, 0.01403094, 993.2012, 33.83, -0.07718188, 75546, 0, 32.87
CTUN, 75546976, 0, 0, 0, 0.2988498, 0.06665337, 0.06665337, 0.01, 0, 0.19, 0, 0, 0
ATT, 75547068, 0, 0.43, 0, 0.95, 79.23, 79.23, 0, 1
RATE, 75547074, -1.96203, 0.08313178, -0.005023391, -4.285187, 0.01233907, -0.01018435, 0.01523912, -0.0132999, -3.488886E-05, -42.62642, -1.714897, 0
NKF1, 75547081, 0.43, 0.95, 79.23, -0.002271295, 0.116846, -0.001052504, 0, 0, 0, -0.06665337, 0, 0.01, -0.02
NKF2, 75547081, 31, 0, 0, 0, 0, 0, 0, 0, 0, 0, 0, 0, 0
NKF3, 75547081, 0, 0, 0, 0, 0.12, 0, 0, 0, 0, 0, 0
NKF4, 75547081, 0, 0, 0, 0, 0, 2.706891E-06, 0, 0, 0, 19, 229, 0, 0
NKF5, 75547081, 0, 0, 0, 0, 0.19, 0.13, 0, 0.19, 0.5, 4.276987E-05, 0.009324919, 0.01827928
NKQ1, 75547081, 0.7703055, -0.004099463, 0.008481674, 0.6376055
AHR2, 75547125, 0.41, 1.23, 77.91, 0.01, 0, 0, 0.7775941, -0.003980279, 0.01065007, 0.6286638
MOTB, 75547131, 1, 1, 0, 1
RCIN, 75547135, 0, 0, 0, 0, 0, 0, 0, 0, 0, 0, 0, 0, 0, 0
RCOU, 75547141, 1101, 1101, 1101, 1101, 0, 0, 0, 0, 0, 0, 0, 0, 0, 0
VIBE, 75547150, 0.01844249, 0.01900159, 0.03055506, 0, 0, 0
CTRL, 75547156, 0.004616336, 0.0001980675, 0.01008775, 0.0001898459, 6.842236E-05
PRX, 75547186, 2, 0.61, 0, 0.62, 0, 3.6, 0, 2.41, 0, 0, 0, 0.61
IMU, 75547193, 0.001610281, 0.0004514766, -0.0006895679, 0.2042452, -0.03610155, -9.468305, 0, 0, 35.74854, 1, 1, 1000, 1000
IMU, 75586932, 0.0004515335, -4.340962E-05, -7.062335E-07, 0.2003897, -0.02473143, -9.495939, 0, 0, 35.74923, 1, 1, 1000, 1000
RFND, 75596807, 0.2, 25, 0, 0
IMU, 75627116, 0.0007290586, 0.0002094691, -0.0002227728, 0.2085993, -0.0276115, -9.480497, 0, 0, 35.75001, 1, 1, 1000, 1000
MAG, 75646880, 383, 522, 335, 0, 0, 0, 0, 0, 0, 1, 75646872
RFND, 75646908, 0.2, 25, 0, 0
BARO, 75646943, -0.01683713, 993.2047, 33.83, -0.1200308, 75646, 0, 32.87
CTUN, 75646955, 0, 0, 0, 0.2988498, 0.06679108, 0.06679108, -0.01, 0, 0.19, 0, 0, 0
ATT, 75647050, 0, 0.43, 0, 0.94, 79.23, 79.23, 0, 1
RATE, 75647055, -1.969864, 0.01422298, -0.004629998, -4.269534, 0.005414427, -0.010027, 0.01679121, 0.008948765, 1.634786E-05, -36.20319, -0.5313873, 0
NKF1, 75647063, 0.43, 0.94, 79.23, -0.003318848, 0.1199055, -0.0008939058, 0, 0, 0, -0.06679108, 0, 0.01, -0.02
NKF2, 75647063, 31, 0, 0, 0, 0, 0, 0, 0, 0, 0, 0, 0, 0
NKF3, 75647063, 0, 0, 0, 0, 0.14, 0, 0, 0, 0, 0, 0
NKF4, 75647063, 0, 0, 0, 0, 0, 3.039864E-06, 0, 0, 0, 19, 229, 0, 0
NKF5, 75647063, 0, 0, 0, 0, 0.19, 0.13, 0, 0.19, 0.5, 4.609485E-05, 0.009041682, 0.01762195
NKQ1, 75647063, 0.770303, -0.004069425, 0.008468614, 0.6376088
AHR2, 75647106, 0.41, 1.22, 77.91, -0.01, 0, 0, 0.7776064, -0.003910359, 0.01059368, 0.62865
MOTB, 75647113, 1, 1, 0, 1
RCIN, 75647118, 0, 0, 0, 0, 0, 0, 0, 0, 0, 0, 0, 0, 0, 0
RCOU, 75647124, 1101, 1101, 1101, 1101, 0, 0, 0, 0, 0, 0, 0, 0, 0, 0
VIBE, 75647132, 0.01866117, 0.01951326, 0.03152038, 0, 0, 0
CTRL, 75647139, 0.004640305, 0.0001781186, 0.01005637, 0.0001962738, 5.740231E-05
PRX, 75647169, 2, 0.61, 0, 0.62, 0, 3.6, 0, 2.42, 0, 0, 0, 0.61
IMU, 75666957, 0.0009874773, 0.0006983952, 0.0004214762, 0.2107597, -0.03816268, -9.502751, 0, 0, 35.75071, 1, 1, 1000, 1000
RFND, 75696859, 0.2, 25, 0, 0
IMU, 75707584, -0.0001798156, 0.0009095815, 0.001370575, 0.2069895, -0.03591236, -9.472079, 0, 0, 35.7506, 1, 1, 1000, 1000
DU32, 75744215, 7, 50389208
PM, 75744358, 34, 4000, 4258, 10, 0, 0, 24, 262144
MAG, 75746882, 382, 523, 330, 0, 0, 0, 0, 0, 0, 1, 75746873
RFND, 75746912, 0.2, 25, 0, 0
BARO, 75746946, -0.1739836, 993.2219, 33.83, -0.2819584, 75746, 0, 32.87
CTUN, 75746958, 0, 0, 0, 0.2988498, 0.0669338, 0.0669338, -0.17, 0, 0.19, 0, 0, 0
ATT, 75747067, 0, 0.43, 0, 0.95, 79.23, 79.23, 0, 1
RATE, 75747073, -1.960159, -0.05521234, -0.004437175, -4.283268, -0.02502483, -0.009937991, 0.016653, 0.02920249, -6.013172E-05, -33.0153, -0.4899025, 0
NKF1, 75747081, 0.43, 0.95, 79.23, -0.003418636, 0.1223625, -0.0008151927, 0, 0, 0, -0.0669338, 0, 0.01, -0.02
NKF2, 75747081, 31, 0, 0, 0, 0, 0, 0, 0, 0, 0, 0, 0, 0
NKF3, 75747081, 0, 0, 0, 0, 0.14, 0, 0, 0, 0, 0, 0
NKF4, 75747081, 0, 0, 0, 0, 0, 3.498058E-06, 0, 0, 0, 19, 229, 0, 0
NKF5, 75747081, 0, 0, 0, 0, 0.19, 0.13, 0, 0.19, 0.5, 4.507171E-05, 0.008558052, 0.01653537
NKQ1, 75747081, 0.7702753, -0.004101741, 0.008475908, 0.6376421
AHR2, 75747124, 0.41, 1.22, 77.91, -0.17, 0, 0, 0.7775936, -0.003906888, 0.01055586, 0.6286666
MOTB, 75747132, 1, 1, 0, 1
RCIN, 75747137, 0, 0, 0, 0, 0, 0, 0, 0, 0, 0, 0, 0, 0, 0
RCOU, 75747143, 1101, 1101, 1101, 1101, 0, 0, 0, 0, 0, 0, 0, 0, 0, 0
VIBE, 75747151, 0.01918716, 0.02010141, 0.03038029, 0, 0, 0
CTRL, 75747158, 0.004624836, 0.0001691063, 0.01008698, 0.0001725075, 5.804527E-05
PRX, 75747187, 2, 0.6, 0, 0.62, 0, 3.6, 0, 2.42, 0, 0, 0, 0.6
IMU, 75747194, -0.0008042334, -0.0002006614, 5.219421E-05, 0.2053052, -0.04004908, -9.480456, 0, 0, 35.7505, 1, 1, 1000, 1000
IMU, 75786946, 0.0002586844, -0.001960824, 0.0006974392, 0.2029014, -0.03158883, -9.496479, 0, 0, 35.75057, 1, 1, 1000, 1000
RFND, 75796836, 0.2, 25, 0, 0
IMU, 75827059, -0.0005352032, -0.0009711877, -0.0008973705, 0.2072716, -0.03590929, -9.475535, 0, 0, 35.75052, 1, 1, 1000, 1000
MAG, 75847020, 386, 525, 338, 0, 0, 0, 0, 0, 0, 1, 75847012
RFND, 75847055, 0.2, 25, 0, 0
BARO, 75847093, -0.1290846, 993.2169, 33.83, -0.4967516, 75847, 0, 32.87
CTUN, 75847106, 0, 0, 0, 0.2988498, 0.06702626, 0.06702626, -0.12, 0, 0.19, 0, 0, 0
ATT, 75847208, 0, 0.43, 0, 0.94, 79.24, 79.24, 0, 1
RATE, 75847214, -1.965783, -0.02491957, -0.004560154, -4.266772, -0.01570844, -0.01013498, 0.01430165, 0.04558554, -1.61163E-05, -33.23944, 0.5688667, 0
NKF1, 75847222, 0.43, 0.94, 79.24, -0.003966939, 0.1245998, -0.0008207271, 0, 0, 0, -0.06702626, 0, 0.01, -0.02
NKF2, 75847222, 31, 0, 0, 0, 0, 0, 0, 0, 0, 0, 0, 0, 0
NKF3, 75847222, 0, 0, 0, 0, 0.16, 0, 0, 0, 0, 0, 0
NKF4, 75847222, 0, 0, 0, 0, 0, 3.9678E-06, 0, 0, 0, 19, 229, 0, 0
NKF5, 75847222, 0, 0, 0, 0, 0.19, 0.13, 0, 0.19, 0.5, 4.907952E-05, 0.008330524, 0.01603061
NKQ1, 75847222, 0.7702575, -0.004073601, 0.008457453, 0.637664
AHR2, 75847424, 0.41, 1.21, 77.91, -0.12, 0, 0, 0.7775905, -0.003842749, 0.01049134, 0.6286718
MOTB, 75847433, 1, 1, 0, 1
RCIN, 75847437, 0, 0, 0, 0, 0, 0, 0, 0, 0, 0, 0, 0, 0, 0
RCOU, 75847444, 1101, 1101, 1101, 1101, 0, 0, 0, 0, 0, 0, 0, 0, 0, 0
VIBE, 75847452, 0.01994783, 0.01931075, 0.03496993, 0, 0, 0
CTRL, 75847459, 0.004630294, 0.0001684029, 0.0100446, 0.0001736343, 5.957223E-05
PRX, 75847489, 2, 0.61, 0, 0.62, 0, 3.6, 0, 2.42, 0, 0, 0, 0.61
IMU, 75867097, 0.001640446, -0.0002576576, 0.0007928034, 0.2004832, -0.03316479, -9.479031, 0, 0, 35.75053, 1, 1, 1000, 1000
EV, 75896577, 57
RFND, 75897050, 0.2, 25, 0, 0
IMU, 75907158, -0.0004010384, 0.0004240911, -0.0009028254, 0.2065823, -0.0386622, -9.486535, 0, 0, 35.75057, 1, 1, 1000, 1000
MAG, 75947122, 384, 529, 333, 0, 0, 0, 0, 0, 0, 1, 75947112
RFND, 75947157, 0.2, 25, 0, 0
BARO, 75947192, -0.1739836, 993.2219, 33.83, -0.6094688, 75947, 0, 32.87
CTUN, 75947205, 0, 0, 0, 0.2988498, 0.06708692, 0.06708692, -0.17, 0, 0.19, 0, 0, 0
ATT, 75947454, 0, 0.43, 0, 0.94, 79.24, 79.24, 0, 1
RATE, 75947462, -1.964654, 0.003569129, -0.004754353, -4.268221, -0.01512234, -0.01000082, 0.01622265, -0.01021217, 7.108083E-06, -14.28193, 0.4106522, 0
NKF1, 75947471, 0.43, 0.94, 79.24, -0.004622069, 0.1271627, -0.0003526403, 0, 0, 0, -0.06708692, 0, 0.01, -0.02
NKF2, 75947471, 31, 0, 0, 0, 0, 0, 0, 0, 0, 0, 0, 0, 0
NKF3, 75947471, 0, 0, 0, 0, 0.16, 0, 0, 0, 0, 0, 0
NKF4, 75947471, 0, 0, 0, 0, 0, 4.482603E-06, 0, 0, 0, 19, 229, 0, 0
NKF5, 75947471, 0, 0, 0, 0, 0.19, 0.13, 0, 0.19, 0.5, 4.739825E-05, 0.007860881, 0.01498097
NKQ1, 75947471, 0.7702494, -0.004075374, 0.008459017, 0.6376737
AHR2, 75947517, 0.41, 1.2, 77.91, -0.17, 0, 0, 0.7775968, -0.003805202, 0.01044642, 0.628665
MOTB, 75947525, 1, 1, 0, 1
RCIN, 75947530, 0, 0, 0, 0, 0, 0, 0, 0, 0, 0, 0, 0, 0, 0
RCOU, 75947536, 1112, 1112, 1112, 1112, 0, 0, 0, 0, 0, 0, 0, 0, 0, 0
VIBE, 75947544, 0.02085223, 0.01813621, 0.03354981, 0, 0, 0
CTRL, 75947552, 0.004633668, 0.0001742569, 0.01004387, 0.0001609466, 5.804703E-05
PRX, 75947582, 2, 0.61, 0, 0.62, 0, 3.6, 0, 2.41, 0, 0, 0, 0.61
IMU, 75947589, 0.0002217316, -2.788236E-05, -0.0006357134, 0.2047152, -0.03090599, -9.489485, 0, 0, 35.75053, 1, 1, 1000, 1000
IMU, 75987192, -0.001312014, 6.563153E-05, 0.001559101, 0.2108754, -0.03339722, -9.487478, 0, 0, 35.75069, 1, 1, 1000, 1000
RFND, 75997053, 0.2, 25, 0, 0
IMU, 76027118, 0.001823603, -0.0001734486, 0.0005756472, 0.1967686, -0.0356532, -9.488302, 0, 0, 35.75032, 1, 1, 1000, 1000
MAG, 76046992, 391, 523, 334, 0, 0, 0, 0, 0, 0, 1, 76046983
RFND, 76047027, 0.2, 25, 0, 0
BARO, 76047062, -0.1403094, 993.2186, 33.83, -0.4720855, 76047, 0, 32.87
CTUN, 76047074, 0, 0, 0, 0.2988498, 0.06715349, 0.06715349, -0.14, 0, 0.19, 0, 0, 0
ATT, 76047177, 0, 0.43, 0, 0.94, 79.24, 79.24, 0, 1
RATE, 76047183, -1.95918, 0.009223273, -0.004380225, -4.266094, 0.04888202, -0.01036027, 0.01616123, -0.03670004, -6.76942E-05, -46.73333, 0.8040428, 0
NKF1, 76047190, 0.43, 0.94, 79.24, -0.005392978, 0.1293568, -0.001153909, 0, 0, 0, -0.06715349, 0, 0.01, -0.02
NKF2, 76047190, 31, 0, 0, 0, 0, 0, 0, 0, 0, 0, 0, 0, 0
NKF3, 76047190, 0, 0, 0, 0, 0.18, 0, 0, 0, 0, 0, 0
NKF4, 76047190, 0, 0, 0, 0, 0, 5.102797E-06, 0, 0, 0, 19, 229, 0, 0
NKF5, 76047190, 0, 0, 0, 0, 0.19, 0.13, 0, 0.19, 0.5, 5.222476E-05, 0.007687405, 0.01462431
NKQ1, 76047190, 0.7702283, -0.004080301, 0.008449187, 0.6376993
AHR2, 76047233, 0.41, 1.19, 77.91, -0.14, 0, 0, 0.7775902, -0.003770983, 0.01039002, 0.6286743
MOTB, 76047240, 1, 1, 0, 1
RCIN, 76047244, 0, 0, 0, 0, 0, 0, 0, 0, 0, 0, 0, 0, 0, 0
RCOU, 76047330, 1136, 1136, 1136, 1136, 0, 0, 0, 0, 0, 0, 0, 0, 0, 0
VIBE, 76047340, 0.01902911, 0.01878648, 0.03000544, 0, 0, 0
CTRL, 76047426, 0.004624605, 0.000188092, 0.01003399, 0.000154423, 5.967632E-05
PRX, 76047457, 2, 0.61, 0, 0.62, 0, 3.6, 0, 2.41, 0, 0, 0, 0.61
IMU, 76067132, 0.0002841455, -0.0005390928, -0.001602395, 0.2126219, -0.03680209, -9.490559, 0, 0, 35.75143, 1, 1, 1000, 1000
RFND, 76096988, 0.2, 25, 0, 0
IMU, 76107514, 0.0006140883, -0.001436209, -0.0003955432, 0.2048584, -0.03668194, -9.497328, 0, 0, 35.7529, 1, 1, 1000, 1000
MAG, 76146995, 385, 529, 334, 0, 0, 0, 0, 0, 0, 1, 76146987
RFND, 76147029, 0.2, 25, 0, 0
BARO, 76147065, -0.03367425, 993.2067, 33.83, -0.1688385, 76147, 0, 32.87
CTUN, 76147078, 0, 0, 0, 0.2988498, 0.06727221, 0.06727221, -0.03, 0, 0.19, 0, 0, 0
ATT, 76147228, 0, 0.43, 0, 0.94, 79.24, 79.24, 0, 1
RATE, 76147234, -1.972879, 0.05113799, -0.004878692, -4.25884, 0.005768088, -0.009774545, 0.0162072, 0.03798239, -2.980471E-05, -54.51342, -0.8865356, 0
NKF1, 76147242, 0.43, 0.94, 79.24, -0.005531081, 0.1324963, -0.00134601, 0, 0, 0, -0.06727221, 0, 0.01, -0.02
NKF2, 76147242, 31, 0, 0, 0, 0, 0, 0, 0, 0, 0, 0, 0, 0
NKF3, 76147242, 0, 0, 0, 0, 0.18, 0, 0, 0, 0, 0, 0
NKF4, 76147242, 0, 0, 0, 0, 0, 5.667915E-06, 0, 0, 0, 19, 229, 0, 0
NKF5, 76147242, 0, 0, 0, 0, 0.2, 0.13, 0, 0.19, 0.5, 4.96142E-05, 0.007226278, 0.01358685
NKQ1, 76147242, 0.7702222, -0.004053453, 0.008454417, 0.6377068
AHR2, 76147452, 0.41, 1.18, 77.91, -0.03, 0, 0, 0.7775984, -0.003706345, 0.01034771, 0.6286652
MOTB, 76147461, 1, 1, 0, 1
RCIN, 76147466, 0, 0, 0, 0, 0, 0, 0, 0, 0, 0, 0, 0, 0, 0
RCOU, 76147472, 1160, 1160, 1160, 1160, 0, 0, 0, 0, 0, 0, 0, 0, 0, 0
VIBE, 76147482, 0.01816876, 0.02170759, 0.03228039, 0, 0, 0
CTRL, 76147488, 0.004640141, 0.0001702445, 0.01002713, 0.0001885094, 5.484663E-05
PRX, 76147518, 2, 0.61, 0, 0.62, 0, 3.6, 0, 2.41, 0, 0, 0, 0.61
IMU, 76147526, 0.001052004, 0.0003366547, 0.0002054591, 0.2129318, -0.03526501, -9.47631, 0, 0, 35.75424, 1, 1, 1000, 1000
IMU, 76187109, 0.0002819255, 0.0002295101, 0.0008500286, 0.2221232, -0.03748872, -9.486051, 0, 0, 35.75488, 1, 1, 1000, 1000
RFND, 76197105, 0.2, 25, 0, 0
IMU, 76227223, 0.0004418301, -0.001731871, -0.0001307136, 0.204164, -0.02834231, -9.466293, 0, 0, 35.75495, 1, 1, 1000, 1000
MAG, 76246832, 384, 526, 333, 0, 0, 0, 0, 0, 0, 1, 76246824
RFND, 76246865, 0.2, 25, 0, 0
BARO, 76246898, -0.08418563, 993.2121, 33.84, 0.1363643, 76246, 0, 32.87
CTUN, 76246909, 0, 0, 0, 0.2988498, 0.06734987, 0.06734987, -0.08, 0, 0.19, 0, 0, 0
ATT, 76247003, 0, 0.43, 0, 0.94, 79.24, 79.24, 0, 1
RATE, 76247009, -1.97018, -0.001173586, -0.004734329, -4.265675, 0.0395724, -0.01050009, 0.01628402, -0.2628569, 0.0001397775, -28.43194, 1.823616, 0
NKF1, 76247017, 0.43, 0.94, 79.24, -0.006473893, 0.1356942, -0.0007020232, 0, 0, 0, -0.06734987, 0, 0.01, -0.02
NKF2, 76247017, 31, 0, 0, 0, 0, 0, 0, 0, 0, 0, 0, 0, 0
NKF3, 76247017, 0, 0, 0, 0, 0.2, 0, 0, 0, 0, 0, 0
NKF4, 76247017, 0, 0, 0, 0, 0, 6.454987E-06, 0, 0, 0, 19, 229, 0, 0
NKF5, 76247017, 0, 0, 0, 0, 0.2, 0.13, 0, 0.19, 0.5, 5.530082E-05, 0.007105728, 0.01338541
NKQ1, 76247017, 0.7702443, -0.004055651, 0.008465209, 0.6376799
AHR2, 76247058, 0.41, 1.18, 77.9, -0.08, 0, 0, 0.7776343, -0.003671192, 0.01031217, 0.6286216
MOTB, 76247066, 1, 1, 0, 1
RCIN, 76247070, 0, 0, 0, 0, 0, 0, 0, 0, 0, 0, 0, 0, 0, 0
RCOU, 76247076, 1184, 1184, 1184, 1184, 0, 0, 0, 0, 0, 0, 0, 0, 0, 0
VIBE, 76247084, 0.04466455, 0.08292933, 0.05918063, 0, 0, 0
CTRL, 76247091, 0.004648949, 0.0001692553, 0.01002594, 0.0002121247, 5.122724E-05
PRX, 76247121, 2, 0.61, 0, 0.62, 0, 3.6, 0, 2.42, 0, 0, 0, 0.61
IMU, 76267011, -0.001230621, 0.0002600244, 0.007717966, 0.2190755, -0.03084142, -9.478907, 0, 0, 35.75568, 1, 1, 1000, 1000
RFND, 76296857, 0.2, 25, 0, 0
IMU, 76306964, 0.0001999403, 0.00111074, 0.001691442, 0.2286153, -0.03853318, -9.494902, 0, 0, 35.75485, 1, 1, 1000, 1000
MAG, 76347008, 389, 530, 324, 0, 0, 0, 0, 0, 0, 1, 76346998
RFND, 76347040, 0.2, 25, 0, 0
BARO, 76347073, -0.05612375, 993.2087, 33.84, 0.3122678, 76347, 0, 32.87
CTUN, 76347086, 0, 0, 0, 0.2988498, 0.0673988, 0.0673988, -0.05, 0, 0.19, 0, 0, 0
ATT, 76347182, 0, 0.43, 0, 0.94, 79.26, 79.26, 0, 1
RATE, 76347188, -1.976859, -0.2123098, -0.002777567, -4.267257, 0.04266937, -0.009909972, 0.01617657, 0.87955, 4.132331E-05, -70.28584, 1.228619, 0
NKF1, 76347196, 0.43, 0.94, 79.26, -0.006449935, 0.1381636, -0.001735453, 0, 0, 0, -0.0673988, 0, 0.01, -0.02
NKF2, 76347196, 31, 0, 0, 0, 0, 0, 0, 0, 0, 0, 0, 0, 0
NKF3, 76347196, 0, 0, 0, 0, 0.22, 0, 0, 0, 0, 0, 0
NKF4, 76347196, 0, 0, 0, 0, 0, 7.064946E-06, 0, 0, 0, 19, 229, 0, 0
NKF5, 76347196, 0, 0, 0, 0, 0.2, 0.13, 0, 0.19, 0.5, 6.173202E-05, 0.007128165, 0.01354334
NKQ1, 76347196, 0.7701488, -0.004087915, 0.008464805, 0.6377951
AHR2, 76347238, 0.41, 1.18, 77.92, -0.05, 0, 0, 0.7775544, -0.003672825, 0.01027786, 0.628721
MOTB, 76347245, 1, 1, 0, 1
RCIN, 76347324, 0, 0, 0, 0, 0, 0, 0, 0, 0, 0, 0, 0, 0, 0
RCOU, 76347331, 1208, 1208, 1208, 1208, 0, 0, 0, 0, 0, 0, 0, 0, 0, 0
VIBE, 76347339, 0.1422444, 0.1718833, 0.1115477, 0, 0, 0
CTRL, 76347398, 0.00465401, 0.0002616365, 0.01005945, 0.0002317017, 0.000102852
PRX, 76347430, 2, 0.61, 0, 0.62, 0, 3.6, 0, 2.41, 0, 0, 0, 0.61
IMU, 76347437, -0.003546254, 0.0009800243, 0.01489458, 0.1920206, -0.02189254, -9.498482, 0, 0, 35.75424, 1, 1, 1000, 1000
IMU, 76386940, 0.00365736, 0.004981459, -0.009018787, 0.2015035, 0.01792616, -9.464802, 0, 0, 35.75455, 1, 1, 1000, 1000
RFND, 76396876, 0.2, 25, 0, 0
IMU, 76426937, 0.003317659, 0.006221392, -0.02973665, 0.1514508, -0.1153809, -9.518635, 0, 0, 35.7545, 1, 1, 1000, 1000
MAG, 76446866, 380, 524, 331, 0, 0, 0, 0, 0, 0, 1, 76446858
RFND, 76446898, 0.2, 25, 0, 0
BARO, 76446933, -0.03928663, 993.207, 33.84, 0.2635676, 76446, 0, 32.87
CTUN, 76446945, 0, 0, 0, 0.2988498, 0.06749531, 0.06749531, -0.03, 0, 0.19, 0, 0, 0
ATT, 76447037, 0, 0.44, 0, 0.97, 79.22, 79.23, 0, 1
RATE, 76447043, -2.018051, 0.1204975, -0.005580713, -4.382069, 0.2648903, -0.01043096, 0.0170367, 0.7266969, 0.0009586857, -66.53199, 1.545238, 0
NKF1, 76447051, 0.44, 0.97, 79.23, -0.008713385, 0.1409647, -0.001642765, 0, 0, 0, -0.06749531, 0, 0.01, -0.02
NKF2, 76447051, 31, 0, 0, 0, 0, 0, 0, 0, 0, 0, 0, 0, 0
NKF3, 76447051, 0, 0, 0, 0, 0.22, 0, 0, 0, 0, 0, 0
NKF4, 76447051, 0, 0, 0, 0, 0, 8.036707E-06, 0, 0, 0, 19, 229, 0, 0
NKF5, 76447051, 0, 0, 0, 0, 0.2, 0.13, 0, 0.19, 0.5, 5.834932E-05, 0.006577175, 0.01228582
NKQ1, 76447051, 0.7703243, -0.004161322, 0.008689348, 0.6375794
AHR2, 76447093, 0.42, 1.2, 77.88, -0.03, 0, 0, 0.7777416, -0.003712062, 0.01046519, 0.6284861
MOTB, 76447100, 1, 1, 0, 1
RCIN, 76447105, 0, 0, 0, 0, 0, 0, 0, 0, 0, 0, 0, 0, 0, 0
RCOU, 76447111, 1232, 1240, 1221, 1248, 0, 0, 0, 0, 0, 0, 0, 0, 0, 0
VIBE, 76447120, 0.2428952, 0.2959552, 0.3413832, 0, 0, 0
CTRL, 76447126, 0.004709172, 0.0004075254, 0.01028048, 0.0004688313, 0.0003953039
PRX, 76447157, 2, 0.61, 0, 0.62, 0, 3.6, 0, 2.41, 0, 0, 0, 0.61
IMU, 76467156, 0.006316516, 0.0005187927, -0.01416211, 0.2150039, -0.09481509, -9.506066, 0, 0, 35.75441, 1, 1, 1000, 1000
RFND, 76496904, 0.2, 25, 0, 0
IMU, 76506946, 0.009934423, 0.006135621, -0.01339411, 0.2264344, -0.172677, -9.541403, 0, 0, 35.75454, 1, 1, 1000, 1000
MAG, 76546924, 387, 530, 332, 0, 0, 0, 0, 0, 0, 1, 76546916
RFND, 76546953, 0.2, 25, 0, 0
BARO, 76546989, 0.03648044, 993.1986, 33.84, 0.1573974, 76546, 0, 32.87
CTUN, 76547001, 0, 0, 0, 0.2988498, 0.06760126, 0.06760126, 0.03, 0, 0.19, 0, 0, 0
ATT, 76547099, 0, 0.44, 0, 0.98, 79.27, 79.27, 0, 1
RATE, 76547105, -2.034683, 0.107249, -0.007690272, -4.408715, 0.2843723, -0.01274252, 0.01723639, 1.232871, -0.00190761, -72.18662, -5.844212, 0
NKF1, 76547113, 0.44, 0.98, 79.27, -0.007659785, 0.1444327, -0.001782386, 0, 0, 0, -0.06760126, 0, 0.01, -0.02
NKF2, 76547113, 31, 0, 0, 0, 0, 0, 0, 0, 0, 0, 0, 0, 0
NKF3, 76547113, 0, 0, 0, 0, 0.24, 0, 0, 0, 0, 0, 0
NKF4, 76547113, 0, 0, 0, 0, 0, 8.836831E-06, 0, 0, 0, 19, 229, 0, 0
NKF5, 76547113, 0, 0, 0, 0, 0.2, 0.13, 0, 0.19, 0.5, 6.611303E-05, 0.006662145, 0.01263575
NKQ1, 76547113, 0.7700815, -0.00419067, 0.008742991, 0.6378718
AHR2, 76547156, 0.42, 1.19, 77.92, 0.03, 0, 0, 0.7775163, -0.003700764, 0.01046664, 0.6287648
MOTB, 76547164, 1, 1, 0, 1
RCIN, 76547168, 0, 0, 0, 0, 0, 0, 0, 0, 0, 0, 0, 0, 0, 0
RCOU, 76547173, 1231, 1239, 1221, 1255, 0, 0, 0, 0, 0, 0, 0, 0, 0, 0
VIBE, 76547182, 0.2793751, 0.3738014, 0.4311154, 0, 0, 0
CTRL, 76547189, 0.004720502, 0.001333582, 0.01035801, 0.0008084429, 0.0005648201
PRX, 76547219, 2, 0.61, 0, 0.62, 0, 3.6, 0, 2.42, 0, 0, 0, 0.61
IMU, 76547226, 0.002031229, 0.005198504, 0.02106105, 0.3000463, -0.1001695, -9.425159, 0, 0, 35.75446, 1, 1, 1000, 1000
IMU, 76586912, -0.001508874, -0.004951127, -0.01256323, 0.3525458, -0.06780194, -9.49247, 0, 0, 35.75449, 1, 1, 1000, 1000
RFND, 76596944, 0.2, 25, 0, 0
IMU, 76626966, -0.0004773262, -0.008638178, -0.007521284, 0.1915865, -0.03040306, -9.448238, 0, 0, 35.75443, 1, 1, 1000, 1000
MAG, 76646863, 379, 529, 328, 0, 0, 0, 0, 0, 0, 1, 76646855
RFND, 76646898, 0.2, 25, 0, 0
BARO, 76646932, 0.08418563, 993.1935, 33.84, 0.2283396, 76646, 0, 32.87
CTUN, 76646945, 0, 0, 0, 0.2988498, 0.06770237, 0.06770237, 0.08, 0, 0.19, 0, 0, 0
ATT, 76647040, 0, 0.44, 0, 0.96, 79.26, 79.26, 0, 1
RATE, 76647047, -2.015678, -0.03848941, -0.004644248, -4.357749, 0.02614062, -0.01365463, 0.01708261, -0.5255184, -0.0004374031, -82.53235, 0.2012253, 0
NKF1, 76647055, 0.44, 0.96, 79.26, -0.008242001, 0.1498572, -0.002037836, 0, 0, 0, -0.06770237, 0, 0.01, -0.02
NKF2, 76647055, 31, 0, 0, 0, 0, 0, 0, 0, 0, 0, 0, 0, 0
NKF3, 76647055, 0, 0, 0, 0, 0.24, 0, 0, 0, 0, 0, 0
NKF4, 76647055, 0, 0, 0, 0, 0, 9.872952E-06, 0, 0, 0, 19, 229, 0, 0
NKF5, 76647055, 0, 0, 0, 0, 0.2, 0.13, 0, 0.19, 0.5, 6.205359E-05, 0.006095209, 0.01133013
NKQ1, 76647055, 0.7701346, -0.004093526, 0.008660324, 0.6378095
AHR2, 76647098, 0.42, 1.17, 77.91, 0.08, 0, 0, 0.7775827, -0.003562802, 0.01033106, 0.6286857
MOTB, 76647106, 1, 1, 0, 1
RCIN, 76647110, 0, 0, 0, 0, 0, 0, 0, 0, 0, 0, 0, 0, 0, 0
RCOU, 76647115, 1228, 1243, 1221, 1251, 0, 0, 0, 0, 0, 0, 0, 0, 0, 0
VIBE, 76647124, 0.5764614, 0.5814009, 0.5779615, 0, 0, 0
CTRL, 76647130, 0.004818298, 0.001429081, 0.01019343, 0.001287891, 0.0007237678
PRX, 76647161, 2, 0.61, 0, 0.63, 0, 3.6, 0, 2.41, 0, 0, 0, 0.61
IMU, 76666936, 0.0001597385, 0.004914221, 0.003843214, 0.06562302, -0.06017236, -9.470051, 0, 0, 35.7543, 1, 1, 1000, 1000
RFND, 76696845, 0.2, 25, 0, 0
IMU, 76707035, -0.001527463, 0.005476148, 0.01226647, 0.2306293, -0.04647464, -9.479498, 0, 0, 35.75312, 1, 1, 1000, 1000
DU32, 76744340, 7, 33611992
MAG, 76746894, 390, 530, 333, 0, 0, 0, 0, 0, 0, 1, 76746885
RFND, 76746924, 0.2, 25, 0, 0
BARO, 76746960, 0.1122475, 993.1902, 33.84, 0.4015619, 76746, 0, 32.87
CTUN, 76746972, 0, 0, 0, 0.2988498, 0.06771084, 0.06771084, 0.11, 0, 0.19, 0, 0, 0
ATT, 76747087, 0, 0.45, 0, 0.96, 79.25, 79.25, 0, 1
RATE, 76747093, -2.024371, 0.05896775, -0.004364244, -4.349181, -0.1377457, -0.01086568, 0.01703635, -0.9318916, 0.0001287164, 17.43036, -3.548622, 0
NKF1, 76747101, 0.45, 0.96, 79.25, -0.006904371, 0.1513913, 0.0004303792, 0, 0, 0, -0.06771084, 0, 0.01, -0.02
NKF2, 76747101, 31, 0, 0, 0, 0, 0, 0, 0, 0, 0, 0, 0, 0
NKF3, 76747101, 0, 0, 0, 0, 0.26, 0, 0, 0, 0, 0, 0
NKF4, 76747101, 0, 0, 0, 0, 0, 1.088473E-05, 0, 0, 0, 19, 229, 0, 0
NKF5, 76747101, 0, 0, 0, 0, 0.2, 0.13, 0, 0.19, 0.5, 7.113686E-05, 0.006237972, 0.0118589
NKQ1, 76747101, 0.7701708, -0.00405507, 0.008661355, 0.6377661
AHR2, 76747142, 0.43, 1.16, 77.9, 0.11, 0, 0, 0.7776321, -0.003465954, 0.01030273, 0.6286257
MOTB, 76747150, 1, 1, 0, 1
RCIN, 76747154, 0, 0, 0, 0, 0, 0, 0, 0, 0, 0, 0, 0, 0, 0
RCOU, 76747160, 1229, 1240, 1221, 1246, 0, 0, 0, 0, 0, 0, 0, 0, 0, 0
VIBE, 76747168, 0.4813926, 0.4819742, 0.6266887, 0, 0, 0
CTRL, 76747174, 0.004854606, 0.001378349, 0.01024641, 0.001796285, 0.000605985
PRX, 76747205, 2, 0.61, 0, 0.62, 0, 3.6, 0, 2.43, 0, 0, 0, 0.61
IMU, 76747212, 0.001188679, -0.002168938, -0.01672126, 0.2694872, -0.05824709, -9.448776, 0, 0, 35.75176, 1, 1, 1000, 1000
IMU, 76786906, -0.0023464, -0.004521721, 0.003394823, 0.4171287, 0.1105636, -9.388412, 0, 0, 35.74979, 1, 1, 1000, 1000
RFND, 76796959, 0.2, 25, 0, 0
IMU, 76826950, 0.002703791, 0.01139889, 0.00199587, 0.02428055, -0.08663658, -9.434761, 0, 0, 35.74673, 1, 1, 1000, 1000
MAG, 76846843, 393, 529, 335, 0, 0, 0, 0, 0, 0, 1, 76846835
RFND, 76846876, 0.2, 25, 0, 0
BARO, 76846909, 0.02525569, 993.2, 33.83, 0.4381174, 76846, 0, 32.87
CTUN, 76846921, 0, 0, 0, 0.2988498, 0.06752361, 0.06752361, 0.02, 0, 0.19, 0, 0, 0
ATT, 76847013, 0, 0.44, 0, 0.96, 79.26, 79.26, 0, 1
RATE, 76847019, -2.016294, -0.2931515, -0.001750407, -4.334651, -0.6215201, -0.004855982, 0.01694433, -0.3779747, 0.0002915, 144.6405, -7.287979, 0
NKF1, 76847027, 0.44, 0.96, 79.26, -0.007651414, 0.1512527, 0.003571369, 0, 0, 0, -0.06752361, 0, 0.01, -0.02
NKF2, 76847027, 31, 0, 0, 0, 0, 0, 0, 0, 0, 0, 0, 0, 0
NKF3, 76847027, 0, 0, 0, 0, 0.26, 0, 0, 0, 0, 0, 0
NKF4, 76847027, 0, 0, 0, 0, 0, 1.196334E-05, 0, 0, 0, 19, 229, 0, 0
NKF5, 76847027, 0, 0, 0, 0, 0.2, 0.13, 0, 0.19, 0.5, 6.579699E-05, 0.005652526, 0.01047651
NKQ1, 76847027, 0.7701467, -0.004069078, 0.008625273, 0.6377954
AHR2, 76847070, 0.43, 1.15, 77.9, 0.02, 0, 0, 0.7776221, -0.003425678, 0.01023578, 0.6286393
MOTB, 76847077, 1, 1, 0, 1
RCIN, 76847081, 0, 0, 0, 0, 0, 0, 0, 0, 0, 0, 0, 0, 0, 0
RCOU, 76847087, 1224, 1230, 1221, 1232, 0, 0, 0, 0, 0, 0, 0, 0, 0, 0
VIBE, 76847095, 0.6099941, 0.6620351, 0.5571843, 0, 0, 0
CTRL, 76847102, 0.004855043, 0.001405956, 0.01029232, 0.002014899, 0.000508072
PRX, 76847132, 2, 0.61, 0, 0.62, 0, 3.6, 0, 2.42, 0, 0, 0, 0.61
IMU, 76867450, 0.004147408, -0.0004783251, -0.00335617, 0.4081668, 0.003821713, -9.548647, 0, 0, 35.74113, 1, 1, 1000, 1000
RFND, 76896875, 0.2, 25, 0, 0
IMU, 76906931, -0.003857308, -0.007482099, 0.0009718214, 0.1756513, 0.01286963, -9.465822, 0, 0, 35.7319, 1, 1, 1000, 1000
MAG, 76946908, 385, 528, 335, 0, 0, 0, 0, 0, 0, 1, 76946899
RFND, 76946941, 0.2, 25, 0, 0
BARO, 76946976, -0.044899, 993.2076, 33.83, 0.2025775, 76946, 0, 32.87
CTUN, 76946988, 0, 0, 0, 0.2988498, 0.06706046, 0.06706046, -0.04, 0, 0.19, 0, 0, 0
ATT, 76947082, 0, 0.45, 0, 0.96, 79.26, 79.27, 0, 1
RATE, 76947088, -2.055233, -0.09013293, -0.004221199, -4.321821, -0.2449141, -0.006403262, 0.017067, 0.418001, -0.0001420835, 153.8343, -1.293182, 0
NKF1, 76947095, 0.45, 0.96, 79.27, -0.006695391, 0.1538273, 0.003798377, 0, 0, 0, -0.06706046, 0, 0.01, -0.02
NKF2, 76947095, 31, 0, 0, 0, 0, 0, 0, 0, 0, 0, 0, 0, 0
NKF3, 76947095, 0, 0, 0, -0.01, 0.28, 0, 0, 0, 0, 0, 0
NKF4, 76947095, 0, 0, 0, 0, 0, 1.320739E-05, 0, 0, 0, 19, 229, 0, 0
NKF5, 76947095, 0, 0, 0, 0, 0.2, 0.13, 0, 0.19, 0.5, 7.673517E-05, 0.005853182, 0.0111951
NKQ1, 76947095, 0.7701015, -0.004023187, 0.008646079, 0.6378502
AHR2, 76947138, 0.43, 1.15, 77.91, -0.04, 0, 0, 0.7775916, -0.003374334, 0.01019766, 0.628678
MOTB, 76947146, 1, 1, 0, 1
RCIN, 76947151, 0, 0, 0, 0, 0, 0, 0, 0, 0, 0, 0, 0, 0, 0
RCOU, 76947157, 1228, 1232, 1221, 1239, 0, 0, 0, 0, 0, 0, 0, 0, 0, 0
VIBE, 76947165, 0.5458468, 0.6147046, 0.5325322, 0, 0, 0
CTRL, 76947172, 0.004841786, 0.001335326, 0.01026877, 0.001990286, 0.0004269185
PRX, 76947203, 2, 0.61, 0, 0.62, 0, 3.6, 0, 2.41, 0, 0, 0, 0.61
IMU, 76947209, -0.001413512, -0.004039535, 0.006838814, 0.1192532, -0.1379819, -9.473625, 0, 0, 35.71903, 1, 1, 1000, 1000
IMU, 76986955, 0.003055542, 0.00840939, -0.005216579, 0.2614681, 0.01565866, -9.452632, 0, 0, 35.70353, 1, 1, 1000, 1000
RFND, 76996844, 0.2, 25, 0, 0
IMU, 77026923, -0.003379668, -0.005499767, 0.0006967836, 0.1925799, -0.1290481, -9.443148, 0, 0, 35.68607, 1, 1, 1000, 1000
