FMT, 128, 89, FMT, BBnNZ, Type,Length,Name,Format,Columns
FMT, 129, 31, PARM, QNf, TimeUS,Name,Value
FMT, 130, 46, GPS, QBIHBcLLefffB, TimeUS,Status,GMS,GWk,NSats,HDop,Lat,Lng,Alt,Spd,GCrs,VZ,U
FMT, 131, 46, GPS2, QBIHBcLLefffB, TimeUS,Status,GMS,GWk,NSats,HDop,Lat,Lng,Alt,Spd,GCrs,VZ,U
FMT, 132, 46, GPSB, QBIHBcLLefffB, TimeUS,Status,GMS,GWk,NSats,HDop,Lat,Lng,Alt,Spd,GCrs,VZ,U
FMT, 193, 24, GPA, QCCCCBI, TimeUS,VDop,HAcc,VAcc,SAcc,VV,SMS
FMT, 194, 24, GPA2, QCCCCBI, TimeUS,VDop,HAcc,VAcc,SAcc,VV,SMS
FMT, 195, 24, GPAB, QCCCCBI, TimeUS,VDop,HAcc,VAcc,SAcc,VV,SMS
FMT, 133, 53, IMU, QffffffIIfBBHH, TimeUS,GyrX,GyrY,GyrZ,AccX,AccY,AccZ,EG,EA,T,GH,AH,GHz,AHz
FMT, 134, 75, MSG, QZ, TimeUS,Message
FMT, 135, 39, RCIN, QHHHHHHHHHHHHHH, TimeUS,C1,C2,C3,C4,C5,C6,C7,C8,C9,C10,C11,C12,C13,C14
FMT, 136, 39, RCOU, QHHHHHHHHHHHHHH, TimeUS,C1,C2,C3,C4,C5,C6,C7,C8,C9,C10,C11,C12,C13,C14
FMT, 137, 15, RSSI, Qf, TimeUS,RXRSSI
FMT, 139, 37, BARO, QffcfIff, TimeUS,Alt,Press,Temp,CRt,SMS,Offset,GndTemp
FMT, 140, 22, POWR, QffHB, TimeUS,Vcc,VServo,Flags,Safety
FMT, 143, 45, CMD, QHHHfffffff, TimeUS,CTot,CNum,CId,Prm1,Prm2,Prm3,Prm4,Lat,Lng,Alt
FMT, 144, 20, RAD, QBBBBBHH, TimeUS,RSSI,RemRSSI,TxBuf,Noise,RemNoise,RxErrors,Fixed
FMT, 146, 43, CAM, QIHLLeeeccC, TimeUS,GPSTime,GPSWeek,Lat,Lng,Alt,RelAlt,GPSAlt,Roll,Pitch,Yaw
FMT, 232, 43, TRIG, QIHLLeeeccC, TimeUS,GPSTime,GPSWeek,Lat,Lng,Alt,RelAlt,GPSAlt,Roll,Pitch,Yaw
FMT, 162, 30, ARSP, QffcffB, TimeUS,Airspeed,DiffPress,Temp,RawPress,Offset,U
FMT, 164, 45, CURR, QfffcHHHHHHHHHH, TimeUS,Volt,Curr,CurrTot,Temp,V1,V2,V3,V4,V5,V6,V7,V8,V9,V10
FMT, 165, 45, CUR2, QfffcHHHHHHHHHH, TimeUS,Volt,Curr,CurrTot,Temp,V1,V2,V3,V4,V5,V6,V7,V8,V9,V10
FMT, 163, 27, ATT, QccccCCCC, TimeUS,DesRoll,Roll,DesPitch,Pitch,DesYaw,Yaw,ErrRP,ErrYaw
FMT, 166, 34, MAG, QhhhhhhhhhBI, TimeUS,MagX,MagY,MagZ,OfsX,OfsY,OfsZ,MOfsX,MOfsY,MOfsZ,Health,S
FMT, 169, 14, MODE, QMBB, TimeUS,Mode,ModeNum,Rsn
FMT, 196, 17, RFND, QCBCB, TimeUS,Dist1,Orient1,Dist2,Orient2
FMT, 223, 33, DMS, IIIIIBBBBBBBBBB, TimeMS,N,Dp,RT,RS,Er,Fa,Fmn,Fmx,Pa,Pmn,Pmx,Sa,Smn,Smx
FMT, 240, 41, BCN, QBBfffffff, TimeUS,Health,Cnt,D0,D1,D2,D3,PosX,PosY,PosZ
FMT, 138, 53, IMU2, QffffffIIfBBHH, TimeUS,GyrX,GyrY,GyrZ,AccX,AccY,AccZ,EG,EA,T,GH,AH,GHz,AHz
FMT, 147, 53, IMU3, QffffffIIfBBHH, TimeUS,GyrX,GyrY,GyrZ,AccX,AccY,AccZ,EG,EA,T,GH,AH,GHz,AHz
FMT, 141, 45, AHR2, QccCfLLffff, TimeUS,Roll,Pitch,Yaw,Alt,Lat,Lng,Q1,Q2,Q3,Q4
FMT, 180, 31, POS, QLLfff, TimeUS,Lat,Lng,Alt,RelHomeAlt,RelOriginAlt
FMT, 142, 45, SIM, QccCfLLffff, TimeUS,Roll,Pitch,Yaw,Alt,Lat,Lng,Q1,Q2,Q3,Q4
FMT, 198, 51, NKF1, QccCfffffffccc, TimeUS,Roll,Pitch,Yaw,VN,VE,VD,dPD,PN,PE,PD,GX,GY,GZ
FMT, 199, 35, NKF2, QbccccchhhhhhB, TimeUS,AZbias,GSX,GSY,GSZ,VWN,VWE,MN,ME,MD,MX,MY,MZ,MI
FMT, 200, 33, NKF3, Qcccccchhhcc, TimeUS,IVN,IVE,IVD,IPN,IPE,IPD,IMX,IMY,IMZ,IYAW,IVT
FMT, 201, 35, NKF4, QcccccfbbHBHHb, TimeUS,SV,SP,SH,SM,SVT,errRP,OFN,OFE,FS,TS,SS,GPS,PI
FMT, 202, 40, NKF5, QBhhhcccCCfff, TimeUS,NI,FIX,FIY,AFI,HAGL,offset,RI,rng,Herr,eAng,eVel,ePos
FMT, 203, 51, NKF6, QccCfffffffccc, TimeUS,Roll,Pitch,Yaw,VN,VE,VD,dPD,PN,PE,PD,GX,GY,GZ
FMT, 204, 35, NKF7, QbccccchhhhhhB, TimeUS,AZbias,GSX,GSY,GSZ,VWN,VWE,MN,ME,MD,MX,MY,MZ,MI
FMT, 205, 33, NKF8, Qcccccchhhcc, TimeUS,IVN,IVE,IVD,IPN,IPE,IPD,IMX,IMY,IMZ,IYAW,IVT
FMT, 206, 35, NKF9, QcccccfbbHBHHb, TimeUS,SV,SP,SH,SM,SVT,errRP,OFN,OFE,FS,TS,SS,GPS,PI
FMT, 207, 36, NKF0, QBccCCcccccccc, TimeUS,ID,rng,innov,SIV,TR,BPN,BPE,BPD,OFH,OFL,OFN,OFE,OFD
FMT, 208, 27, NKQ1, Qffff, TimeUS,Q1,Q2,Q3,Q4
FMT, 209, 27, NKQ2, Qffff, TimeUS,Q1,Q2,Q3,Q4
FMT, 210, 51, XKF1, QccCfffffffccc, TimeUS,Roll,Pitch,Yaw,VN,VE,VD,dPD,PN,PE,PD,GX,GY,GZ
FMT, 211, 34, XKF2, QccccchhhhhhB, TimeUS,AX,AY,AZ,VWN,VWE,MN,ME,MD,MX,MY,MZ,MI
FMT, 212, 33, XKF3, Qcccccchhhcc, TimeUS,IVN,IVE,IVD,IPN,IPE,IPD,IMX,IMY,IMZ,IYAW,IVT
FMT, 213, 35, XKF4, QcccccfbbHBHHb, TimeUS,SV,SP,SH,SM,SVT,errRP,OFN,OFE,FS,TS,SS,GPS,PI
FMT, 214, 40, XKF5, QBhhhcccCCfff, TimeUS,NI,FIX,FIY,AFI,HAGL,offset,RI,rng,Herr,eAng,eVel,ePos
FMT, 215, 51, XKF6, QccCfffffffccc, TimeUS,Roll,Pitch,Yaw,VN,VE,VD,dPD,PN,PE,PD,GX,GY,GZ
FMT, 216, 34, XKF7, QccccchhhhhhB, TimeUS,AX,AY,AZ,VWN,VWE,MN,ME,MD,MX,MY,MZ,MI
FMT, 217, 33, XKF8, Qcccccchhhcc, TimeUS,IVN,IVE,IVD,IPN,IPE,IPD,IMX,IMY,IMZ,IYAW,IVT
FMT, 218, 35, XKF9, QcccccfbbHBHHb, TimeUS,SV,SP,SH,SM,SVT,errRP,OFN,OFE,FS,TS,SS,GPS,PI
FMT, 219, 36, XKF0, QBccCCcccccccc, TimeUS,ID,rng,innov,SIV,TR,BPN,BPE,BPD,OFH,OFL,OFN,OFE,OFD
FMT, 220, 27, XKQ1, Qffff, TimeUS,Q1,Q2,Q3,Q4
FMT, 221, 27, XKQ2, Qffff, TimeUS,Q1,Q2,Q3,Q4
FMT, 222, 35, XKFD, Qffffff, TimeUS,IX,IY,IZ,IVX,IVY,IVZ
FMT, 148, 34, TERR, QBLLHffHH, TimeUS,Status,Lat,Lng,Spacing,TerrH,CHeight,Pending,Loaded
FMT, 149, 18, UBX1, QBHBBH, TimeUS,Instance,noisePerMS,jamInd,aPower,agcCnt
FMT, 150, 16, UBX2, QBbBbB, TimeUS,Instance,ofsI,magI,ofsQ,magQ
FMT, 151, 18, UBY1, QBHBBH, TimeUS,Instance,noisePerMS,jamInd,aPower,agcCnt
FMT, 152, 16, UBY2, QBbBbB, TimeUS,Instance,ofsI,magI,ofsQ,magQ
FMT, 170, 42, GRAW, QIHBBddfBbB, TimeUS,WkMS,Week,numSV,sv,cpMes,prMes,doMes,mesQI,cno,lli
FMT, 171, 24, GRXH, QdHbBB, TimeUS,rcvTime,week,leapS,numMeas,recStat
FMT, 172, 41, GRXS, QddfBBBHBBBBB, TimeUS,prMes,cpMes,doMes,gnss,sv,freq,lock,cno,prD,cpD,doD,trk
FMT, 173, 63, SBFE, QIHBBdddfffff, TimeUS,TOW,WN,Mode,Err,Lat,Lng,Height,Undul,Vn,Ve,Vu,COG
FMT, 153, 19, ESC1, Qcccc, TimeUS,RPM,Volt,Curr,Temp
FMT, 154, 19, ESC2, Qcccc, TimeUS,RPM,Volt,Curr,Temp
FMT, 155, 19, ESC3, Qcccc, TimeUS,RPM,Volt,Curr,Temp
FMT, 156, 19, ESC4, Qcccc, TimeUS,RPM,Volt,Curr,Temp
FMT, 157, 19, ESC5, Qcccc, TimeUS,RPM,Volt,Curr,Temp
FMT, 158, 19, ESC6, Qcccc, TimeUS,RPM,Volt,Curr,Temp
FMT, 159, 19, ESC7, Qcccc, TimeUS,RPM,Volt,Curr,Temp
FMT, 160, 19, ESC8, Qcccc, TimeUS,RPM,Volt,Curr,Temp
FMT, 167, 34, MAG2, QhhhhhhhhhBI, TimeUS,MagX,MagY,MagZ,OfsX,OfsY,OfsZ,MOfsX,MOfsY,MOfsZ,Health,S
FMT, 168, 34, MAG3, QhhhhhhhhhBI, TimeUS,MagX,MagY,MagZ,OfsX,OfsY,OfsZ,MOfsX,MOfsY,MOfsZ,Health,S
FMT, 174, 31, ACC1, QQfff, TimeUS,SampleUS,AccX,AccY,AccZ
FMT, 175, 31, ACC2, QQfff, TimeUS,SampleUS,AccX,AccY,AccZ
FMT, 176, 31, ACC3, QQfff, TimeUS,SampleUS,AccX,AccY,AccZ
FMT, 177, 31, GYR1, QQfff, TimeUS,SampleUS,GyrX,GyrY,GyrZ
FMT, 178, 31, GYR2, QQfff, TimeUS,SampleUS,GyrX,GyrY,GyrZ
FMT, 179, 31, GYR3, QQfff, TimeUS,SampleUS,GyrX,GyrY,GyrZ
FMT, 181, 35, PIDR, Qffffff, TimeUS,Des,P,I,D,FF,AFF
FMT, 182, 35, PIDP, Qffffff, TimeUS,Des,P,I,D,FF,AFF
FMT, 183, 35, PIDY, Qffffff, TimeUS,Des,P,I,D,FF,AFF
FMT, 184, 35, PIDA, Qffffff, TimeUS,Des,P,I,D,FF,AFF
FMT, 185, 35, PIDS, Qffffff, TimeUS,Des,P,I,D,FF,AFF
FMT, 186, 35, PIDL, Qffffff, TimeUS,Des,P,I,D,FF,AFF
FMT, 161, 37, BAR2, QffcfIff, TimeUS,Alt,Press,Temp,CRt,SMS,Offset,GndTemp
FMT, 197, 37, BAR3, QffcfIff, TimeUS,Alt,Press,Temp,CRt,SMS,Offset,GndTemp
FMT, 187, 35, VIBE, QfffIII, TimeUS,VibeX,VibeY,VibeZ,Clip0,Clip1,Clip2
FMT, 188, 47, IMT, Qfffffffff, TimeUS,DelT,DelvT,DelaT,DelAX,DelAY,DelAZ,DelVX,DelVY,DelVZ
FMT, 189, 47, IMT2, Qfffffffff, TimeUS,DelT,DelvT,DelaT,DelAX,DelAY,DelAZ,DelVX,DelVY,DelVZ
FMT, 190, 47, IMT3, Qfffffffff, TimeUS,DelT,DelvT,DelaT,DelAX,DelAY,DelAZ,DelVX,DelVY,DelVZ
FMT, 191, 24, ORGN, QBLLe, TimeUS,Type,Lat,Lng,Alt
FMT, 192, 19, RPM, Qff, TimeUS,rpm1,rpm2
FMT, 233, 47, GMB1, Iffffffffff, TimeMS,dt,dax,day,daz,dvx,dvy,dvz,jx,jy,jz
FMT, 234, 44, GMB2, IBfffffffff, TimeMS,es,ex,ey,ez,rx,ry,rz,tx,ty,tz
FMT, 235, 13, GMB3, Ihhh, TimeMS,rl_torque_cmd,el_torque_cmd,az_torque_cmd
FMT, 236, 59, RATE, Qffffffffffff, TimeUS,RDes,R,ROut,PDes,P,POut,YDes,Y,YOut,ADes,A,AOut
FMT, 237, 23, RALY, QBBLLh, TimeUS,Tot,Seq,Lat,Lng,Alt
FMT, 238, 43, VISO, Qffffffff, TimeUS,dt,AngDX,AngDY,AngDZ,PosDX,PosDY,PosDZ,conf
FMT, 224, 23, SBPH, QIII, TimeUS,CrcError,LastInject,IARhyp
FMT, 229, 80, SBR1, QHHBZ, TimeUS,msg_type,sender_id,msg_len,d1
FMT, 230, 205, SBR2, QHZZZ, TimeUS,msg_type,d2,d3,d4
FMT, 25, 41, ATUN, QBBfffffff, TimeUS,Axis,TuneStep,Targ,Min,Max,RP,RD,SP,ddt
FMT, 26, 19, ATDE, Qff, TimeUS,Angle,Rate
FMT, 31, 22, PTUN, QBfHHH, TimeUS,Param,TunVal,CtrlIn,TunLo,TunHi
FMT, 12, 28, OF, QBffff, TimeUS,Qual,flowX,flowY,bodyX,bodyY
FMT, 5, 51, NTUN, Qffffffffff, TimeUS,DPosX,DPosY,PosX,PosY,DVelX,DVelY,VelX,VelY,DAccX,DAccY
FMT, 4, 51, CTUN, Qffffffeccfhh, TimeUS,ThI,ABst,ThO,ThH,DAlt,Alt,BAlt,DSAlt,SAlt,TAlt,DCRt,CRt
FMT, 6, 32, PM, QHHIhBHII, TimeUS,NLon,NLoop,MaxT,PMT,I2CErr,INSErr,LogDrop,Mem
FMT, 30, 27, MOTB, Qffff, TimeUS,LiftMax,BatVolt,BatRes,ThLimit
FMT, 13, 12, EV, QB, TimeUS,Id
FMT, 20, 14, D16, QBh, TimeUS,Id,Value
FMT, 21, 14, DU16, QBH, TimeUS,Id,Value
FMT, 22, 16, D32, QBi, TimeUS,Id,Value
FMT, 23, 16, DU32, QBI, TimeUS,Id,Value
FMT, 24, 16, DFLT, QBf, TimeUS,Id,Value
FMT, 19, 13, ERR, QBB, TimeUS,Subsys,ECode
FMT, 32, 19, HELI, Qff, TimeUS,DRRPM,ERRPM
FMT, 33, 29, PL, QBBffff, TimeUS,Heal,TAcq,pX,pY,vX,vY
FMT, 34, 36, GUID, QBffffff, TimeUS,Type,pX,pY,pZ,vX,vY,vZ
FMT, 35, 32, THRO, QBffffbbbb, TimeUS,Stage,Vel,VelZ,Acc,AccEfZ,Throw,AttOk,HgtOk,PosOk
FMT, 36, 56, PRX, QBfffffffffff, TimeUS,Health,D0,D45,D90,D135,D180,D225,D270,D315,DUp,CAn,CDis
MODE, 43427799, 100, 100, 2
FMT, 254, 47, NKT1, QIffffffff, TimeUS,Cnt,IMUMin,IMUMax,EKFMin,EKFMax,AngMin,AngMax,VelMin,VelM
FMT, 253, 31, CTRL, Qfffff, TimeUS,RMSRollP,RMSRollD,RMSPitchP,RMSPitchD,RMSYaw
IMU, 43495891, -0.0005244128, -0.0003118598, -0.0006288321, 0.2480205, -0.03958756, -9.808991, 0, 0, 35.15152, 1, 1, 1000, 1000
MSG, 43570630, APM:Copter V3.5.7 (38483450)
MSG, 43570635, New mission
MSG, 43570646, Frame: QUAD
MODE, 43570650, Autonomous, 100, 2
IMU, 43577790, 0.001012398, -0.002187319, -0.001259315, 0.2740714, -0.03301546, -9.810579, 0, 0, 35.15312, 1, 1, 1000, 1000
RFND, 43607953, 0.2, 25, 0, 0
IMU, 43617768, -0.0004294995, -0.0005065569, -0.0008205017, 0.2560869, -0.026459, -9.801396, 0, 0, 35.15419, 1, 1, 1000, 1000
MAG, 43657617, 408, 532, 314, 0, 0, 0, 0, 0, 0, 1, 43657609
RFND, 43657652, 0.2, 25, 0, 0
BARO, 43657687, 0.05323568, 993.3226, 33.26, 0.4036362, 43657, 0, 32.4
CTUN, 43657699, 0, 0, 0, 0.2985805, 0.0580745, 0.0580745, 0.05, 0, 0.19, 0, 0, 0
ATT, 43657798, 0, 0.22, 0, -0.07, 33.53, 33.53, 0, 1
RATE, 43657804, -1.000792, -0.01984792, -0.002396718, 0.3439285, 0.004796525, 0.0007225443, -0.002278332, 0.07212212, -7.713037E-05, 379.1067, 0.9023666, 0
NKF1, 43657812, 0.22, -0.07, 33.53, 0.04315179, 0.04497404, 0.009360658, 0, 0, 0, -0.0580745, 0, 0.02, -0.06
NKF2, 43657812, 0, 0, 0, 0, 0, 0, 0, 0, 0, 0, 0, 0, 0
NKF3, 43657812, 0, 0, 0, 0.05, 0.04, 0, 0, 0, 0, 0, 0
NKF4, 43657812, 0, 0, 0, 0, 0, 0.0001451469, 0, 0, 0, 19, 229, 0, 0
NKF5, 43657812, 0, 0, 0, 0, 0.19, 0.13, 0, 0.19, 0.5, 0.0004024143, 0.00158253, 0.00401159
NKQ1, 43657812, 0.9574099, -0.001416282, 0.01255053, 0.2884559
AHR2, 43657856, 0.19, 0.18, 31.55, 0.05, 0, 0, 0.9623178, 0.001212237, 0.001983793, 0.2719175
MOTB, 43657863, 1, 1, 0, 1
RCIN, 43657867, 0, 0, 0, 0, 0, 0, 0, 0, 0, 0, 0, 0, 0, 0
RCOU, 43657873, 1101, 1101, 1101, 1101, 0, 0, 0, 0, 0, 0, 0, 0, 0, 0
VIBE, 43657881, 0.02055676, 0.02092429, 0.03442074, 0, 0, 0
CTRL, 43657888, 0.002378185, 0.0001677587, 0.0009812199, 0.0002120888, 0.000156029
PRX, 43657918, 2, 0.64, 0, 0.58, 0, 3.6, 0, 2.44, 0, 0, 90, 0.58
IMU, 43657925, -0.0002679605, 0.0005392001, 9.029873E-05, 0.2709922, -0.04318018, -9.81476, 0, 0, 35.15572, 1, 1, 1000, 1000
IMU, 43698185, 0.0009412504, 0.0007636361, -0.0008431867, 0.2589627, -0.0220043, -9.821475, 0, 0, 35.15677, 1, 1, 1000, 1000
RFND, 43707723, 0.2, 25, 0, 0
IMU, 43737955, 0.0002346092, 0.001089218, -0.00192188, 0.2577189, -0.03893067, -9.810382, 0, 0, 35.15676, 1, 1, 1000, 1000
MAG, 43757704, 411, 531, 310, 0, 0, 0, 0, 0, 0, 1, 43757695
RFND, 43757737, 0.2, 25, 0, 0
BARO, 43757772, 0.09246197, 993.318, 33.26, 0.2885916, 43757, 0, 32.4
CTUN, 43757785, 0, 0, 0, 0.2985805, 0.05784993, 0.05784993, 0.09, 0, 0.19, 0, 0, 0
ATT, 43757882, 0, 0.22, 0, -0.07, 33.53, 33.53, 0, 1
RATE, 43757889, -1.008074, 0.01857752, -0.002368748, 0.3220282, 0.01840653, 0.0009051212, -0.0006495499, -0.006517034, -4.280978E-05, 365.2427, -0.6160736, 0
NKF1, 43757897, 0.22, -0.07, 33.53, 0.04210691, 0.04510087, 0.009018339, 0, 0, 0, -0.05784993, 0, 0.02, -0.06
NKF2, 43757897, 0, 0, 0, 0, 0, 0, 0, 0, 0, 0, 0, 0, 0
NKF3, 43757897, 0, 0, 0, 0.06, 0.04, 0, 0, 0, 0, 0, 0
NKF4, 43757897, 0, 0, 0, 0, 0, 9.3585E-05, 0, 0, 0, 19, 229, 0, 0
NKF5, 43757897, 0, 0, 0, 0, 0.19, 0.13, 0, 0.19, 0.5, 0.0002683609, 0.00280839, 0.006943637
NKQ1, 43757897, 0.9574117, -0.001418985, 0.01259486, 0.2884479
AHR2, 43757941, 0.19, 0.18, 31.55, 0.09, 0, 0, 0.9623302, 0.001206574, 0.002012274, 0.2718733
MOTB, 43757949, 1, 1, 0, 1
RCIN, 43757953, 0, 0, 0, 0, 0, 0, 0, 0, 0, 0, 0, 0, 0, 0
RCOU, 43757958, 1101, 1101, 1101, 1101, 0, 0, 0, 0, 0, 0, 0, 0, 0, 0
VIBE, 43757967, 0.01909904, 0.02014262, 0.03323456, 0, 0, 0
CTRL, 43757974, 0.002388757, 0.0001495149, 0.0009037801, 0.0002392552, 0.0001383759
PRX, 43758003, 2, 0.64, 0, 0.58, 0, 3.6, 0, 2.42, 0, 0, 90, 0.58
IMU, 43777795, -0.0002227717, 0.0007612988, -0.000331916, 0.2640202, -0.04340489, -9.798085, 0, 0, 35.15662, 1, 1, 1000, 1000
RFND, 43807763, 0.2, 25, 0, 0
IMU, 43817800, -0.0001707296, 0.0006452898, -0.00137997, 0.2430182, -0.03686681, -9.793522, 0, 0, 35.15693, 1, 1, 1000, 1000
MAG, 43857719, 406, 534, 316, 0, 0, 0, 0, 0, 0, 1, 43857710
RFND, 43857753, 0.2, 25, 0, 0
BARO, 43857789, 0.09246197, 993.3183, 33.26, 0.1556112, 43857, 0, 32.4
CTUN, 43857802, 0, 0, 0, 0.2985805, 0.05749787, 0.05749787, 0.09, 0, 0.19, 0, 0, 0
DU32, 43857839, 7, 50389208
ATT, 43857981, 0, 0.22, 0, -0.06, 33.53, 33.53, 0, 1
RATE, 43857986, -0.9971232, 0.006082102, -0.002518716, 0.306693, -0.009279, 0.0009759475, -8.099406E-05, -0.0248584, -1.93662E-05, 365.2492, 0.5897522, 0
NKF1, 43857995, 0.22, -0.06, 33.53, 0.04201876, 0.04530137, 0.009018499, 0, 0, 0, -0.05749787, 0, 0.02, -0.06
NKF2, 43857995, 0, 0, 0, 0, 0, 0, 0, 0, 0, 0, 0, 0, 0
NKF3, 43857995, 0, 0, 0, 0.07, 0.05, 0, 0, 0, 0, 0, 0
NKF4, 43857995, 0, 0, 0, 0, 0, 6.251114E-05, 0, 0, 0, 19, 229, 0, 0
NKF5, 43857995, 0, 0, 0, 0, 0.19, 0.13, 0, 0.19, 0.5, 0.0001665845, 0.003899051, 0.009440978
NKQ1, 43857995, 0.9574124, -0.001445373, 0.01261708, 0.2884449
AHR2, 43858038, 0.19, 0.18, 31.54, 0.09, 0, 0, 0.9623439, 0.001173196, 0.002034359, 0.271825
MOTB, 43858045, 1, 1, 0, 1
RCIN, 43858050, 0, 0, 0, 0, 0, 0, 0, 0, 0, 0, 0, 0, 0, 0
RCOU, 43858056, 1101, 1101, 1101, 1101, 0, 0, 0, 0, 0, 0, 0, 0, 0, 0
VIBE, 43858065, 0.01877191, 0.01926464, 0.03313594, 0, 0, 0
CTRL, 43858071, 0.002361912, 0.0001440786, 0.0008430324, 0.0002155676, 0.0001180909
PRX, 43858102, 2, 0.64, 0, 0.58, 0, 3.6, 0, 2.44, 0, 0, 90, 0.58
IMU, 43858109, 0.0001848825, 0.0002950806, -0.001606356, 0.2689423, -0.04005564, -9.811682, 0, 0, 35.15855, 1, 1, 1000, 1000
IMU, 43898126, 0.000143108, 0.0007731251, -0.000563492, 0.2553396, -0.03718937, -9.807445, 0, 0, 35.15981, 1, 1, 1000, 1000
RFND, 43907813, 0.2, 25, 0, 0
IMU, 43937999, 0.001600557, 0.0012836, -0.001607512, 0.2545784, -0.04268862, -9.79059, 0, 0, 35.16086, 1, 1, 1000, 1000
MAG, 43957680, 406, 532, 308, 0, 0, 0, 0, 0, 0, 1, 43957672
RFND, 43957765, 0.2, 25, 0, 0
BARO, 43957807, 0.04483004, 993.3234, 33.26, 0.08634735, 43957, 0, 32.4
CTUN, 43957820, 0, 0, 0, 0.2985805, 0.05728427, 0.05728427, 0.04, 0, 0.19, 0, 0, 0
ATT, 43958388, 0, 0.22, 0, -0.06, 33.53, 33.54, 0, 1
RATE, 43958396, -1.017313, 0.04501894, -0.002405455, 0.2916436, -0.02493612, 0.001052934, -0.001495104, 0.1965704, -0.0001915252, 377.6346, -0.0705719, 0
NKF1, 43958407, 0.22, -0.06, 33.54, 0.0417463, 0.04581711, 0.00932431, 0, 0, 0, -0.05728427, 0, 0.02, -0.06
NKF2, 43958407, 0, 0, 0, 0, 0, 0, 0, 0, 0, 0, 0, 0, 0
NKF3, 43958407, 0, 0, 0, 0.07, 0.05, 0, 0, 0, 0, 0, 0
NKF4, 43958407, 0, 0, 0, 0, 0, 4.233802E-05, 0, 0, 0, 19, 229, 0, 0
NKF5, 43958407, 0, 0, 0, 0, 0.19, 0.13, 0, 0.19, 0.5, 9.382862E-05, 0.004659384, 0.01120744
NKQ1, 43958407, 0.9573911, -0.001420249, 0.01265804, 0.2885133
AHR2, 43958455, 0.19, 0.19, 31.54, 0.04, 0, 0, 0.9623384, 0.001192736, 0.002078933, 0.2718439
MOTB, 43958463, 1, 1, 0, 1
RCIN, 43958468, 0, 0, 0, 0, 0, 0, 0, 0, 0, 0, 0, 0, 0, 0
RCOU, 43958474, 1101, 1101, 1101, 1101, 0, 0, 0, 0, 0, 0, 0, 0, 0, 0
VIBE, 43958483, 0.01761453, 0.0197041, 0.03593618, 0, 0, 0
CTRL, 43958490, 0.002405663, 0.0001531216, 0.0007786136, 0.0002022795, 0.0001214824
PRX, 43958521, 2, 0.64, 0, 0.58, 0, 3.6, 0, 2.44, 0, 0, 90, 0.58
IMU, 43977821, -0.0001108571, 0.0009703867, 0.0007810547, 0.2624704, -0.03494629, -9.815929, 0, 0, 35.16126, 1, 1, 1000, 1000
RFND, 44007834, 0.2, 25, 0, 0
IMU, 44018140, 0.001022486, 0.002299254, 0.0006397359, 0.2552029, -0.03271934, -9.792509, 0, 0, 35.15978, 1, 1, 1000, 1000
MAG, 44057887, 409, 529, 310, 0, 0, 0, 0, 0, 0, 1, 44057878
RFND, 44057922, 0.2, 25, 0, 0
BARO, 44057959, -0.01681127, 993.3301, 33.26, -0.005441734, 44057, 0, 32.4
CTUN, 44057971, 0, 0, 0, 0.2985805, 0.05701054, 0.05701054, -0.01, 0, 0.19, 0, 0, 0
ATT, 44058073, 0, 0.22, 0, -0.06, 33.54, 33.55, 0, 1
RATE, 44058079, -1.017809, -0.01252063, -0.002307266, 0.275993, -0.02088306, 0.0007189986, -0.002048481, 0.04138659, -0.0002074859, 385.3869, -0.6865501, 0
NKF1, 44058087, 0.22, -0.06, 33.55, 0.04174691, 0.04729715, 0.009515725, 0, 0, 0, -0.05701054, 0, 0.02, -0.06
NKF2, 44058087, 0, 0, 0, 0, 0, 0, 0, 0, 0, 0, 0, 0, 0
NKF3, 44058087, 0, 0, 0, 0.07, 0.06, 0, 0, 0, 0, 0, 0
NKF4, 44058087, 0, 0, 0, 0, 0, 2.872621E-05, 0, 0, 0, 19, 229, 0, 0
NKF5, 44058087, 0, 0, 0, 0, 0.19, 0.13, 0, 0.19, 0.5, 5.133329E-05, 0.005120533, 0.01238239
NKQ1, 44058087, 0.9573753, -0.001426482, 0.01268614, 0.2885647
AHR2, 44058131, 0.19, 0.19, 31.54, -0.01, 0, 0, 0.9623391, 0.001183073, 0.002112896, 0.2718411
MOTB, 44058138, 1, 1, 0, 1
RCIN, 44058142, 0, 0, 0, 0, 0, 0, 0, 0, 0, 0, 0, 0, 0, 0
RCOU, 44058148, 1101, 1101, 1101, 1101, 0, 0, 0, 0, 0, 0, 0, 0, 0, 0
VIBE, 44058156, 0.022815, 0.01955421, 0.03343453, 0, 0, 0
CTRL, 44058164, 0.002405208, 0.0001801698, 0.0007325565, 0.0002105046, 0.0001722952
PRX, 44058194, 2, 0.64, 0, 0.59, 0, 3.6, 0, 2.46, 0, 0, 90, 0.59
IMU, 44058202, -0.0001393343, 9.517484E-05, -0.0004569418, 0.27105, -0.02594029, -9.798928, 0, 0, 35.15819, 1, 1, 1000, 1000
IMU, 44097907, 0.001221972, 0.0004735449, 0.0001090324, 0.2608055, -0.03842018, -9.814059, 0, 0, 35.15785, 1, 1, 1000, 1000
RFND, 44107981, 0.2, 25, 0, 0
IMU, 44138016, 0.0004688334, 0.0004229211, 3.172056E-05, 0.2685699, -0.03185706, -9.799787, 0, 0, 35.15842, 1, 1, 1000, 1000
MAG, 44157780, 404, 538, 306, 0, 0, 0, 0, 0, 0, 1, 44157772
RFND, 44157815, 0.2, 25, 0, 0
BARO, 44157852, -0.03362253, 993.3322, 33.26, -0.1988812, 44157, 0, 32.4
CTUN, 44157865, 0, 0, 0, 0.2985805, 0.05675202, 0.05675202, -0.03, 0, 0.19, 0, 0, 0
ATT, 44157965, 0, 0.22, 0, -0.05, 33.54, 33.55, 0, 1
RATE, 44157971, -1.020733, -0.06196242, -0.002162942, 0.2650217, 0.06070661, 0.0003590923, -0.0007576882, 0.03457871, -0.0001485586, 387.3075, -1.284218, 0
NKF1, 44157978, 0.22, -0.05, 33.55, 0.04212763, 0.04883815, 0.009563147, 0, 0, 0, -0.05675202, 0, 0.02, -0.06
NKF2, 44157978, 0, 0, 0, 0, 0, 0, 0, 0, 0, 0, 0, 0, 0
NKF3, 44157978, 0, 0, 0, 0.07, 0.06, 0, 0, 0, 0, 0, 0
NKF4, 44157978, 0, 0, 0, 0, 0, 1.978881E-05, 0, 0, 0, 19, 229, 0, 0
NKF5, 44157978, 0, 0, 0, 0, 0.19, 0.13, 0, 0.19, 0.5, 3.554128E-05, 0.005407418, 0.01311751
NKQ1, 44157978, 0.9573668, -0.001426026, 0.01270815, 0.2885924
AHR2, 44158023, 0.19, 0.19, 31.54, -0.03, 0, 0, 0.9623472, 0.001176988, 0.002143172, 0.2718122
MOTB, 44158031, 1, 1, 0, 1
RCIN, 44158035, 0, 0, 0, 0, 0, 0, 0, 0, 0, 0, 0, 0, 0, 0
RCOU, 44158041, 1101, 1101, 1101, 1101, 0, 0, 0, 0, 0, 0, 0, 0, 0, 0
VIBE, 44158049, 0.02003037, 0.01875264, 0.03799452, 0, 0, 0
CTRL, 44158056, 0.002420965, 0.0001960436, 0.0006919074, 0.0001925767, 0.0001655629
PRX, 44158086, 2, 0.64, 0, 0.58, 0, 3.6, 0, 2.44, 0, 0, 90, 0.58
IMU, 44177820, 8.193561E-06, 0.0005324986, -0.0005604409, 0.2630807, -0.03612781, -9.811013, 0, 0, 35.15931, 1, 1, 1000, 1000
RFND, 44207770, 0.2, 25, 0, 0
IMU, 44217851, -2.086984E-05, 0.002490823, 8.024264E-05, 0.2575916, -0.03637685, -9.804954, 0, 0, 35.16093, 1, 1, 1000, 1000
MAG, 44257720, 410, 531, 310, 0, 0, 0, 0, 0, 0, 1, 44257712
RFND, 44257755, 0.2, 25, 0, 0
BARO, 44257791, 0.03082065, 993.3251, 33.26, -0.3353497, 44257, 0, 32.4
CTUN, 44257803, 0, 0, 0, 0.2985805, 0.05656699, 0.05656699, 0.03, 0, 0.19, 0, 0, 0
ATT, 44257959, 0, 0.22, 0, -0.05, 33.55, 33.56, 0, 1
RATE, 44257966, -1.019364, 0.01996969, -0.002476279, 0.2552359, 0.04094804, 0.0001808355, -0.001003649, 0.07242025, -0.0002277527, 378.0226, 0.9612083, 0
NKF1, 44257974, 0.22, -0.05, 33.56, 0.04293917, 0.05028063, 0.009333891, 0, 0, 0, -0.05656699, 0, 0.02, -0.06
NKF2, 44257974, 0, 0, 0, 0, 0, 0, 0, 0, 0, 0, 0, 0, 0
NKF3, 44257974, 0, 0, 0, 0.08, 0.07, 0, 0, 0, 0, 0, 0
NKF4, 44257974, 0, 0, 0, 0, 0, 1.390408E-05, 0, 0, 0, 19, 229, 0, 0
NKF5, 44257974, 0, 0, 0, 0, 0.19, 0.13, 0, 0.19, 0.5, 3.499559E-05, 0.005495312, 0.0134447
NKQ1, 44257974, 0.9573465, -0.001434626, 0.01272582, 0.2886585
AHR2, 44258019, 0.19, 0.2, 31.54, 0.03, 0, 0, 0.9623444, 0.001158436, 0.002170217, 0.2718221
MOTB, 44258026, 1, 1, 0, 1
RCIN, 44258031, 0, 0, 0, 0, 0, 0, 0, 0, 0, 0, 0, 0, 0, 0
RCOU, 44258036, 1101, 1101, 1101, 1101, 0, 0, 0, 0, 0, 0, 0, 0, 0, 0
VIBE, 44258091, 0.02240059, 0.0201283, 0.03652877, 0, 0, 0
CTRL, 44258099, 0.002413208, 0.0001751233, 0.0006597581, 0.0002352132, 0.0001780756
PRX, 44258130, 2, 0.64, 0, 0.59, 0, 3.6, 0, 2.45, 0, 0, 90, 0.59
IMU, 44258138, 0.0004279322, 0.001175432, 8.180854E-05, 0.2713899, -0.03204672, -9.815367, 0, 0, 35.1631, 1, 1, 1000, 1000
IMU, 44297713, -0.0004791469, -0.0006261853, -0.0005254004, 0.2627977, -0.03387893, -9.804399, 0, 0, 35.16356, 1, 1, 1000, 1000
RFND, 44307622, 0.2, 25, 0, 0
IMU, 44337691, 0.001482813, 0.000692066, -0.001249898, 0.2598523, -0.03973249, -9.804792, 0, 0, 35.16322, 1, 1, 1000, 1000
MAG, 44357639, 410, 530, 307, 0, 0, 0, 0, 0, 0, 1, 44357630
RFND, 44357670, 0.2, 25, 0, 0
BARO, 44357705, 0.03922629, 993.324, 33.27, -0.21627, 44357, 0, 32.4
CTUN, 44357717, 0, 0, 0, 0.2985805, 0.05630175, 0.05630175, 0.03, 0, 0.19, 0, 0, 0
ATT, 44357813, 0, 0.22, 0, -0.05, 33.55, 33.56, 0, 1
RATE, 44357818, -1.028908, 0.09072817, -0.002759646, 0.2478506, 0.004652444, 0.000701234, -0.001941212, 0.05222057, -0.0001122571, 359.3483, 0.6171227, 0
NKF1, 44357826, 0.22, -0.05, 33.56, 0.04395107, 0.05121224, 0.008872798, 0, 0, 0, -0.05630175, 0, 0.02, -0.06
NKF2, 44357826, 0, 0, 0, 0, 0, 0, 0, 0, 0, 0, 0, 0, 0
NKF3, 44357826, 0, 0, 0, 0.08, 0.07, 0, 0, 0, 0, 0, 0
NKF4, 44357826, 0, 0, 0, 0, 0, 1.003704E-05, 0, 0, 0, 19, 229, 0, 0
NKF5, 44357826, 0, 0, 0, 0, 0.19, 0.13, 0, 0.19, 0.5, 3.572087E-05, 0.005528416, 0.01358156
NKQ1, 44357826, 0.9573377, -0.001422636, 0.01274466, 0.2886865
AHR2, 44357870, 0.19, 0.2, 31.54, 0.03, 0, 0, 0.9623532, 0.001160558, 0.002200499, 0.2717905
MOTB, 44357878, 1, 1, 0, 1
RCIN, 44357882, 0, 0, 0, 0, 0, 0, 0, 0, 0, 0, 0, 0, 0, 0
RCOU, 44357888, 1101, 1101, 1101, 1101, 0, 0, 0, 0, 0, 0, 0, 0, 0, 0
VIBE, 44357896, 0.0210972, 0.01919696, 0.03356613, 0, 0, 0
CTRL, 44357903, 0.002422399, 0.000175572, 0.0006190992, 0.0002330692, 0.000174104
PRX, 44357933, 2, 0.64, 0, 0.58, 0, 3.6, 0, 2.44, 0, 0, 90, 0.58
IMU, 44377765, 0.00109417, -0.0002305379, -0.0001896624, 0.2636046, -0.02827069, -9.797526, 0, 0, 35.16342, 1, 1, 1000, 1000
RFND, 44408019, 0.2, 25, 0, 0
IMU, 44417893, -0.0002544179, 0.00119759, -0.0009210455, 0.2570529, -0.04979087, -9.809462, 0, 0, 35.16343, 1, 1, 1000, 1000
MAG, 44457604, 408, 525, 305, 0, 0, 0, 0, 0, 0, 1, 44457596
RFND, 44457635, 0.2, 25, 0, 0
BARO, 44457719, 0.03922629, 993.324, 33.27, 0.05078403, 44457, 0, 32.4
CTUN, 44457731, 0, 0, 0, 0.2985805, 0.05621754, 0.05621754, 0.03, 0, 0.19, 0, 0, 0
ATT, 44457825, 0, 0.22, 0, -0.05, 33.56, 33.56, 0, 1
RATE, 44457831, -1.026536, -0.04887487, -0.002196568, 0.2574536, 0.01350943, 0.0002581361, -0.001234197, 0.09370331, -0.000157195, 368.163, 0.001335144, 0
NKF1, 44457839, 0.22, -0.05, 33.56, 0.04456975, 0.05233511, 0.009090444, 0, 0, 0, -0.05621754, 0, 0.02, -0.06
NKF2, 44457839, 0, 0, 0, 0, 0, 0, 0, 0, 0, 0, 0, 0, 0
NKF3, 44457839, 0, 0, 0, 0.09, 0.08, 0, 0, 0, 0, 0, 0
NKF4, 44457839, 0, 0, 0, 0, 0, 7.601531E-06, 0, 0, 0, 19, 229, 0, 0
NKF5, 44457839, 0, 0, 0, 0, 0.19, 0.13, 0, 0.19, 0.5, 3.411553E-05, 0.005416496, 0.01341635
NKQ1, 44457839, 0.9573251, -0.001421411, 0.01272577, 0.2887295
AHR2, 44457884, 0.19, 0.2, 31.54, 0.03, 0, 0, 0.9623575, 0.001154128, 0.002195213, 0.2717755
MOTB, 44457891, 1, 1, 0, 1
RCIN, 44457895, 0, 0, 0, 0, 0, 0, 0, 0, 0, 0, 0, 0, 0, 0
RCOU, 44457901, 1101, 1101, 1101, 1101, 0, 0, 0, 0, 0, 0, 0, 0, 0, 0
VIBE, 44457909, 0.021571, 0.02025706, 0.03663101, 0, 0, 0
CTRL, 44457916, 0.002432653, 0.0001653184, 0.0006417894, 0.000251017, 0.0001614357
PRX, 44457947, 2, 0.64, 0, 0.58, 0, 3.6, 0, 2.44, 0, 0, 90, 0.58
IMU, 44457954, -0.00077362, 0.0006965025, 0.000453274, 0.2548368, -0.03262753, -9.806168, 0, 0, 35.16338, 1, 1, 1000, 1000
IMU, 44497693, 0.0004660136, -0.0003675229, -0.001010552, 0.258262, -0.03559616, -9.818467, 0, 0, 35.1632, 1, 1, 1000, 1000
RFND, 44507637, 0.2, 25, 0, 0
IMU, 44538826, -0.00061921, 0.000958391, -0.0007434284, 0.2558615, -0.04228498, -9.81675, 0, 0, 35.16347, 1, 1, 1000, 1000
MAG, 44557699, 410, 533, 306, 0, 0, 0, 0, 0, 0, 1, 44557691
RFND, 44557733, 0.2, 25, 0, 0
BARO, 44557769, 0.05323568, 993.3224, 33.27, 0.1865, 44557, 0, 32.4
CTUN, 44557780, 0, 0, 0, 0.2985805, 0.05599169, 0.05599169, 0.05, 0, 0.19, 0, 0, 0
ATT, 44557884, 0, 0.22, 0, -0.05, 33.56, 33.57, 0, 1
RATE, 44557890, -1.029208, -0.0266186, -0.002267559, 0.2620812, 0.001780467, 0.0006414326, -0.001510794, 0.037763, -9.584525E-05, 341.9198, 0.992012, 0
NKF1, 44557898, 0.22, -0.05, 33.57, 0.04534351, 0.05362584, 0.008442463, 0, 0, 0, -0.05599169, 0, 0.02, -0.06
NKF2, 44557898, 0, 0, 0, 0, 0, 0, 0, 0, 0, 0, 0, 0, 0
NKF3, 44557898, 0, 0, 0, 0.09, 0.08, 0, 0, 0, 0, 0, 0
NKF4, 44557898, 0, 0, 0, 0, 0, 6.015744E-06, 0, 0, 0, 19, 229, 0, 0
NKF5, 44557898, 0, 0, 0, 0, 0.19, 0.13, 0, 0.19, 0.5, 3.333332E-05, 0.005324564, 0.01323338
NKQ1, 44557898, 0.9573199, -0.001415304, 0.01271813, 0.2887471
AHR2, 44557943, 0.19, 0.2, 31.53, 0.05, 0, 0, 0.962369, 0.001152857, 0.002199576, 0.2717348
MOTB, 44557951, 1, 1, 0, 1
RCIN, 44557955, 0, 0, 0, 0, 0, 0, 0, 0, 0, 0, 0, 0, 0, 0
RCOU, 44557961, 1101, 1101, 1101, 1101, 0, 0, 0, 0, 0, 0, 0, 0, 0, 0
VIBE, 44557969, 0.02126774, 0.01997522, 0.03151889, 0, 0, 0
CTRL, 44557976, 0.002436174, 0.0001643304, 0.000643272, 0.0002290314, 0.0001476765
PRX, 44558007, 2, 0.64, 0, 0.58, 0, 0.61, 0, 2.43, 0, 0, 90, 0.58
IMU, 44577829, -0.0006573222, 0.000951621, -4.326291E-05, 0.2611076, -0.02751756, -9.789242, 0, 0, 35.16318, 1, 1, 1000, 1000
RFND, 44607762, 0.2, 25, 0, 0
IMU, 44617781, 0.001100363, 0.0001539424, 0.001259165, 0.2498291, -0.03515624, -9.795175, 0, 0, 35.16449, 1, 1, 1000, 1000
MAG, 44657639, 412, 530, 311, 0, 0, 0, 0, 0, 0, 1, 44657631
RFND, 44657671, 0.2, 25, 0, 0
BARO, 44657704, 0.01961314, 993.3261, 33.27, 0.1330892, 44657, 0, 32.4
CTUN, 44657716, 0, 0, 0, 0.2985805, 0.05601171, 0.05601171, 0.01, 0, 0.19, 0, 0, 0
ATT, 44657859, 0, 0.22, 0, -0.06, 33.57, 33.57, 0, 1
RATE, 44657864, -1.033341, 0.0302702, -0.002452981, 0.2755867, -0.08535133, 0.001156375, -0.00134165, -0.04534446, -0.0001886298, 346.491, 0.2847672, 0
NKF1, 44657872, 0.22, -0.06, 33.57, 0.04601398, 0.05531896, 0.008555333, 0, 0, 0, -0.05601171, 0, 0.02, -0.06
NKF2, 44657872, 0, 0, 0, 0, 0, 0, 0, 0, 0, 0, 0, 0, 0
NKF3, 44657872, 0, 0, 0, 0.1, 0.09, 0, 0, 0, 0, 0, 0
NKF4, 44657872, 0, 0, 0, 0, 0, 5.181185E-06, 0, 0, 0, 19, 229, 0, 0
NKF5, 44657872, 0, 0, 0, 0, 0.19, 0.13, 0, 0.19, 0.5, 3.387819E-05, 0.005111006, 0.01278522
NKQ1, 44657872, 0.9573038, -0.001405256, 0.01269443, 0.2888019
AHR2, 44657915, 0.19, 0.2, 31.53, 0.01, 0, 0, 0.9623697, 0.001157129, 0.002184373, 0.2717322
MOTB, 44657923, 1, 1, 0, 1
RCIN, 44657927, 0, 0, 0, 0, 0, 0, 0, 0, 0, 0, 0, 0, 0, 0
RCOU, 44657933, 1101, 1101, 1101, 1101, 0, 0, 0, 0, 0, 0, 0, 0, 0, 0
VIBE, 44657942, 0.02057181, 0.02018086, 0.03465779, 0, 0, 0
CTRL, 44657949, 0.0024384, 0.0001663554, 0.0006540139, 0.0002127666, 0.0001603395
PRX, 44657979, 2, 0.64, 0, 0.59, 0, 0.63, 0, 2.44, 0, 0, 90, 0.59
IMU, 44657986, 0.0006078255, -0.001028481, -0.001974861, 0.2592785, -0.03659589, -9.808863, 0, 0, 35.16662, 1, 1, 1000, 1000
IMU, 44697683, 0.0003535421, -0.001450201, 0.0007709578, 0.2607556, -0.03861513, -9.806986, 0, 0, 35.16983, 1, 1, 1000, 1000
RFND, 44707619, 0.2, 25, 0, 0
IMU, 44738395, -0.001015423, 0.0002006538, -0.0008316109, 0.2577322, -0.03782902, -9.803942, 0, 0, 35.17358, 1, 1, 1000, 1000
MAG, 44757626, 404, 532, 306, 0, 0, 0, 0, 0, 0, 1, 44757617
RFND, 44757657, 0.2, 25, 0, 0
BARO, 44757691, 0.1092732, 993.3164, 33.27, 0.05253521, 44757, 0, 32.4
CTUN, 44757703, 0, 0, 0, 0.2985805, 0.055963, 0.055963, 0.1, 0, 0.19, 0, 0, 0
ATT, 44757992, 0, 0.22, 0, -0.06, 33.57, 33.58, 0, 1
RATE, 44757998, -1.017474, 0.01927561, -0.002548321, 0.2910808, -0.03404389, 0.0007677961, -0.0007728175, -0.001098313, -0.0001147479, 328.061, 1.01738, 0
NKF1, 44758006, 0.22, -0.06, 33.58, 0.04664935, 0.05665546, 0.008100271, 0, 0, 0, -0.055963, 0, 0.02, -0.06
NKF2, 44758006, 0, 0, 0, 0, 0, 0, 0, 0, 0, 0, 0, 0, 0
NKF3, 44758006, 0, 0, 0, 0.11, 0.09, 0, 0, 0, 0, 0, 0
NKF4, 44758006, 0, 0, 0, 0, 0, 4.707207E-06, 0, 0, 0, 19, 229, 0, 0
NKF5, 44758006, 0, 0, 0, 0, 0.19, 0.13, 0, 0.19, 0.5, 3.695132E-05, 0.004856326, 0.01224156
NKQ1, 44758006, 0.9572946, -0.001420886, 0.01265716, 0.2888337
AHR2, 44758050, 0.19, 0.2, 31.53, 0.09999999, 0, 0, 0.962377, 0.001134908, 0.002155453, 0.2717071
MOTB, 44758058, 1, 1, 0, 1
RCIN, 44758062, 0, 0, 0, 0, 0, 0, 0, 0, 0, 0, 0, 0, 0, 0
RCOU, 44758067, 1101, 1101, 1101, 1101, 0, 0, 0, 0, 0, 0, 0, 0, 0, 0
VIBE, 44758076, 0.02262986, 0.02303932, 0.03214185, 0, 0, 0
CTRL, 44758082, 0.002411236, 0.0001872945, 0.0006987957, 0.0001991254, 0.0001591328
PRX, 44758111, 2, 0.64, 0, 0.58, 0, 0.63, 0, 2.43, 0, 0, 90, 0.58
IMU, 44777726, -0.0003218364, 0.001624504, 0.0006410395, 0.2657167, -0.0356117, -9.790901, 0, 0, 35.17722, 1, 1, 1000, 1000
RFND, 44807689, 0.2, 25, 0, 0
IMU, 44817817, 0.0006580082, 0.0002017206, -0.0001960684, 0.2604448, -0.03303403, -9.813807, 0, 0, 35.18071, 1, 1, 1000, 1000
MAG, 44857800, 408, 531, 313, 0, 0, 0, 0, 0, 0, 1, 44857792
RFND, 44857832, 0.2, 25, 0, 0
BARO, 44857866, 0.07845257, 993.3197, 33.27, 0.07179812, 44857, 0, 32.4
CTUN, 44857879, 0, 0, 0, 0.2985805, 0.05598073, 0.05598073, 0.07, 0, 0.19, 0, 0, 0
DU32, 44857918, 7, 50389208
ATT, 44858056, 0, 0.22, 0, -0.06, 33.58, 33.58, 0, 1
RATE, 44858062, -1.017127, 0.02167529, -0.002454767, 0.2922868, -0.04993897, 0.0008594478, -0.004169121, 0.06780463, -0.0001640533, 346.5745, -3.059864, 0
NKF1, 44858070, 0.22, -0.06, 33.58, 0.04756684, 0.05849701, 0.008557395, 0, 0, 0, -0.05598073, 0, 0.02, -0.06
NKF2, 44858070, 0, 0, 0, 0, 0, 0, 0, 0, 0, 0, 0, 0, 0
NKF3, 44858070, 0, 0, 0, 0.11, 0.09, 0, 0, 0, 0, 0, 0
NKF4, 44858070, 0, 0, 0, 0, 0, 4.583293E-06, 0, 0, 0, 19, 229, 0, 0
NKF5, 44858070, 0, 0, 0, 0, 0.19, 0.13, 0, 0.19, 0.5, 3.834657E-05, 0.004723877, 0.01187662
NKQ1, 44858070, 0.9572773, -0.001420726, 0.0126552, 0.288891
AHR2, 44858113, 0.19, 0.2, 31.53, 0.07, 0, 0, 0.9623768, 0.001128557, 0.002160952, 0.2717078
MOTB, 44858120, 1, 1, 0, 1
RCIN, 44858124, 0, 0, 0, 0, 0, 0, 0, 0, 0, 0, 0, 0, 0, 0
RCOU, 44858131, 1101, 1101, 1101, 1101, 0, 0, 0, 0, 0, 0, 0, 0, 0, 0
VIBE, 44858139, 0.02045376, 0.02216203, 0.03093156, 0, 0, 0
CTRL, 44858145, 0.002408011, 0.0001734205, 0.0007028865, 0.0002375353, 0.0001591597
PRX, 44858175, 2, 0.64, 0, 0.58, 0, 0.61, 0, 2.43, 0, 0, 90, 0.58
IMU, 44858183, 0.000458229, -0.0004081968, -5.872482E-06, 0.2665166, -0.0346479, -9.775233, 0, 0, 35.18417, 1, 1, 1000, 1000
IMU, 44897869, 0.0007663267, -0.0009221996, -0.0009058208, 0.2596854, -0.04259862, -9.799335, 0, 0, 35.18772, 1, 1, 1000, 1000
RFND, 44907776, 0.2, 25, 0, 0
IMU, 44937740, 0.001129483, -0.0001847511, -0.0004438387, 0.2637677, -0.03600365, -9.792744, 0, 0, 35.19111, 1, 1, 1000, 1000
MAG, 44957962, 411, 531, 313, 0, 0, 0, 0, 0, 0, 1, 44957954
RFND, 44957997, 0.2, 25, 0, 0
BARO, 44958033, -0.07845257, 993.337, 33.28, 0.09987808, 44958, 0, 32.4
CTUN, 44958045, 0, 0, 0, 0.2985805, 0.05595484, 0.05595484, -0.07, 0, 0.19, 0, 0, 0
ATT, 44958143, 0, 0.22, 0, -0.06, 33.58, 33.59, 0, 1
RATE, 44958149, -1.02743, 0.0003812545, -0.002414476, 0.2967844, -0.004382318, 0.0005910335, -0.0004808422, -0.0772192, -7.895729E-05, 357.7378, -1.255703, 0
NKF1, 44958157, 0.22, -0.06, 33.59, 0.04856706, 0.05993974, 0.008833032, 0, 0, 0, -0.05595484, 0, 0.02, -0.06
NKF2, 44958157, 0, 0, 0, 0, 0, 0, 0, 0, 0, 0, 0, 0, 0
NKF3, 44958157, 0, 0, 0, 0.11, 0.1, 0, 0, 0, 0, 0, 0
NKF4, 44958157, 0, 0, 0, 0, 0, 4.650654E-06, 0, 0, 0, 19, 229, 0, 0
NKF5, 44958157, 0, 0, 0, 0, 0.19, 0.13, 0, 0.19, 0.5, 4.293163E-05, 0.004435636, 0.01121079
NKQ1, 44958157, 0.9572732, -0.001400626, 0.01265141, 0.2889051
AHR2, 44958203, 0.19, 0.2, 31.52, -0.07, 0, 0, 0.9623888, 0.001141379, 0.002164521, 0.271665
MOTB, 44958210, 1, 1, 0, 1
RCIN, 44958214, 0, 0, 0, 0, 0, 0, 0, 0, 0, 0, 0, 0, 0, 0
RCOU, 44958297, 1101, 1101, 1101, 1101, 0, 0, 0, 0, 0, 0, 0, 0, 0, 0
VIBE, 44958306, 0.02094057, 0.02061484, 0.02877378, 0, 0, 0
CTRL, 44958314, 0.002429967, 0.000160959, 0.0007165061, 0.0002159623, 0.0001606207
PRX, 44958345, 2, 0.64, 0, 0.58, 0, 0.61, 0, 2.45, 0, 0, 90, 0.58
IMU, 44977735, 3.101066E-05, 0.0007733537, -0.0009621078, 0.256062, -0.03743461, -9.800283, 0, 0, 35.19392, 1, 1, 1000, 1000
RFND, 45007682, 0.2, 25, 0, 0
IMU, 45017728, -0.001100606, 0.0007199448, 0.001120995, 0.2555, -0.04643794, -9.797045, 0, 0, 35.19658, 1, 1, 1000, 1000
MAG, 45057717, 407, 534, 308, 0, 0, 0, 0, 0, 0, 1, 45057658
RFND, 45057750, 0.2, 25, 0, 0
BARO, 45057785, -0.1232826, 993.342, 33.28, -0.1230472, 45057, 0, 32.4
CTUN, 45057797, 0, 0, 0, 0.2985805, 0.05586349, 0.05586349, -0.12, 0, 0.19, 0, 0, 0
ATT, 45057891, 0, 0.22, 0, -0.06, 33.59, 33.59, 0, 1
RATE, 45057897, -1.013428, -0.02321402, -0.00244508, 0.2916083, -0.02813762, 0.0008016122, -0.001495074, 0.05438824, -0.0001224996, 352.8525, 1.771069, 0
NKF1, 45057905, 0.22, -0.06, 33.59, 0.04927744, 0.06093052, 0.008712408, 0, 0, 0, -0.05586349, 0, 0.02, -0.06
NKF2, 45057905, 0, 0, 0, 0, 0, 0, 0, 0, 0, 0, 0, 0, 0
NKF3, 45057905, 0, 0, 0, 0.11, 0.1, 0, 0, 0, 0, 0, 0
NKF4, 45057905, 0, 0, 0, 0, 0, 4.864311E-06, 0, 0, 0, 19, 229, 0, 0
NKF5, 45057905, 0, 0, 0, 0, 0.19, 0.13, 0, 0.19, 0.5, 4.302501E-05, 0.004316977, 0.01084986
NKQ1, 45057905, 0.957258, -0.001433073, 0.01265413, 0.2889552
AHR2, 45057950, 0.18, 0.2, 31.52, -0.12, 0, 0, 0.9623901, 0.001101882, 0.002177365, 0.2716603
MOTB, 45057957, 1, 1, 0, 1
RCIN, 45057962, 0, 0, 0, 0, 0, 0, 0, 0, 0, 0, 0, 0, 0, 0
RCOU, 45057967, 1101, 1101, 1101, 1101, 0, 0, 0, 0, 0, 0, 0, 0, 0, 0
VIBE, 45057976, 0.01850466, 0.02117604, 0.03403739, 0, 0, 0
CTRL, 45057982, 0.002396592, 0.000153675, 0.0006995442, 0.0001907956, 0.0001503279
PRX, 45058013, 2, 0.63, 0, 0.59, 0, 3.6, 0, 2.44, 0, 0, 90, 0.59
IMU, 45058020, -0.0003254931, -2.939109E-05, -0.0002358356, 0.257916, -0.04834867, -9.823687, 0, 0, 35.19889, 1, 1, 1000, 1000
IMU, 45098145, -0.000468115, -0.0006100208, -0.0006466044, 0.272197, -0.03056113, -9.790554, 0, 0, 35.20193, 1, 1, 1000, 1000
RFND, 45107739, 0.2, 25, 0, 0
IMU, 45138468, 0.001006408, 0.0002287242, -0.000404276, 0.2696534, -0.03439627, -9.807981, 0, 0, 35.20459, 1, 1, 1000, 1000
MAG, 45157601, 410, 527, 317, 0, 0, 0, 0, 0, 0, 1, 45157593
RFND, 45157632, 0.2, 25, 0, 0
BARO, 45157665, -0.1288864, 993.3425, 33.28, -0.5273951, 45157, 0, 32.4
CTUN, 45157678, 0, 0, 0, 0.2985805, 0.05588785, 0.05588785, -0.12, 0, 0.19, 0, 0, 0
ATT, 45157822, 0, 0.22, 0, -0.06, 33.59, 33.6, 0, 1
RATE, 45157828, -1.017957, 0.03860214, -0.002378122, 0.3027011, 0.01621489, 0.000587505, 0.0007794437, 0.03809075, -0.0001764659, 351.3107, 0.4535675, 0
NKF1, 45157835, 0.22, -0.06, 33.6, 0.05060697, 0.06268793, 0.008674338, 0, 0, 0, -0.05588785, 0, 0.02, -0.06
NKF2, 45157835, 0, 0, 0, 0, 0, 0, 0, 0, 0, 0, 0, 0, 0
NKF3, 45157835, 0, 0, 0, 0.12, 0.11, 0, 0, 0, 0, 0, 0
NKF4, 45157835, 0, 0, 0, 0, 0, 5.276554E-06, 0, 0, 0, 19, 229, 0, 0
NKF5, 45157835, 0, 0, 0, 0, 0.19, 0.13, 0, 0.19, 0.5, 4.768493E-05, 0.004024438, 0.01013549
NKQ1, 45157835, 0.9572436, -0.001420484, 0.01263585, 0.2890038
AHR2, 45157877, 0.18, 0.2, 31.52, -0.12, 0, 0, 0.9623924, 0.001107663, 0.002168674, 0.2716524
MOTB, 45157884, 1, 1, 0, 1
RCIN, 45157888, 0, 0, 0, 0, 0, 0, 0, 0, 0, 0, 0, 0, 0, 0
RCOU, 45157893, 1101, 1101, 1101, 1101, 0, 0, 0, 0, 0, 0, 0, 0, 0, 0
VIBE, 45157901, 0.01858069, 0.01912625, 0.03071061, 0, 0, 0
CTRL, 45157908, 0.002401688, 0.000151433, 0.0007233421, 0.0001759128, 0.0001640735
PRX, 45157938, 2, 0.64, 0, 0.58, 0, 3.6, 0, 2.47, 0, 0, 90, 0.58
IMU, 45177838, 0.001579181, -9.337198E-05, -0.0001502442, 0.2574968, -0.04108439, -9.800376, 0, 0, 35.20754, 1, 1, 1000, 1000
RFND, 45207893, 0.2, 25, 0, 0
IMU, 45217967, -0.0007746489, 0.0001173947, 0.0005410458, 0.2771934, -0.03931298, -9.801547, 0, 0, 35.20979, 1, 1, 1000, 1000
MAG, 45257836, 403, 528, 306, 0, 0, 0, 0, 0, 0, 1, 45257827
RFND, 45257869, 0.2, 25, 0, 0
BARO, 45257905, -0.09526384, 993.3391, 33.28, -0.6488099, 45257, 0, 32.4
CTUN, 45257918, 0, 0, 0, 0.2985805, 0.05571713, 0.05571713, -0.09, 0, 0.19, 0, 0, 0
ATT, 45258193, 0, 0.22, 0, -0.06, 33.6, 33.6, 0, 1
RATE, 45258199, -1.019193, -0.009667101, -0.002433985, 0.3114454, -0.04142844, 0.0008524844, -0.001571796, 0.05073289, -0.0001731816, 373.3633, -0.02765656, 0
NKF1, 45258207, 0.22, -0.06, 33.6, 0.0518536, 0.06438524, 0.009218846, 0, 0, 0, -0.05571713, 0, 0.02, -0.06
NKF2, 45258207, 0, 0, 0, 0, 0, 0, 0, 0, 0, 0, 0, 0, 0
NKF3, 45258207, 0, 0, 0, 0.12, 0.11, 0, 0, 0, 0, 0, 0
NKF4, 45258207, 0, 0, 0, 0, 0, 5.632925E-06, 0, 0, 0, 19, 229, 0, 0
NKF5, 45258207, 0, 0, 0, 0, 0.19, 0.13, 0, 0.19, 0.5, 4.628067E-05, 0.003935049, 0.009828125
NKQ1, 45258207, 0.9572321, -0.001408768, 0.01262033, 0.2890425
AHR2, 45258347, 0.19, 0.2, 31.52, -0.09, 0, 0, 0.9623972, 0.001114572, 0.002162973, 0.2716355
MOTB, 45258356, 1, 1, 0, 1
RCIN, 45258361, 0, 0, 0, 0, 0, 0, 0, 0, 0, 0, 0, 0, 0, 0
RCOU, 45258366, 1101, 1101, 1101, 1101, 0, 0, 0, 0, 0, 0, 0, 0, 0, 0
VIBE, 45258375, 0.01822539, 0.02253753, 0.03192497, 0, 0, 0
CTRL, 45258380, 0.002412382, 0.0001715699, 0.0007430672, 0.0001619626, 0.0001587134
PRX, 45258409, 2, 0.64, 0, 0.58, 0, 3.6, 0, 2.44, 0, 0, 90, 0.58
IMU, 45258417, -8.927246E-05, -0.0002628887, -0.0002959079, 0.2579121, -0.03621367, -9.805728, 0, 0, 35.21155, 1, 1, 1000, 1000
IMU, 45297937, -5.863369E-05, -0.0009445882, -0.0002302967, 0.2577392, -0.02431644, -9.810108, 0, 0, 35.21333, 1, 1, 1000, 1000
RFND, 45307919, 0.2, 25, 0, 0
IMU, 45337927, 0.0005963026, 0.001430596, -0.001156592, 0.2578634, -0.03884748, -9.796726, 0, 0, 35.21463, 1, 1, 1000, 1000
MAG, 45357934, 409, 535, 306, 0, 0, 0, 0, 0, 0, 1, 45357925
RFND, 45357968, 0.2, 25, 0, 0
BARO, 45358004, -0.06724507, 993.3358, 33.28, -0.3515063, 45357, 0, 32.4
CTUN, 45358017, 0, 0, 0, 0.2985805, 0.05577328, 0.05577328, -0.06, 0, 0.19, 0, 0, 0
ATT, 45358118, 0, 0.22, 0, -0.06, 33.6, 33.61, 0, 1
RATE, 45358124, -1.012626, -0.00865359, -0.002295169, 0.3074665, 0.05818957, 0.0004471787, -0.002355544, 0.03119403, -0.0001081912, 378.7147, -1.072407, 0
NKF1, 45358132, 0.22, -0.06, 33.61, 0.05212902, 0.06599577, 0.00935098, 0, 0, 0, -0.05577328, 0, 0.02, -0.06
NKF2, 45358132, 0, 0, 0, 0, 0, 0, 0, 0, 0, 0, 0, 0, 0
NKF3, 45358132, 0, 0, 0, 0.13, 0.12, 0, 0, 0, 0, 0, 0
NKF4, 45358132, 0, 0, 0, 0, 0, 6.268283E-06, 0, 0, 0, 19, 229, 0, 0
NKF5, 45358132, 0, 0, 0, 0, 0.19, 0.13, 0, 0.19, 0.5, 5.094363E-05, 0.003639563, 0.009080215
NKQ1, 45358132, 0.957225, -0.001425355, 0.01262386, 0.2890659
AHR2, 45358176, 0.18, 0.2, 31.51, -0.06, 0, 0, 0.9624062, 0.001092451, 0.002176292, 0.2716034
MOTB, 45358183, 1, 1, 0, 1
RCIN, 45358188, 0, 0, 0, 0, 0, 0, 0, 0, 0, 0, 0, 0, 0, 0
RCOU, 45358193, 1101, 1101, 1101, 1101, 0, 0, 0, 0, 0, 0, 0, 0, 0, 0
VIBE, 45358202, 0.02054482, 0.02185783, 0.03206434, 0, 0, 0
CTRL, 45358208, 0.002399731, 0.0001608563, 0.0007504524, 0.0001728185, 0.0001519608
PRX, 45358334, 2, 0.64, 0, 0.59, 0, 3.6, 0, 2.44, 0, 0, 90, 0.59
IMU, 45377938, 0.0005408713, 0.00021187, 0.0003665032, 0.2639986, -0.03914302, -9.819204, 0, 0, 35.21592, 1, 1, 1000, 1000
RFND, 45407959, 0.2, 25, 0, 0
IMU, 45418021, -0.0001051235, -0.0009076329, 0.0002222382, 0.2623636, -0.04530774, -9.796244, 0, 0, 35.21713, 1, 1, 1000, 1000
EV, 45429954, 57
MAG, 45457947, 409, 533, 314, 0, 0, 0, 0, 0, 0, 1, 45457938
RFND, 45457980, 0.2, 25, 0, 0
BARO, 45458015, -0.08405633, 993.3378, 33.28, 0.007124301, 45458, 0, 32.4
CTUN, 45458028, 0, 0, 0, 0.2985805, 0.05567459, 0.05567459, -0.08, 0, 0.19, 0, 0, 0
ATT, 45458131, 0, 0.22, 0, -0.07, 33.61, 33.61, 0, 1
RATE, 45458137, -1.017893, -0.03434983, -0.002101552, 0.3279051, -0.02323038, 0.0007242296, -0.000680308, 0.02230661, -0.0001374923, 370.9329, 0.8968353, 0
NKF1, 45458145, 0.22, -0.07, 33.61, 0.05357973, 0.06737502, 0.009158838, 0, 0, 0, -0.05567459, 0, 0.02, -0.06
NKF2, 45458145, 0, 0, 0, 0, 0, 0, 0, 0, 0, 0, 0, 0, 0
NKF3, 45458145, 0, 0, 0, 0.14, 0.13, 0, 0, 0, 0, 0, 0
NKF4, 45458145, 0, 0, 0, 0, 0, 6.855385E-06, 0, 0, 0, 19, 229, 0, 0
NKF5, 45458145, 0, 0, 0, 0, 0.19, 0.13, 0, 0.19, 0.5, 5.587775E-05, 0.003297214, 0.008222268
NKQ1, 45458145, 0.9572107, -0.001404216, 0.01258865, 0.2891149
AHR2, 45458189, 0.18, 0.2, 31.51, -0.08, 0, 0, 0.9624079, 0.001104464, 0.002148864, 0.2715976
MOTB, 45458196, 1, 1, 0, 1
RCIN, 45458201, 0, 0, 0, 0, 0, 0, 0, 0, 0, 0, 0, 0, 0, 0
RCOU, 45458206, 1107, 1107, 1107, 1107, 0, 0, 0, 0, 0, 0, 0, 0, 0, 0
VIBE, 45458214, 0.02090853, 0.02045302, 0.03313849, 0, 0, 0
CTRL, 45458313, 0.002410122, 0.0001630857, 0.000786151, 0.0001756196, 0.0001594268
PRX, 45458348, 2, 0.64, 0, 0.58, 0, 3.6, 0, 2.44, 0, 0, 90, 0.58
IMU, 45458356, -0.0005198842, 5.506284E-05, -0.0007934288, 0.2581141, -0.04073766, -9.814926, 0, 0, 35.21696, 1, 1, 1000, 1000
IMU, 45497942, 0.001036924, -0.0001681389, -9.447517E-05, 0.2630001, -0.04274767, -9.810061, 0, 0, 35.21711, 1, 1, 1000, 1000
RFND, 45507877, 0.2, 25, 0, 0
IMU, 45538156, -4.021909E-05, 0.0004199426, 0.0009951554, 0.2576107, -0.04035934, -9.814851, 0, 0, 35.21709, 1, 1, 1000, 1000
MAG, 45557858, 405, 531, 310, 0, 0, 0, 0, 0, 0, 1, 45557850
RFND, 45557892, 0.2, 25, 0, 0
BARO, 45557928, -0.1176789, 993.3416, 33.29, 0.1329464, 45557, 0, 32.4
CTUN, 45557941, 0, 0, 0, 0.2985805, 0.05567052, 0.05567052, -0.11, 0, 0.19, 0, 0, 0
ATT, 45558043, 0, 0.22, 0, -0.07, 33.61, 33.62, 0, 1
RATE, 45558050, -1.026377, 0.03244172, -0.002398289, 0.3374645, -0.0642221, 0.001064195, -0.0006649223, 0.1018989, -0.0002725622, 341.3988, -0.8889198, 0
NKF1, 45558058, 0.22, -0.07, 33.62, 0.05474372, 0.06815906, 0.008429601, 0, 0, 0, -0.05567053, 0, 0.02, -0.06
NKF2, 45558058, 0, 0, 0, 0, 0, 0, 0, 0, 0, 0, 0, 0, 0
NKF3, 45558058, 0, 0, 0, 0.14, 0.13, 0, 0, 0, 0, 0, 0
NKF4, 45558058, 0, 0, 0, 0, 0, 7.558468E-06, 0, 0, 0, 19, 229, 0, 0
NKF5, 45558058, 0, 0, 0, 0, 0.19, 0.13, 0, 0.19, 0.5, 5.289915E-05, 0.003289461, 0.008096667
NKQ1, 45558058, 0.9571904, -0.001383517, 0.01257618, 0.2891827
AHR2, 45558104, 0.19, 0.2, 31.52, -0.11, 0, 0, 0.9624044, 0.001118646, 0.002144729, 0.2716097
MOTB, 45558111, 1, 1, 0, 1
RCIN, 45558116, 0, 0, 0, 0, 0, 0, 0, 0, 0, 0, 0, 0, 0, 0
RCOU, 45558121, 1131, 1131, 1131, 1131, 0, 0, 0, 0, 0, 0, 0, 0, 0, 0
VIBE, 45558130, 0.01969395, 0.01924296, 0.03211322, 0, 0, 0
CTRL, 45558136, 0.002425238, 0.0001841146, 0.0008038518, 0.0001761395, 0.0001679819
PRX, 45558167, 2, 0.64, 0, 0.58, 0, 3.6, 0, 2.45, 0, 0, 90, 0.58
IMU, 45578005, -0.0005539098, -0.0002763296, -0.001152102, 0.2614018, -0.03440456, -9.789504, 0, 0, 35.21696, 1, 1, 1000, 1000
RFND, 45608019, 0.2, 25, 0, 0
IMU, 45618051, -0.0003857533, 0.001181289, -0.0009058812, 0.2622753, -0.03767043, -9.815429, 0, 0, 35.21705, 1, 1, 1000, 1000
MAG, 45657778, 404, 533, 310, 0, 0, 0, 0, 0, 0, 1, 45657769
RFND, 45657811, 0.2, 25, 0, 0
BARO, 45657846, -0.1793202, 993.3486, 33.29, 0.01392225, 45657, 0, 32.4
CTUN, 45657858, 0, 0, 0, 0.2985805, 0.05570183, 0.05570183, -0.17, 0, 0.19, 0, 0, 0
ATT, 45657954, 0, 0.22, 0, -0.07, 33.62, 33.62, 0, 1
RATE, 45657960, -1.014656, -0.01724806, -0.002445868, 0.3377559, -0.03246324, 0.001180362, -0.0006494732, 0.04086438, -0.0001449783, 318.3082, 1.278019, 0
NKF1, 45657967, 0.22, -0.07, 33.62, 0.05587736, 0.06976099, 0.007859461, 0, 0, 0, -0.05570183, 0, 0.02, -0.06
NKF2, 45657967, 0, 0, 0, 0, 0, 0, 0, 0, 0, 0, 0, 0, 0
NKF3, 45657967, 0, 0, 0, 0.15, 0.15, 0.01, 0, 0, 0, 0, 0
NKF4, 45657967, 0, 0, 0, 0, 0, 8.278348E-06, 0, 0, 0, 19, 229, 0, 0
NKF5, 45657967, 0, 0, 0, 0, 0.19, 0.13, 0, 0.19, 0.5, 5.876095E-05, 0.002932291, 0.007175272
NKQ1, 45657967, 0.9571815, -0.001404406, 0.01256847, 0.2892122
AHR2, 45658011, 0.18, 0.2, 31.51, -0.17, 0, 0, 0.9624115, 0.001097033, 0.002146616, 0.271585
MOTB, 45658019, 1, 1, 0, 1
RCIN, 45658023, 0, 0, 0, 0, 0, 0, 0, 0, 0, 0, 0, 0, 0, 0
RCOU, 45658029, 1155, 1155, 1155, 1155, 0, 0, 0, 0, 0, 0, 0, 0, 0, 0
VIBE, 45658038, 0.02016653, 0.01900205, 0.03653803, 0, 0, 0
CTRL, 45658045, 0.0024013, 0.0001785925, 0.000807522, 0.0001934803, 0.0001790076
PRX, 45658076, 2, 0.64, 0, 0.58, 0, 3.6, 0, 2.43, 0, 0, 90, 0.58
IMU, 45658082, -0.0002212525, -0.0001056964, -0.0004708636, 0.2758325, -0.03722844, -9.818305, 0, 0, 35.217, 1, 1, 1000, 1000
IMU, 45697865, -0.0001259737, 0.001786552, 0.001040256, 0.2659797, -0.04188397, -9.826361, 0, 0, 35.21693, 1, 1, 1000, 1000
RFND, 45707901, 0.2, 25, 0, 0
IMU, 45737951, 0.0006696992, 0.001900029, -0.001402049, 0.2581287, -0.03760712, -9.79283, 0, 0, 35.21689, 1, 1, 1000, 1000
MAG, 45757727, 409, 530, 316, 0, 0, 0, 0, 0, 0, 1, 45757718
RFND, 45757760, 0.2, 25, 0, 0
BARO, 45757793, -0.1513014, 993.3453, 33.29, -0.1908779, 45757, 0, 32.4
CTUN, 45757806, 0, 0, 0, 0.2985805, 0.05572077, 0.05572077, -0.15, 0, 0.19, 0, 0, 0
ATT, 45758083, 0, 0.22, 0, -0.07, 33.62, 33.63, 0, 1
RATE, 45758089, -1.012257, 0.01697654, -0.002334788, 0.3211873, 0.03180819, 0.0009127022, -0.000618851, -0.01202556, -1.885291E-05, 318.4476, -0.7321358, 0
NKF1, 45758096, 0.22, -0.07, 33.63, 0.05674421, 0.07114111, 0.007862903, 0, 0, 0, -0.05572077, 0, 0.02, -0.06
NKF2, 45758096, 0, 0, 0, 0, 0, 0, 0, 0, 0, 0, 0, 0, 0
NKF3, 45758096, 0, 0, 0, 0.15, 0.15, 0.01, 0, 0, 0, 0, 0
NKF4, 45758096, 0, 0, 0, 0, 0, 9.090929E-06, 0, 0, 0, 19, 229, 0, 0
NKF5, 45758096, 0, 0, 0, 0, 0.19, 0.13, 0, 0.19, 0.5, 5.480536E-05, 0.002964231, 0.007165787
NKQ1, 45758096, 0.9571682, -0.001421118, 0.01259751, 0.2892552
AHR2, 45758142, 0.18, 0.2, 31.51, -0.15, 0, 0, 0.9624148, 0.00107976, 0.002185563, 0.2715728
MOTB, 45758149, 1, 1, 0, 1
RCIN, 45758154, 0, 0, 0, 0, 0, 0, 0, 0, 0, 0, 0, 0, 0, 0
RCOU, 45758158, 1179, 1179, 1179, 1179, 0, 0, 0, 0, 0, 0, 0, 0, 0, 0
VIBE, 45758167, 0.03123061, 0.04276819, 0.0465642, 0, 0, 0
CTRL, 45758172, 0.002395045, 0.0001669903, 0.0007841118, 0.0002305287, 0.0001839071
PRX, 45758202, 2, 0.64, 0, 0.59, 0, 3.6, 0, 2.44, 0, 0, 90, 0.59
IMU, 45778037, -0.0002442654, 0.0002083104, 0.009994444, 0.2537981, -0.02785432, -9.787491, 0, 0, 35.21744, 1, 1, 1000, 1000
RFND, 45807723, 0.2, 25, 0, 0
IMU, 45817760, 0.0006826892, 0.003670632, -0.01218659, 0.2617796, -0.05906961, -9.817906, 0, 0, 35.21821, 1, 1, 1000, 1000
MAG, 45857873, 404, 532, 303, 0, 0, 0, 0, 0, 0, 1, 45857809
RFND, 45857907, 0.2, 25, 0, 0
BARO, 45857942, -0.2017352, 993.3507, 33.29, -0.2879404, 45857, 0, 32.4
CTUN, 45857954, 0, 0, 0, 0.2985805, 0.05579605, 0.05579605, -0.2, 0, 0.19, 0, 0, 0
DU32, 45857990, 7, 33611992
ATT, 45858130, 0, 0.22, 0, -0.07, 33.63, 33.63, 0, 1
RATE, 45858136, -1.022953, 0.06817953, -0.004048753, 0.3118414, -0.2730351, 0.002096177, -0.0006343282, -1.023748, -0.0002557861, 332.4409, 1.79224, 0
NKF1, 45858144, 0.22, -0.07, 33.63, 0.05779597, 0.07334668, 0.008208415, 0, 0, 0, -0.05579605, 0, 0.02, -0.06
NKF2, 45858144, 0, 0, 0, 0, 0, 0, 0, 0, 0, 0, 0, 0, 0
NKF3, 45858144, 0, 0, 0, 0.16, 0.16, 0.01, 0, 0, 0, 0, 0
NKF4, 45858144, 0, 0, 0, 0, 0, 1.000964E-05, 0, 0, 0, 19, 229, 0, 0
NKF5, 45858144, 0, 0, 0, 0, 0.19, 0.13, 0, 0.19, 0.5, 6.172252E-05, 0.002593871, 0.00619064
NKQ1, 45858144, 0.9571513, -0.001406151, 0.01261264, 0.2893102
AHR2, 45858188, 0.18, 0.2, 31.51, -0.2, 0, 0, 0.9624146, 0.001091325, 0.002209671, 0.2715734
MOTB, 45858196, 1, 1, 0, 1
RCIN, 45858200, 0, 0, 0, 0, 0, 0, 0, 0, 0, 0, 0, 0, 0, 0
RCOU, 45858206, 1202, 1202, 1202, 1202, 0, 0, 0, 0, 0, 0, 0, 0, 0, 0
VIBE, 45858214, 0.275548, 0.3688222, 0.2703755, 0, 0, 0
CTRL, 45858294, 0.002337055, 0.0004965381, 0.000791914, 0.0004582588, 0.0003463163
PRX, 45858327, 2, 0.64, 0, 0.58, 0, 3.6, 0, 2.44, 0, 0, 90, 0.58
IMU, 45858335, 0.001269868, -0.004304305, -0.01905268, 0.316234, -0.122792, -9.822031, 0, 0, 35.21891, 1, 1, 1000, 1000
PM, 45858346, 51, 4000, 5369, 10, 0, 0, 40, 262144
IMU, 45898151, -0.0003869996, -0.00248573, -0.01185537, 0.2187499, 0.006809629, -9.783755, 0, 0, 35.21952, 1, 1, 1000, 1000
RFND, 45907754, 0.2, 25, 0, 0
IMU, 45937934, 0.001381756, 0.0006096895, 0.004686262, 0.1874792, -0.09010793, -9.821121, 0, 0, 35.22089, 1, 1, 1000, 1000
MAG, 45957694, 407, 532, 309, 0, 0, 0, 0, 0, 0, 1, 45957686
RFND, 45957725, 0.2, 25, 0, 0
BARO, 45957758, -0.1681127, 993.3474, 33.29, -0.2315236, 45957, 0, 32.4
CTUN, 45957771, 0, 0, 0, 0.2985805, 0.05568387, 0.05568387, -0.16, 0, 0.19, 0, 0, 0
ATT, 45957862, 0, 0.21, 0, -0.06, 33.63, 33.64, 0, 1
RATE, 45957868, -0.9762928, -0.1415658, -0.001992621, 0.2962171, -0.1119466, 0.0005991729, -0.0005880718, -0.2182607, -0.0001070847, 335.881, -0.3741264, 0
NKF1, 45957876, 0.21, -0.06, 33.64, 0.05660299, 0.07344258, 0.008293357, 0, 0, 0, -0.05568388, 0, 0.02, -0.06
NKF2, 45957876, 0, 0, 0, 0, 0, 0, 0, 0, 0, 0, 0, 0, 0
NKF3, 45957876, 0, 0, 0, 0.16, 0.16, 0.01, 0, 0, 0, 0, 0
NKF4, 45957876, 0, 0, 0, 0, 0, 1.08583E-05, 0, 0, 0, 19, 229, 0, 0
NKF5, 45957876, 0, 0, 0, 0, 0.18, 0.13, 0, 0.19, 0.5, 5.681143E-05, 0.002666211, 0.006301983
NKQ1, 45957876, 0.9571484, -0.001503125, 0.01262205, 0.2893189
AHR2, 45957919, 0.17, 0.21, 31.51, -0.16, 0, 0, 0.9624277, 0.0009915836, 0.002229573, 0.2715273
MOTB, 45957926, 1, 1, 0, 1
RCIN, 45957930, 0, 0, 0, 0, 0, 0, 0, 0, 0, 0, 0, 0, 0, 0
RCOU, 45957936, 1225, 1221, 1222, 1224, 0, 0, 0, 0, 0, 0, 0, 0, 0, 0
VIBE, 45957944, 0.4050198, 0.6004241, 0.4656756, 0, 0, 0
CTRL, 45957951, 0.002320915, 0.0006914393, 0.0008004252, 0.0007478668, 0.0003029211
PRX, 45957982, 2, 0.64, 0, 0.58, 0, 3.6, 0, 2.45, 0, 0, 90, 0.58
IMU, 45978057, 0.004046012, 0.01179184, -0.02020187, 0.2345991, -0.04358415, -9.825627, 0, 0, 35.22226, 1, 1, 1000, 1000
RFND, 46007799, 0.2, 25, 0, 0
IMU, 46017761, -0.005066797, -0.0008851734, -0.002360559, 0.2937097, -0.05232902, -9.800249, 0, 0, 35.22328, 1, 1, 1000, 1000
MAG, 46057970, 412, 536, 312, 0, 0, 0, 0, 0, 0, 1, 46057962
RFND, 46057998, 0.2, 25, 0, 0
BARO, 46058036, -0.1120751, 993.3406, 33.29, -0.1068216, 46058, 0, 32.4
CTUN, 46058050, 0, 0, 0, 0.2985805, 0.0557675, 0.0557675, -0.11, 0, 0.19, 0, 0, 0
ATT, 46058204, 0, 0.21, 0, -0.05, 33.61, 33.62, 0, 1
RATE, 46058211, -0.9624721, 0.03191791, -0.001598769, 0.2591876, -0.2216278, 0.002800849, -0.0005114463, -0.2408572, 0.0001887752, 354.6649, 2.779102, 0
NKF1, 46058278, 0.21, -0.05, 33.62, 0.06011532, 0.07298653, 0.008757157, 0, 0, 0, -0.0557675, 0, 0.02, -0.06
NKF2, 46058278, 0, 0, 0, 0, 0, 0, 0, 0, 0, 0, 0, 0, 0
NKF3, 46058278, 0, 0, 0, 0.17, 0.17, 0.01, 0, 0, 0, 0, 0
NKF4, 46058278, 0, 0, 0, 0, 0, 1.196577E-05, 0, 0, 0, 19, 229, 0, 0
NKF5, 46058278, 0, 0, 0, 0, 0.19, 0.13, 0, 0.19, 0.5, 6.519206E-05, 0.002284373, 0.005268302
NKQ1, 46058278, 0.9571947, -0.001546437, 0.01268328, 0.2891628
AHR2, 46058327, 0.17, 0.22, 31.48, -0.11, 0, 0, 0.9624867, 0.0009504142, 0.002294036, 0.2713175
MOTB, 46058334, 1, 1, 0, 1
RCIN, 46058339, 0, 0, 0, 0, 0, 0, 0, 0, 0, 0, 0, 0, 0, 0
RCOU, 46058345, 1228, 1221, 1225, 1223, 0, 0, 0, 0, 0, 0, 0, 0, 0, 0
VIBE, 46058354, 0.3681707, 0.4671944, 0.4654383, 0, 0, 0
CTRL, 46058360, 0.002346608, 0.0008555662, 0.0008148979, 0.001132896, 0.0003541848
PRX, 46058391, 2, 0.64, 0, 0.58, 0, 3.6, 0, 2.43, 0, 0, 90, 0.58
IMU, 46058398, 0.0006371036, -0.003407062, -0.005389167, 0.2449556, -0.07014324, -9.83392, 0, 0, 35.22305, 1, 1, 1000, 1000
IMU, 46098016, 0.0074458, 0.01031792, 0.02215933, 0.2217709, -0.04706775, -9.81226, 0, 0, 35.22317, 1, 1, 1000, 1000
RFND, 46107846, 0.2, 25, 0, 0
IMU, 46138315, 0.00890117, 0.005665695, 0.004424472, 0.3862252, -0.008582508, -9.828287, 0, 0, 35.22253, 1, 1, 1000, 1000
MAG, 46157806, 406, 532, 305, 0, 0, 0, 0, 0, 0, 1, 46157798
RFND, 46157833, 0.2, 25, 0, 0
BARO, 46157869, -0.07845257, 993.3372, 33.29, 0.06983733, 46157, 0, 32.4
CTUN, 46157882, 0, 0, 0, 0.2985805, 0.05566155, 0.05566155, -0.07, 0, 0.19, 0, 0, 0
ATT, 46157972, 0, 0.21, 0, -0.05, 33.64, 33.65, 0, 1
RATE, 46157978, -0.9780958, -0.02696572, 0.0001257372, 0.2461964, -0.3153473, 0.004784552, -0.0004809169, -0.3054455, -0.0006287372, 328.6284, 0.3362656, 0
NKF1, 46157985, 0.21, -0.05, 33.65, 0.058052, 0.07385578, 0.008114283, 0, 0, 0, -0.05566155, 0, 0.02, -0.06
NKF2, 46157985, 0, 0, 0, 0, 0, 0, 0, 0, 0, 0, 0, 0, 0
NKF3, 46157985, 0, 0, 0, 0.18, 0.18, 0.01, 0, 0, 0, 0, 0
NKF4, 46157985, 0, 0, 0, 0, 0, 1.285797E-05, 0, 0, 0, 19, 229, 0, 0
NKF5, 46157985, 0, 0, 0, 0, 0.19, 0.13, 0, 0.19, 0.5, 7.481923E-05, 0.001805448, 0.004034891
NKQ1, 46157985, 0.9571181, -0.00152912, 0.01271526, 0.2894149
AHR2, 46158027, 0.18, 0.22, 31.5, -0.07, 0, 0, 0.962431, 0.0009739057, 0.00233733, 0.2715145
MOTB, 46158034, 1, 1, 0, 1
RCIN, 46158038, 0, 0, 0, 0, 0, 0, 0, 0, 0, 0, 0, 0, 0, 0
RCOU, 46158044, 1229, 1221, 1230, 1221, 0, 0, 0, 0, 0, 0, 0, 0, 0, 0
VIBE, 46158052, 0.4104765, 0.4372254, 0.420135, 0, 0, 0
CTRL, 46158058, 0.002428443, 0.001213594, 0.0008393913, 0.001402058, 0.0004876722
PRX, 46158089, 2, 0.64, 0, 0.58, 0, 3.6, 0, 2.45, 0, 0, 90, 0.58
IMU, 46177891, 0.000494262, -0.001703479, 0.01064643, 0.4197975, 0.006791112, -9.800919, 0, 0, 35.22268, 1, 1, 1000, 1000
RFND, 46207759, 0.2, 25, 0, 0
IMU, 46217768, 0.00201394, 0.003753832, 0.0009534882, 0.3047798, -0.06227946, -9.759871, 0, 0, 35.22315, 1, 1, 1000, 1000
MAG, 46257813, 405, 535, 308, 0, 0, 0, 0, 0, 0, 1, 46257805
RFND, 46257841, 0.2, 25, 0, 0
BARO, 46257877, -0.01681127, 993.3301, 33.29, 0.281242, 46257, 0, 32.4
CTUN, 46257890, 0, 0, 0, 0.2985805, 0.055817, 0.055817, -0.01, 0, 0.19, 0, 0, 0
ATT, 46258163, 0, 0.23, 0, -0.04, 33.64, 33.64, 0, 1
RATE, 46258168, -1.071548, 0.518904, -0.005873677, 0.1878994, 0.4645577, -0.0006899715, -0.0004358967, -0.9816275, -0.0003458354, 335.3388, -0.947094, 0
NKF1, 46258177, 0.23, -0.04, 33.64, 0.06050708, 0.07764032, 0.00827997, 0, 0, 0, -0.055817, 0, 0.02, -0.06
NKF2, 46258177, 0, 0, 0, 0, 0, 0, 0, 0, 0, 0, 0, 0, 0
NKF3, 46258177, 0, 0, 0, 0.18, 0.18, 0.01, 0, 0, 0, 0, 0
NKF4, 46258177, 0, 0, 0, 0, 0, 1.420632E-05, 0, 0, 0, 19, 229, 0, 0
NKF5, 46258177, 0, 0, 0, 0, 0.19, 0.13, 0, 0.19, 0.5, 6.900855E-05, 0.002004347, 0.004448292
NKQ1, 46258177, 0.9571242, -0.001384669, 0.01287079, 0.289389
AHR2, 46258308, 0.2, 0.24, 31.49, -0.01, 0, 0, 0.9624535, 0.001116955, 0.002523971, 0.2714324
MOTB, 46258319, 1, 1, 0, 1
RCIN, 46258324, 0, 0, 0, 0, 0, 0, 0, 0, 0, 0, 0, 0, 0, 0
RCOU, 46258330, 1230, 1221, 1221, 1232, 0, 0, 0, 0, 0, 0, 0, 0, 0, 0
VIBE, 46258338, 0.3558903, 0.3838113, 0.4548474, 0, 0, 0
CTRL, 46258343, 0.002512517, 0.001181159, 0.0009420929, 0.001694633, 0.0004803342
PRX, 46258373, 2, 0.64, 0, 0.58, 0, 3.6, 0, 2.43, 0, 0, 90, 0.58
IMU, 46258380, 0.00913658, 0.008568142, -0.01831604, 0.3008381, -0.05842209, -9.795251, 0, 0, 35.22312, 1, 1, 1000, 1000
IMU, 46297787, -0.001037779, 0.001470638, -0.005588108, 0.3334622, 0.04254264, -9.828568, 0, 0, 35.22297, 1, 1, 1000, 1000
RFND, 46307812, 0.2, 25, 0, 0
IMU, 46337876, -0.006577428, -0.00695592, 0.009938068, 0.1635536, -0.06118213, -9.869463, 0, 0, 35.22219, 1, 1, 1000, 1000
MAG, 46357712, 406, 532, 309, 0, 0, 0, 0, 0, 0, 1, 46357703
RFND, 46357740, 0.2, 25, 0, 0
BARO, 46357774, 0.002801878, 993.3281, 33.29, 0.4194061, 46357, 0, 32.4
CTUN, 46357786, 0, 0, 0, 0.2985805, 0.05582317, 0.05582317, 0, 0, 0.19, 0, 0, 0
ATT, 46357933, 0, 0.23, 0, -0.04, 33.64, 33.65, 0, 1
RATE, 46357939, -1.0614, 0.141245, -0.003542846, 0.1822862, 0.1843004, -0.002270171, -0.0003897755, -0.552595, 0.0002841587, 336.9226, -3.907108, 0
NKF1, 46357946, 0.23, -0.04, 33.65, 0.06053396, 0.08041926, 0.008319076, 0, 0, 0, -0.05582317, 0, 0.02, -0.06
NKF2, 46357946, 0, 0, 0, 0, 0, 0, 0, 0, 0, 0, 0, 0, 0
NKF3, 46357946, 0, 0, 0, 0.19, 0.19, 0.01, 0, 0, 0, 0, 0
NKF4, 46357946, 0, 0, 0, 0, 0, 1.52939E-05, 0, 0, 0, 19, 229, 0, 0
NKF5, 46357946, 0, 0, 0, 0, 0.19, 0.13, 0, 0.19, 0.5, 8.038739E-05, 0.001510538, 0.003153233
NKQ1, 46357946, 0.9571093, -0.001412635, 0.01287842, 0.2894371
AHR2, 46357987, 0.19, 0.24, 31.49, 0, 0, 0, 0.9624552, 0.001085115, 0.002554428, 0.2714262
MOTB, 46357995, 1, 1, 0, 1
RCIN, 46357999, 0, 0, 0, 0, 0, 0, 0, 0, 0, 0, 0, 0, 0, 0
RCOU, 46358005, 1227, 1225, 1221, 1231, 0, 0, 0, 0, 0, 0, 0, 0, 0, 0
VIBE, 46358013, 0.4054827, 0.3593094, 0.5356923, 0, 0, 0
CTRL, 46358020, 0.002566778, 0.001297641, 0.0009127714, 0.001628812, 0.0004095803
PRX, 46358051, 2, 0.64, 0, 0.58, 0, 3.6, 0, 2.44, 0, 0, 90, 0.58
IMU, 46377956, 0.005079445, 0.007372629, -0.002535627, -0.007323207, -0.1326473, -9.827703, 0, 0, 35.21925, 1, 1, 1000, 1000
RFND, 46407812, 0.2, 25, 0, 0
IMU, 46417869, 0.004840422, 0.003669856, -0.004715076, 0.4161496, -0.008803107, -9.766262, 0, 0, 35.2139, 1, 1, 1000, 1000
MAG, 46458098, 407, 535, 318, 0, 0, 0, 0, 0, 0, 1, 46458089
RFND, 46458127, 0.2, 25, 0, 0
BARO, 46458163, -0.03362253, 993.3324, 33.28, 0.4156887, 46458, 0, 32.4
CTUN, 46458176, 0, 0, 0, 0.2985805, 0.05580937, 0.05580937, -0.03, 0, 0.19, 0, 0, 0
ATT, 46458370, 0, 0.23, 0, -0.03, 33.65, 33.65, 0, 1
RATE, 46458377, -1.040771, -0.5109953, 0.001266028, 0.1460575, 0.01686371, -0.0002710826, -0.000297778, 0.5000346, -1.566599E-05, 369.1823, -6.198215, 0
NKF1, 46458387, 0.23, -0.03, 33.65, 0.05938846, 0.07730483, 0.009115612, 0, 0, 0, -0.05580937, 0, 0.02, -0.06
NKF2, 46458387, 0, 0, 0, 0, 0, 0, 0, 0, 0, 0, 0, 0, 0
NKF3, 46458387, 0, 0, 0, 0.19, 0.19, 0.01, 0, 0, 0, 0, 0
NKF4, 46458387, 0, 0, 0, 0, 0, 1.667119E-05, 0, 0, 0, 19, 229, 0, 0
NKF5, 46458387, 0, 0, 0, 0, 0.19, 0.13, 0, 0.19, 0.5, 7.323077E-05, 0.001754482, 0.003724591
NKQ1, 46458387, 0.9570965, -0.001469428, 0.01294297, 0.2894763
AHR2, 46458433, 0.19, 0.25, 31.49, -0.03, 0, 0, 0.9624591, 0.00102289, 0.002591256, 0.2714124
MOTB, 46458440, 1, 1, 0, 1
RCIN, 46458445, 0, 0, 0, 0, 0, 0, 0, 0, 0, 0, 0, 0, 0, 0
RCOU, 46458451, 1221, 1223, 1223, 1221, 0, 0, 0, 0, 0, 0, 0, 0, 0, 0
VIBE, 46458459, 0.6117815, 0.5013571, 0.5648879, 0, 0, 0
CTRL, 46458466, 0.002573574, 0.001393188, 0.0008484463, 0.001616408, 0.000346868
PRX, 46458497, 2, 0.64, 0, 0.58, 0, 3.6, 0, 2.45, 0, 0, 90, 0.58
IMU, 46458505, -0.008838596, 0.0007532531, 0.007546184, 0.3520228, -0.03106586, -9.741511, 0, 0, 35.20684, 1, 1, 1000, 1000
IMU, 46497851, 0.003704649, 0.002279875, -0.002494844, 0.009943333, -0.1196642, -9.774889, 0, 0, 35.19916, 1, 1, 1000, 1000
RFND, 46508084, 0.2, 25, 0, 0
IMU, 46538577, 0.007955568, -0.001967499, -0.00456718, 0.4567945, 0.02367816, -9.812896, 0, 0, 35.18897, 1, 1, 1000, 1000
MAG, 46557791, 408, 530, 315, 0, 0, 0, 0, 0, 0, 1, 46557782
RFND, 46557818, 0.2, 25, 0, 0
BARO, 46557853, -0.04483004, 993.3333, 33.27, 0.2635516, 46557, 0, 32.4
CTUN, 46557865, 0, 0, 0, 0.2985805, 0.0556318, 0.0556318, -0.04, 0, 0.19, 0, 0, -1
ATT, 46557959, 0, 0.24, 0, -0.03, 33.65, 33.65, 0, 1
RATE, 46557966, -1.091718, 0.09972908, -0.004355463, 0.1529428, -0.1017038, 0.002438759, -0.0003595195, 0.179197, -0.0001778056, 458.3471, -7.774258, 0
NKF1, 46557973, 0.24, -0.03, 33.65, 0.06067276, 0.0799899, 0.01131721, 0, 0, 0, -0.0556318, 0, 0.02, -0.06
NKF2, 46557973, 0, 0, 0, 0, 0, 0, 0, 0, 0, 0, 0, 0, 0
NKF3, 46557973, 0, 0, 0, 0.2, 0.21, 0.01, 0, 0, 0, 0, 0
NKF4, 46557973, 0, 0, 0, 0, 0, 1.801497E-05, 0, 0, 0, 19, 229, 0, 0
NKF5, 46557973, 0, 0, 0, 0, 0.19, 0.13, 0, 0.19, 0.5, 8.655253E-05, 0.001248844, 0.002378267
NKQ1, 46557973, 0.9571008, -0.00137114, 0.01295624, 0.2894623
AHR2, 46558017, 0.2, 0.25, 31.48, -0.04, 0, 0, 0.9624787, 0.00110807, 0.002579513, 0.2713428
MOTB, 46558024, 1, 1, 0, 1
RCIN, 46558028, 0, 0, 0, 0, 0, 0, 0, 0, 0, 0, 0, 0, 0, 0
