FMT, 128, 89, FMT, BBnNZ, Type,Length,Name,Format,Columns
FMT, 129, 31, PARM, QNf, TimeUS,Name,Value
FMT, 130, 46, GPS, QBIHBcLLefffB, TimeUS,Status,GMS,GWk,NSats,HDop,Lat,Lng,Alt,Spd,GCrs,VZ,U
FMT, 131, 46, GPS2, QBIHBcLLefffB, TimeUS,Status,GMS,GWk,NSats,HDop,Lat,Lng,Alt,Spd,GCrs,VZ,U
FMT, 132, 46, GPSB, QBIHBcLLefffB, TimeUS,Status,GMS,GWk,NSats,HDop,Lat,Lng,Alt,Spd,GCrs,VZ,U
FMT, 193, 24, GPA, QCCCCBI, TimeUS,VDop,HAcc,VAcc,SAcc,VV,SMS
FMT, 194, 24, GPA2, QCCCCBI, TimeUS,VDop,HAcc,VAcc,SAcc,VV,SMS
FMT, 195, 24, GPAB, QCCCCBI, TimeUS,VDop,HAcc,VAcc,SAcc,VV,SMS
FMT, 133, 53, IMU, QffffffIIfBBHH, TimeUS,GyrX,GyrY,GyrZ,AccX,AccY,AccZ,EG,EA,T,GH,AH,GHz,AHz
FMT, 134, 75, MSG, QZ, TimeUS,Message
FMT, 135, 39, RCIN, QHHHHHHHHHHHHHH, TimeUS,C1,C2,C3,C4,C5,C6,C7,C8,C9,C10,C11,C12,C13,C14
FMT, 136, 39, RCOU, QHHHHHHHHHHHHHH, TimeUS,C1,C2,C3,C4,C5,C6,C7,C8,C9,C10,C11,C12,C13,C14
FMT, 137, 15, RSSI, Qf, TimeUS,RXRSSI
FMT, 139, 37, BARO, QffcfIff, TimeUS,Alt,Press,Temp,CRt,SMS,Offset,GndTemp
FMT, 140, 22, POWR, QffHB, TimeUS,Vcc,VServo,Flags,Safety
FMT, 143, 45, CMD, QHHHfffffff, TimeUS,CTot,CNum,CId,Prm1,Prm2,Prm3,Prm4,Lat,Lng,Alt
FMT, 144, 20, RAD, QBBBBBHH, TimeUS,RSSI,RemRSSI,TxBuf,Noise,RemNoise,RxErrors,Fixed
FMT, 146, 43, CAM, QIHLLeeeccC, TimeUS,GPSTime,GPSWeek,Lat,Lng,Alt,RelAlt,GPSAlt,Roll,Pitch,Yaw
FMT, 232, 43, TRIG, QIHLLeeeccC, TimeUS,GPSTime,GPSWeek,Lat,Lng,Alt,RelAlt,GPSAlt,Roll,Pitch,Yaw
FMT, 162, 30, ARSP, QffcffB, TimeUS,Airspeed,DiffPress,Temp,RawPress,Offset,U
FMT, 164, 45, CURR, QfffcHHHHHHHHHH, TimeUS,Volt,Curr,CurrTot,Temp,V1,V2,V3,V4,V5,V6,V7,V8,V9,V10
FMT, 165, 45, CUR2, QfffcHHHHHHHHHH, TimeUS,Volt,Curr,CurrTot,Temp,V1,V2,V3,V4,V5,V6,V7,V8,V9,V10
FMT, 163, 27, ATT, QccccCCCC, TimeUS,DesRoll,Roll,DesPitch,Pitch,DesYaw,Yaw,ErrRP,ErrYaw
FMT, 166, 34, MAG, QhhhhhhhhhBI, TimeUS,MagX,MagY,MagZ,OfsX,OfsY,OfsZ,MOfsX,MOfsY,MOfsZ,Health,S
FMT, 169, 14, MODE, QMBB, TimeUS,Mode,ModeNum,Rsn
FMT, 196, 17, RFND, QCBCB, TimeUS,Dist1,Orient1,Dist2,Orient2
FMT, 223, 33, DMS, IIIIIBBBBBBBBBB, TimeMS,N,Dp,RT,RS,Er,Fa,Fmn,Fmx,Pa,Pmn,Pmx,Sa,Smn,Smx
FMT, 240, 41, BCN, QBBfffffff, TimeUS,Health,Cnt,D0,D1,D2,D3,PosX,PosY,PosZ
FMT, 138, 53, IMU2, QffffffIIfBBHH, TimeUS,GyrX,GyrY,GyrZ,AccX,AccY,AccZ,EG,EA,T,GH,AH,GHz,AHz
FMT, 147, 53, IMU3, QffffffIIfBBHH, TimeUS,GyrX,GyrY,GyrZ,AccX,AccY,AccZ,EG,EA,T,GH,AH,GHz,AHz
FMT, 141, 45, AHR2, QccCfLLffff, TimeUS,Roll,Pitch,Yaw,Alt,Lat,Lng,Q1,Q2,Q3,Q4
FMT, 180, 31, POS, QLLfff, TimeUS,Lat,Lng,Alt,RelHomeAlt,RelOriginAlt
FMT, 142, 45, SIM, QccCfLLffff, TimeUS,Roll,Pitch,Yaw,Alt,Lat,Lng,Q1,Q2,Q3,Q4
FMT, 198, 51, NKF1, QccCfffffffccc, TimeUS,Roll,Pitch,Yaw,VN,VE,VD,dPD,PN,PE,PD,GX,GY,GZ
FMT, 199, 35, NKF2, QbccccchhhhhhB, TimeUS,AZbias,GSX,GSY,GSZ,VWN,VWE,MN,ME,MD,MX,MY,MZ,MI
FMT, 200, 33, NKF3, Qcccccchhhcc, TimeUS,IVN,IVE,IVD,IPN,IPE,IPD,IMX,IMY,IMZ,IYAW,IVT
FMT, 201, 35, NKF4, QcccccfbbHBHHb, TimeUS,SV,SP,SH,SM,SVT,errRP,OFN,OFE,FS,TS,SS,GPS,PI
FMT, 202, 40, NKF5, QBhhhcccCCfff, TimeUS,NI,FIX,FIY,AFI,HAGL,offset,RI,rng,Herr,eAng,eVel,ePos
FMT, 203, 51, NKF6, QccCfffffffccc, TimeUS,Roll,Pitch,Yaw,VN,VE,VD,dPD,PN,PE,PD,GX,GY,GZ
FMT, 204, 35, NKF7, QbccccchhhhhhB, TimeUS,AZbias,GSX,GSY,GSZ,VWN,VWE,MN,ME,MD,MX,MY,MZ,MI
FMT, 205, 33, NKF8, Qcccccchhhcc, TimeUS,IVN,IVE,IVD,IPN,IPE,IPD,IMX,IMY,IMZ,IYAW,IVT
FMT, 206, 35, NKF9, QcccccfbbHBHHb, TimeUS,SV,SP,SH,SM,SVT,errRP,OFN,OFE,FS,TS,SS,GPS,PI
FMT, 207, 36, NKF0, QBccCCcccccccc, TimeUS,ID,rng,innov,SIV,TR,BPN,BPE,BPD,OFH,OFL,OFN,OFE,OFD
FMT, 208, 27, NKQ1, Qffff, TimeUS,Q1,Q2,Q3,Q4
FMT, 209, 27, NKQ2, Qffff, TimeUS,Q1,Q2,Q3,Q4
FMT, 210, 51, XKF1, QccCfffffffccc, TimeUS,Roll,Pitch,Yaw,VN,VE,VD,dPD,PN,PE,PD,GX,GY,GZ
FMT, 211, 34, XKF2, QccccchhhhhhB, TimeUS,AX,AY,AZ,VWN,VWE,MN,ME,MD,MX,MY,MZ,MI
FMT, 212, 33, XKF3, Qcccccchhhcc, TimeUS,IVN,IVE,IVD,IPN,IPE,IPD,IMX,IMY,IMZ,IYAW,IVT
FMT, 213, 35, XKF4, QcccccfbbHBHHb, TimeUS,SV,SP,SH,SM,SVT,errRP,OFN,OFE,FS,TS,SS,GPS,PI
FMT, 214, 40, XKF5, QBhhhcccCCfff, TimeUS,NI,FIX,FIY,AFI,HAGL,offset,RI,rng,Herr,eAng,eVel,ePos
FMT, 215, 51, XKF6, QccCfffffffccc, TimeUS,Roll,Pitch,Yaw,VN,VE,VD,dPD,PN,PE,PD,GX,GY,GZ
FMT, 216, 34, XKF7, QccccchhhhhhB, TimeUS,AX,AY,AZ,VWN,VWE,MN,ME,MD,MX,MY,MZ,MI
FMT, 217, 33, XKF8, Qcccccchhhcc, TimeUS,IVN,IVE,IVD,IPN,IPE,IPD,IMX,IMY,IMZ,IYAW,IVT
FMT, 218, 35, XKF9, QcccccfbbHBHHb, TimeUS,SV,SP,SH,SM,SVT,errRP,OFN,OFE,FS,TS,SS,GPS,PI
FMT, 219, 36, XKF0, QBccCCcccccccc, TimeUS,ID,rng,innov,SIV,TR,BPN,BPE,BPD,OFH,OFL,OFN,OFE,OFD
FMT, 220, 27, XKQ1, Qffff, TimeUS,Q1,Q2,Q3,Q4
FMT, 221, 27, XKQ2, Qffff, TimeUS,Q1,Q2,Q3,Q4
FMT, 222, 35, XKFD, Qffffff, TimeUS,IX,IY,IZ,IVX,IVY,IVZ
FMT, 148, 34, TERR, QBLLHffHH, TimeUS,Status,Lat,Lng,Spacing,TerrH,CHeight,Pending,Loaded
FMT, 149, 18, UBX1, QBHBBH, TimeUS,Instance,noisePerMS,jamInd,aPower,agcCnt
FMT, 150, 16, UBX2, QBbBbB, TimeUS,Instance,ofsI,magI,ofsQ,magQ
FMT, 151, 18, UBY1, QBHBBH, TimeUS,Instance,noisePerMS,jamInd,aPower,agcCnt
FMT, 152, 16, UBY2, QBbBbB, TimeUS,Instance,ofsI,magI,ofsQ,magQ
FMT, 170, 42, GRAW, QIHBBddfBbB, TimeUS,WkMS,Week,numSV,sv,cpMes,prMes,doMes,mesQI,cno,lli
FMT, 171, 24, GRXH, QdHbBB, TimeUS,rcvTime,week,leapS,numMeas,recStat
FMT, 172, 41, GRXS, QddfBBBHBBBBB, TimeUS,prMes,cpMes,doMes,gnss,sv,freq,lock,cno,prD,cpD,doD,trk
FMT, 173, 63, SBFE, QIHBBdddfffff, TimeUS,TOW,WN,Mode,Err,Lat,Lng,Height,Undul,Vn,Ve,Vu,COG
FMT, 153, 19, ESC1, Qcccc, TimeUS,RPM,Volt,Curr,Temp
FMT, 154, 19, ESC2, Qcccc, TimeUS,RPM,Volt,Curr,Temp
FMT, 155, 19, ESC3, Qcccc, TimeUS,RPM,Volt,Curr,Temp
FMT, 156, 19, ESC4, Qcccc, TimeUS,RPM,Volt,Curr,Temp
FMT, 157, 19, ESC5, Qcccc, TimeUS,RPM,Volt,Curr,Temp
FMT, 158, 19, ESC6, Qcccc, TimeUS,RPM,Volt,Curr,Temp
FMT, 159, 19, ESC7, Qcccc, TimeUS,RPM,Volt,Curr,Temp
FMT, 160, 19, ESC8, Qcccc, TimeUS,RPM,Volt,Curr,Temp
FMT, 167, 34, MAG2, QhhhhhhhhhBI, TimeUS,MagX,MagY,MagZ,OfsX,OfsY,OfsZ,MOfsX,MOfsY,MOfsZ,Health,S
FMT, 168, 34, MAG3, QhhhhhhhhhBI, TimeUS,MagX,MagY,MagZ,OfsX,OfsY,OfsZ,MOfsX,MOfsY,MOfsZ,Health,S
FMT, 174, 31, ACC1, QQfff, TimeUS,SampleUS,AccX,AccY,AccZ
FMT, 175, 31, ACC2, QQfff, TimeUS,SampleUS,AccX,AccY,AccZ
FMT, 176, 31, ACC3, QQfff, TimeUS,SampleUS,AccX,AccY,AccZ
FMT, 177, 31, GYR1, QQfff, TimeUS,SampleUS,GyrX,GyrY,GyrZ
FMT, 178, 31, GYR2, QQfff, TimeUS,SampleUS,GyrX,GyrY,GyrZ
FMT, 179, 31, GYR3, QQfff, TimeUS,SampleUS,GyrX,GyrY,GyrZ
FMT, 181, 35, PIDR, Qffffff, TimeUS,Des,P,I,D,FF,AFF
FMT, 182, 35, PIDP, Qffffff, TimeUS,Des,P,I,D,FF,AFF
FMT, 183, 35, PIDY, Qffffff, TimeUS,Des,P,I,D,FF,AFF
FMT, 184, 35, PIDA, Qffffff, TimeUS,Des,P,I,D,FF,AFF
FMT, 185, 35, PIDS, Qffffff, TimeUS,Des,P,I,D,FF,AFF
FMT, 186, 35, PIDL, Qffffff, TimeUS,Des,P,I,D,FF,AFF
FMT, 161, 37, BAR2, QffcfIff, TimeUS,Alt,Press,Temp,CRt,SMS,Offset,GndTemp
FMT, 197, 37, BAR3, QffcfIff, TimeUS,Alt,Press,Temp,CRt,SMS,Offset,GndTemp
FMT, 187, 35, VIBE, QfffIII, TimeUS,VibeX,VibeY,VibeZ,Clip0,Clip1,Clip2
FMT, 188, 47, IMT, Qfffffffff, TimeUS,DelT,DelvT,DelaT,DelAX,DelAY,DelAZ,DelVX,DelVY,DelVZ
FMT, 189, 47, IMT2, Qfffffffff, TimeUS,DelT,DelvT,DelaT,DelAX,DelAY,DelAZ,DelVX,DelVY,DelVZ
FMT, 190, 47, IMT3, Qfffffffff, TimeUS,DelT,DelvT,DelaT,DelAX,DelAY,DelAZ,DelVX,DelVY,DelVZ
FMT, 191, 24, ORGN, QBLLe, TimeUS,Type,Lat,Lng,Alt
FMT, 192, 19, RPM, Qff, TimeUS,rpm1,rpm2
FMT, 233, 47, GMB1, Iffffffffff, TimeMS,dt,dax,day,daz,dvx,dvy,dvz,jx,jy,jz
FMT, 234, 44, GMB2, IBfffffffff, TimeMS,es,ex,ey,ez,rx,ry,rz,tx,ty,tz
FMT, 235, 13, GMB3, Ihhh, TimeMS,rl_torque_cmd,el_torque_cmd,az_torque_cmd
FMT, 236, 59, RATE, Qffffffffffff, TimeUS,RDes,R,ROut,PDes,P,POut,YDes,Y,YOut,ADes,A,AOut
FMT, 237, 23, RALY, QBBLLh, TimeUS,Tot,Seq,Lat,Lng,Alt
FMT, 238, 43, VISO, Qffffffff, TimeUS,dt,AngDX,AngDY,AngDZ,PosDX,PosDY,PosDZ,conf
FMT, 224, 23, SBPH, QIII, TimeUS,CrcError,LastInject,IARhyp
FMT, 229, 80, SBR1, QHHBZ, TimeUS,msg_type,sender_id,msg_len,d1
FMT, 230, 205, SBR2, QHZZZ, TimeUS,msg_type,d2,d3,d4
FMT, 25, 41, ATUN, QBBfffffff, TimeUS,Axis,TuneStep,Targ,Min,Max,RP,RD,SP,ddt
FMT, 26, 19, ATDE, Qff, TimeUS,Angle,Rate
FMT, 31, 22, PTUN, QBfHHH, TimeUS,Param,TunVal,CtrlIn,TunLo,TunHi
FMT, 12, 28, OF, QBffff, TimeUS,Qual,flowX,flowY,bodyX,bodyY
FMT, 5, 51, NTUN, Qffffffffff, TimeUS,DPosX,DPosY,PosX,PosY,DVelX,DVelY,VelX,VelY,DAccX,DAccY
FMT, 4, 51, CTUN, Qffffffeccfhh, TimeUS,ThI,ABst,ThO,ThH,DAlt,Alt,BAlt,DSAlt,SAlt,TAlt,DCRt,CRt
FMT, 6, 32, PM, QHHIhBHII, TimeUS,NLon,NLoop,MaxT,PMT,I2CErr,INSErr,LogDrop,Mem
FMT, 30, 27, MOTB, Qffff, TimeUS,LiftMax,BatVolt,BatRes,ThLimit
FMT, 13, 12, EV, QB, TimeUS,Id
FMT, 20, 14, D16, QBh, TimeUS,Id,Value
FMT, 21, 14, DU16, QBH, TimeUS,Id,Value
FMT, 22, 16, D32, QBi, TimeUS,Id,Value
FMT, 23, 16, DU32, QBI, TimeUS,Id,Value
FMT, 24, 16, DFLT, QBf, TimeUS,Id,Value
FMT, 19, 13, ERR, QBB, TimeUS,Subsys,ECode
FMT, 32, 19, HELI, Qff, TimeUS,DRRPM,ERRPM
FMT, 33, 29, PL, QBBffff, TimeUS,Heal,TAcq,pX,pY,vX,vY
FMT, 34, 36, GUID, QBffffff, TimeUS,Type,pX,pY,pZ,vX,vY,vZ
FMT, 35, 32, THRO, QBffffbbbb, TimeUS,Stage,Vel,VelZ,Acc,AccEfZ,Throw,AttOk,HgtOk,PosOk
FMT, 36, 56, PRX, QBfffffffffff, TimeUS,Health,D0,D45,D90,D135,D180,D225,D270,D315,DUp,CAn,CDis
MODE, 32466373, 100, 100, 2
FMT, 254, 47, NKT1, QIffffffff, TimeUS,Cnt,IMUMin,IMUMax,EKFMin,EKFMax,AngMin,AngMax,VelMin,VelM
FMT, 253, 31, CTRL, Qfffff, TimeUS,RMSRollP,RMSRollD,RMSPitchP,RMSPitchD,RMSYaw
MSG, 32631139, APM:Copter V3.5.7 (38483450)
MSG, 32631143, New mission
MSG, 32631154, Frame: QUAD
MODE, 32631159, Autonomous, 100, 2
IMU, 32656604, -0.001755257, -0.0001689061, -0.001502024, 0.2815334, -0.02667009, -9.808949, 0, 0, 33.86575, 1, 1, 1000, 1000
RFND, 32665677, 0.2, 25, 0, 0
IMU, 32695964, -0.001894598, 0.00109681, 0.0003870987, 0.264663, -0.04125373, -9.81511, 0, 0, 33.86568, 1, 1, 1000, 1000
MAG, 32715763, 406, 525, 349, 0, 0, 0, 0, 0, 0, 1, 32715755
RFND, 32715798, 0.2, 25, 0, 0
BARO, 32715834, -0.4186724, 993.4097, 31.86, -0.06729131, 32715, 0, 31.23
CTUN, 32715848, 0, 0, 0, 0.303312, 0.03137206, 0.03137206, -0.41, 0, 0.19, 0, 0, -2
ATT, 32715928, 0, 0.17, 0, -0.04, 344.28, 344.29, 0, 1
RATE, 32715934, -0.7739017, -0.02127265, -0.001686477, 0.2001309, -0.08853447, 0.0009181979, 0.01286909, -0.9986923, 0.003212198, 908.7933, -0.8810043, 0
NKF1, 32715942, 0.17, -0.04, 344.28, 0.02457339, -0.01480292, 0.02243934, 0, 0, 0, -0.03137206, -0.12, 0.07, 1.01
NKF2, 32715942, -1, 0, 0, 0, 0, 0, 0, 0, 0, 0, 0, 0, 0
NKF3, 32715942, 0, 0, 0, 0.01, -0.01, 0.03, 0, 0, 0, 0, 0
NKF4, 32715942, 0, 0, 0.01, 0, 0, 2.706851E-05, 0, 0, 0, 19, 229, 0, 0
NKF5, 32715942, 0, 0, 0, 0, 0.17, 0.13, 0, 0.19, 0.5, 7.30391E-05, 0.002156533, 0.002953658
NKQ1, 32715942, 0.9905246, 0.003534968, 0.01233518, -0.136735
AHR2, 32715987, -0.11, 0.08, 5.23, -0.41, 0, 0, 0.998956, -0.001036984, 0.0007087928, 0.04566555
MOTB, 32715994, 1, 1, 0, 1
RCIN, 32715998, 0, 0, 0, 0, 0, 0, 0, 0, 0, 0, 0, 0, 0, 0
RCOU, 32716004, 1101, 1101, 1101, 1101, 0, 0, 0, 0, 0, 0, 0, 0, 0, 0
VIBE, 32716013, 0.02034286, 0.02093496, 0.02987585, 0, 0, 0
CTRL, 32716020, 0.001881861, 0.000194396, 0.0005050124, 0.0001901558, 0.00323947
PRX, 32716053, 2, 0.62, 0, 0.63, 0, 3.6, 0, 2.39, 0, 0, 0, 0.62
IMU, 32735984, -0.002930798, -0.0005716755, -0.0004822826, 0.270573, -0.04828018, -9.831966, 0, 0, 33.86566, 1, 1, 1000, 1000
RFND, 32765598, 0.2, 25, 0, 0
IMU, 32775675, -0.001777007, 0.001137954, 0.000117958, 0.2647511, -0.04655501, -9.812393, 0, 0, 33.86564, 1, 1, 1000, 1000
DU32, 32813065, 7, 50389208
MAG, 32815882, 407, 520, 347, 0, 0, 0, 0, 0, 0, 1, 32815874
RFND, 32815914, 0.2, 25, 0, 0
BARO, 32815950, -0.4354193, 993.4116, 31.86, 0.09686021, 32815, 0, 31.23
CTUN, 32815962, 0, 0, 0, 0.303312, 0.03219527, 0.03219527, -0.43, 0, 0.19, 0, 0, -2
ATT, 32816164, 0, 0.17, 0, -0.04, 344.17, 344.19, 0, 1
RATE, 32816170, -0.7842971, 0.06975326, -0.001717128, 0.2182546, -0.02981486, 0.0005214787, 0.01236217, -1.026119, 0.003255877, 855.834, -1.751804, 0
NKF1, 32816178, 0.17, -0.04, 344.18, 0.02604156, -0.01556577, 0.0211317, 0, 0, 0, -0.03219527, -0.13, 0.07, 1.02
NKF2, 32816178, -1, 0, 0, 0, 0, 0, 0, 0, 0, 0, 0, 0, 0
NKF3, 32816178, 0, 0, 0, 0.01, -0.01, 0.03, 0, 0, 0, 0, 0
NKF4, 32816178, 0, 0, 0.01, 0, 0, 1.819925E-05, 0, 0, 0, 19, 229, 0, 0
NKF5, 32816178, 0, 0, 0, 0, 0.16, 0.13, 0, 0.19, 0.5, 5.441483E-05, 0.00259153, 0.003988176
NKQ1, 32816178, 0.9904014, 0.003561399, 0.01229406, -0.1376273
AHR2, 32816223, -0.11, 0.08, 5.23, -0.43, 0, 0, 0.9989566, -0.001024708, 0.0006864668, 0.04565417
MOTB, 32816311, 1, 1, 0, 1
RCIN, 32816317, 0, 0, 0, 0, 0, 0, 0, 0, 0, 0, 0, 0, 0, 0
RCOU, 32816323, 1101, 1101, 1101, 1101, 0, 0, 0, 0, 0, 0, 0, 0, 0, 0
VIBE, 32816332, 0.01972256, 0.02163027, 0.03382391, 0, 0, 0
CTRL, 32816338, 0.001908139, 0.0001984805, 0.0005564854, 0.00018423, 0.003240449
PRX, 32816370, 2, 0.62, 0, 0.63, 0, 3.6, 0, 2.4, 0, 0, 0, 0.62
IMU, 32816377, -0.001057555, 0.0007062292, -6.751376E-05, 0.275825, -0.04212515, -9.799729, 0, 0, 33.86644, 1, 1, 1000, 1000
IMU, 32855736, -0.002794371, 0.0001209524, -0.0008691876, 0.2605326, -0.03700063, -9.807058, 0, 0, 33.86712, 1, 1, 1000, 1000
RFND, 32865760, 0.2, 25, 0, 0
IMU, 32895668, -0.001635974, 0.001671222, 0.0005968307, 0.2745319, -0.04641191, -9.817051, 0, 0, 33.86833, 1, 1, 1000, 1000
MAG, 32916092, 405, 524, 347, 0, 0, 0, 0, 0, 0, 1, 32916083
RFND, 32916124, 0.2, 25, 0, 0
BARO, 32916160, -0.4242547, 993.4103, 31.87, 0.07307762, 32916, 0, 31.23
CTUN, 32916173, 0, 0, 0, 0.303312, 0.03288914, 0.03288914, -0.42, 0, 0.19, 0, 0, -2
ATT, 32916323, 0, 0.17, 0, -0.05, 344.07, 344.08, 0, 1
RATE, 32916330, -0.7769124, -0.01859137, -0.001687541, 0.2264871, -0.03345567, 0.0008497371, 0.01149391, -1.016022, 0.003253285, 827.0529, 0.1358032, 0
NKF1, 32916338, 0.17, -0.05, 344.07, 0.02799585, -0.01656075, 0.02042106, 0, 0, 0, -0.03288914, -0.13, 0.07, 1.02
NKF2, 32916338, -1, 0, 0, 0, 0, 0, 0, 0, 0, 0, 0, 0, 0
NKF3, 32916338, 0, 0, 0, 0.02, -0.01, 0.03, 0, 0, 0, 0, 0
NKF4, 32916338, 0, 0, 0.01, 0, 0, 1.21621E-05, 0, 0, 0, 19, 229, 0, 0
NKF5, 32916338, 0, 0, 0, 0, 0.17, 0.13, 0, 0.19, 0.5, 6.602281E-05, 0.00265182, 0.003961996
NKQ1, 32916338, 0.9902768, 0.003555306, 0.0122775, -0.1385228
AHR2, 32916385, -0.11, 0.08, 5.23, -0.42, 0, 0, 0.9989569, -0.001048402, 0.000685462, 0.04564557
MOTB, 32916393, 1, 1, 0, 1
RCIN, 32916398, 0, 0, 0, 0, 0, 0, 0, 0, 0, 0, 0, 0, 0, 0
RCOU, 32916404, 1101, 1101, 1101, 1101, 0, 0, 0, 0, 0, 0, 0, 0, 0, 0
VIBE, 32916413, 0.01795055, 0.01991335, 0.03066249, 0, 0, 0
CTRL, 32916420, 0.001894724, 0.0001825977, 0.0005567372, 0.0001808839, 0.003247944
PRX, 32916451, 2, 0.62, 0, 0.63, 0, 3.6, 0, 2.37, 0, 0, 0, 0.62
IMU, 32935832, -0.001097637, 7.998545E-05, -0.0003105149, 0.2733408, -0.03929805, -9.811222, 0, 0, 33.8698, 1, 1, 1000, 1000
RFND, 32965566, 0.2, 25, 0, 0
IMU, 32975662, -0.002215507, -0.0003268587, 0.0002509583, 0.2825077, -0.04300784, -9.805981, 0, 0, 33.87087, 1, 1, 1000, 1000
MAG, 33015652, 406, 525, 347, 0, 0, 0, 0, 0, 0, 1, 33015644
RFND, 33015761, 0.2, 25, 0, 0
BARO, 33015797, -0.429837, 993.411, 31.87, 0.01042624, 33015, 0, 31.23
CTUN, 33015811, 0, 0, 0, 0.303312, 0.03340214, 0.03340214, -0.42, 0, 0.19, 0, 0, -2
ATT, 33015981, 0, 0.17, 0, -0.05, 343.97, 343.98, 0, 1
RATE, 33015987, -0.7730265, 0.01426113, -0.001791038, 0.2395305, -0.03251963, 0.0004655767, 0.008881495, -1.015567, 0.003240246, 829.2855, -2.375698, 0
NKF1, 33015995, 0.17, -0.05, 343.97, 0.03004727, -0.01802367, 0.02047618, 0, 0, 0, -0.03340214, -0.13, 0.07, 1.02
NKF2, 33015995, -1, 0, 0, 0, 0, 0, 0, 0, 0, 0, 0, 0, 0
NKF3, 33015995, 0, 0, 0, 0.02, -0.01, 0.03, 0, 0, 0, 0, 0
NKF4, 33015995, 0, 0, 0.01, 0, 0, 8.261645E-06, 0, 0, 0, 19, 229, 0, 0
NKF5, 33015995, 0, 0, 0, 0, 0.16, 0.13, 0, 0.19, 0.5, 7.877728E-05, 0.002972249, 0.005023482
NKQ1, 33015995, 0.9901515, 0.003563551, 0.01224648, -0.1394182
AHR2, 33016043, -0.11, 0.08, 5.23, -0.42, 0, 0, 0.9989571, -0.001055651, 0.0006768261, 0.04564216
MOTB, 33016050, 1, 1, 0, 1
RCIN, 33016054, 0, 0, 0, 0, 0, 0, 0, 0, 0, 0, 0, 0, 0, 0
RCOU, 33016060, 1101, 1101, 1101, 1101, 0, 0, 0, 0, 0, 0, 0, 0, 0, 0
VIBE, 33016069, 0.01962823, 0.01843374, 0.03132328, 0, 0, 0
CTRL, 33016076, 0.001896558, 0.0001831822, 0.0005958095, 0.0001891142, 0.003259201
PRX, 33016108, 2, 0.62, 0, 0.63, 0, 3.6, 0, 2.39, 0, 0, 0, 0.62
IMU, 33016116, -0.002038426, 0.0006656417, 0.0002161405, 0.264071, -0.04687374, -9.793777, 0, 0, 33.87235, 1, 1, 1000, 1000
IMU, 33055809, -0.002749642, 0.0009101405, 0.0009254123, 0.2732288, -0.04894093, -9.807161, 0, 0, 33.874, 1, 1, 1000, 1000
RFND, 33065584, 0.2, 25, 0, 0
IMU, 33096109, -0.001678448, 0.0007271671, 0.0004842442, 0.2665616, -0.03924256, -9.812229, 0, 0, 33.8755, 1, 1, 1000, 1000
MAG, 33115613, 408, 526, 344, 0, 0, 0, 0, 0, 0, 1, 33115604
RFND, 33115645, 0.2, 25, 0, 0
BARO, 33115680, -0.3516848, 993.4026, 31.87, 0.01578438, 33115, 0, 31.23
CTUN, 33115692, 0, 0, 0, 0.303312, 0.03408303, 0.03408303, -0.35, 0, 0.19, 0, 0, -2
ATT, 33115778, 0, 0.17, 0, -0.05, 343.86, 343.88, 0, 1
RATE, 33115784, -0.7768702, 0.07270888, -0.002075405, 0.2594399, -0.004814229, 0.000546682, 0.009150617, -1.094172, 0.0032363, 843.7172, -3.133392, 0
NKF1, 33115793, 0.17, -0.05, 343.87, 0.03210812, -0.0192817, 0.02083252, 0, 0, 0, -0.03408303, -0.13, 0.07, 1.03
NKF2, 33115793, -1, 0, 0, 0, 0, 0, 0, 0, 0, 0, 0, 0, 0
NKF3, 33115793, 0, 0, 0, 0.02, -0.01, 0.03, 0, 0, 0, 0, 0
NKF4, 33115793, 0, 0, 0.01, 0, 0, 5.687537E-06, 0, 0, 0, 19, 229, 0, 0
NKF5, 33115793, 0, 0, 0, 0, 0.17, 0.13, 0, 0.19, 0.5, 9.389671E-05, 0.002824447, 0.004521239
NKQ1, 33115793, 0.9900264, 0.003572561, 0.01220519, -0.140307
AHR2, 33115837, -0.11, 0.08, 5.23, -0.35, 0, 0, 0.9989568, -0.00105963, 0.000660113, 0.0456485
MOTB, 33115844, 1, 1, 0, 1
RCIN, 33115848, 0, 0, 0, 0, 0, 0, 0, 0, 0, 0, 0, 0, 0, 0
RCOU, 33115854, 1101, 1101, 1101, 1101, 0, 0, 0, 0, 0, 0, 0, 0, 0, 0
VIBE, 33115863, 0.01972996, 0.02125323, 0.02972451, 0, 0, 0
CTRL, 33115869, 0.001899035, 0.0001657262, 0.0006368376, 0.0001702179, 0.003245391
PRX, 33115901, 2, 0.62, 0, 0.63, 0, 3.6, 0, 2.39, 0, 0, 0, 0.62
IMU, 33135794, -0.002630441, 0.001648719, -0.0001861347, 0.2638243, -0.02972442, -9.806885, 0, 0, 33.87753, 1, 1, 1000, 1000
RFND, 33165860, 0.2, 25, 0, 0
IMU, 33175681, -0.002581883, 0.002436115, -0.0002442101, 0.2757186, -0.03169395, -9.799, 0, 0, 33.88004, 1, 1, 1000, 1000
MAG, 33216732, 404, 524, 344, 0, 0, 0, 0, 0, 0, 1, 33216724
RFND, 33216766, 0.2, 25, 0, 0
BARO, 33216801, -0.2958618, 993.3962, 31.87, 0.1342544, 33216, 0, 31.23
CTUN, 33216813, 0, 0, 0, 0.303312, 0.03421937, 0.03421937, -0.29, 0, 0.19, 0, 0, -2
ATT, 33217351, 0, 0.17, 0, -0.05, 343.76, 343.77, 0, 1
RATE, 33217358, -0.7671975, 0.04594093, -0.002011153, 0.241789, 0.1080171, -0.0001331139, 0.009780488, -1.052326, 0.003297966, 840.3514, 0.142765, 0
NKF1, 33217367, 0.17, -0.05, 343.76, 0.03410862, -0.02005332, 0.02074942, 0, 0, 0, -0.03421937, -0.13, 0.07, 1.03
NKF2, 33217367, -1, 0, 0, 0, 0, 0, 0, 0, 0, 0, 0, 0, 0
NKF3, 33217367, 0, 0, 0, 0.02, -0.01, 0.03, 0, 0, 0, 0, 0
NKF4, 33217367, 0, 0, 0.01, 0, 0, 3.98077E-06, 0, 0, 0, 19, 229, 0, 0
NKF5, 33217367, 0, 0, 0, 0, 0.16, 0.13, 0, 0.19, 0.5, 9.358294E-05, 0.003069857, 0.005482092
NKQ1, 33217367, 0.9898972, 0.003569252, 0.01223928, -0.141213
AHR2, 33217413, -0.12, 0.08, 5.23, -0.29, 0, 0, 0.9989572, -0.001088795, 0.0007176806, 0.04563974
MOTB, 33217422, 1, 1, 0, 1
RCIN, 33217426, 0, 0, 0, 0, 0, 0, 0, 0, 0, 0, 0, 0, 0, 0
RCOU, 33217432, 1101, 1101, 1101, 1101, 0, 0, 0, 0, 0, 0, 0, 0, 0, 0
VIBE, 33217442, 0.01891222, 0.01832408, 0.032477, 0, 0, 0
CTRL, 33217449, 0.00187593, 0.0001658206, 0.0006097769, 0.0002009122, 0.00325604
PRX, 33217480, 2, 0.62, 0, 0.63, 0, 3.6, 0, 2.39, 0, 0, 0, 0.62
IMU, 33217487, -0.001493987, 0.003122993, -0.0003563633, 0.2694397, -0.04253035, -9.818832, 0, 0, 33.88303, 1, 1, 1000, 1000
IMU, 33255935, -0.001277099, 0.0005299012, 0.0007036042, 0.2595225, -0.03497127, -9.812582, 0, 0, 33.88715, 1, 1, 1000, 1000
RFND, 33265586, 0.2, 25, 0, 0
IMU, 33295669, -0.002176726, 0.0006507369, 0.0002626207, 0.2639208, -0.04727371, -9.807681, 0, 0, 33.89128, 1, 1, 1000, 1000
MAG, 33315610, 407, 526, 347, 0, 0, 0, 0, 0, 0, 1, 33315601
RFND, 33315642, 0.2, 25, 0, 0
BARO, 33315676, -0.3795963, 993.4054, 31.88, 0.3001833, 33315, 0, 31.23
CTUN, 33315689, 0, 0, 0, 0.303312, 0.03493155, 0.03493155, -0.37, 0, 0.19, 0, 0, -2
ATT, 33315775, 0, 0.17, 0, -0.05, 343.66, 343.67, 0, 1
RATE, 33315782, -0.7744322, 0.05276773, -0.002117503, 0.2513004, -0.05249666, 0.0008487647, 0.009941956, -1.001826, 0.003234347, 820.7555, -1.618385, 0
NKF1, 33315789, 0.17, -0.05, 343.66, 0.03554838, -0.02093105, 0.02026557, 0, 0, 0, -0.03493155, -0.13, 0.07, 1.03
NKF2, 33315789, -1, 0, 0, 0, 0, 0, 0, 0, 0, 0, 0, 0, 0
NKF3, 33315789, 0, 0, 0, 0.03, -0.02, 0.03, 0, 0, 0, 0, 0
NKF4, 33315789, 0, 0, 0.01, 0, 0, 2.897164E-06, 0, 0, 0, 19, 229, 0, 0
NKF5, 33315789, 0, 0, 0, 0, 0.17, 0.13, 0, 0.19, 0.5, 9.607961E-05, 0.002815421, 0.004726431
NKQ1, 33315789, 0.9897712, 0.003587915, 0.01221781, -0.1420948
AHR2, 33315835, -0.12, 0.08, 5.23, -0.37, 0, 0, 0.9989563, -0.00108529, 0.0007259525, 0.04565677
MOTB, 33315842, 1, 1, 0, 1
RCIN, 33315846, 0, 0, 0, 0, 0, 0, 0, 0, 0, 0, 0, 0, 0, 0
RCOU, 33315852, 1101, 1101, 1101, 1101, 0, 0, 0, 0, 0, 0, 0, 0, 0, 0
VIBE, 33315860, 0.01938732, 0.01640685, 0.03140131, 0, 0, 0
CTRL, 33315867, 0.001882452, 0.0001533736, 0.0006076736, 0.0002437153, 0.003257332
PRX, 33315899, 2, 0.61, 0, 0.63, 0, 3.6, 0, 2.39, 0, 0, 0, 0.61
IMU, 33335816, -0.001465525, 0.001172078, 0.0002111579, 0.2617723, -0.05285767, -9.800515, 0, 0, 33.89454, 1, 1, 1000, 1000
RFND, 33365684, 0.2, 25, 0, 0
IMU, 33375700, -0.001677218, 0.001089839, 0.0002285881, 0.2693583, -0.04038112, -9.821819, 0, 0, 33.89696, 1, 1, 1000, 1000
MAG, 33415774, 408, 522, 347, 0, 0, 0, 0, 0, 0, 1, 33415765
RFND, 33415806, 0.2, 25, 0, 0
BARO, 33415842, -0.3628494, 993.4041, 31.88, 0.2869357, 33415, 0, 31.23
CTUN, 33415855, 0, 0, 0, 0.303312, 0.03504038, 0.03504038, -0.36, 0, 0.19, 0, 0, -1
ATT, 33415992, 0, 0.17, 0, -0.05, 343.55, 343.57, 0, 1
RATE, 33415999, -0.7708904, -0.01406088, -0.001744834, 0.2620545, -0.03755522, 0.0008035794, 0.009481007, -0.9974965, 0.00322976, 791.436, 0.9667397, 0
NKF1, 33416007, 0.17, -0.05, 343.56, 0.03686888, -0.02219686, 0.01954163, 0, 0, 0, -0.03504038, -0.13, 0.07, 1.03
NKF2, 33416007, -1, 0, 0, 0, 0, 0, 0, 0, 0, 0, 0, 0, 0
NKF3, 33416007, 0, 0, 0, 0.03, -0.02, 0.02, 0, 0, 0, 0, 0
NKF4, 33416007, 0, 0, 0.01, 0, 0, 2.185694E-06, 0, 0, 0, 19, 229, 0, 0
NKF5, 33416007, 0, 0, 0, 0, 0.17, 0.13, 0, 0.19, 0.5, 9.414702E-05, 0.002661328, 0.004368581
NKQ1, 33416007, 0.9896437, 0.003592441, 0.01219328, -0.1429822
AHR2, 33416052, -0.12, 0.08, 5.23, -0.36, 0, 0, 0.9989558, -0.001095183, 0.0007241391, 0.04566858
MOTB, 33416060, 1, 1, 0, 1
RCIN, 33416064, 0, 0, 0, 0, 0, 0, 0, 0, 0, 0, 0, 0, 0, 0
RCOU, 33416070, 1101, 1101, 1101, 1101, 0, 0, 0, 0, 0, 0, 0, 0, 0, 0
VIBE, 33416078, 0.01900763, 0.02162828, 0.02996541, 0, 0, 0
CTRL, 33416085, 0.001886801, 0.0001590278, 0.0006304742, 0.0002141395, 0.003250353
PRX, 33416116, 2, 0.61, 0, 0.63, 0, 3.6, 0, 2.4, 0, 0, 0, 0.61
IMU, 33416123, -0.00254689, 0.0005852093, 0.0006499226, 0.256639, -0.04936152, -9.827272, 0, 0, 33.89885, 1, 1, 1000, 1000
IMU, 33455738, -0.002927892, 0.001588139, 0.0004481019, 0.2616516, -0.03664832, -9.808218, 0, 0, 33.90038, 1, 1, 1000, 1000
RFND, 33465500, 0.2, 25, 0, 0
IMU, 33495688, -0.001358798, 0.0003219292, -0.0004483919, 0.2769996, -0.04919894, -9.813086, 0, 0, 33.90144, 1, 1, 1000, 1000
MAG, 33515617, 407, 521, 349, 0, 0, 0, 0, 0, 0, 1, 33515608
RFND, 33515648, 0.2, 25, 0, 0
BARO, 33515681, -0.3795963, 993.4058, 31.88, 0.05410182, 33515, 0, 31.23
CTUN, 33515695, 0, 0, 0, 0.303312, 0.03570725, 0.03570725, -0.37, 0, 0.19, 0, 0, -1
ATT, 33516357, 0, 0.17, 0, -0.05, 343.45, 343.46, 0, 1
RATE, 33516365, -0.7644339, 0.03089055, -0.001945823, 0.265898, 0.00825459, 0.0006673321, 0.007729077, -1.053295, 0.003254856, 790.9066, -0.6929398, 0
NKF1, 33516374, 0.17, -0.05, 343.45, 0.03835794, -0.02343859, 0.01952856, 0, 0, 0, -0.03570725, -0.13, 0.07, 1.03
NKF2, 33516374, -1, 0, 0, 0, 0, 0, 0, 0, 0, 0, 0, 0, 0
NKF3, 33516374, 0, 0, 0, 0.03, -0.02, 0.02, 0, 0, 0, 0, 0
NKF4, 33516374, 0, 0, 0.01, 0, 0, 1.791452E-06, 0, 0, 0, 19, 229, 0, 0
NKF5, 33516374, 0, 0, 0, 0, 0.17, 0.13, 0, 0.19, 0.5, 8.288602E-05, 0.002715437, 0.004737874
NKQ1, 33516374, 0.9895143, 0.00359302, 0.01218252, -0.1438754
AHR2, 33516423, -0.12, 0.08, 5.23, -0.37, 0, 0, 0.9989555, -0.001111962, 0.0007332003, 0.04567499
MOTB, 33516431, 1, 1, 0, 1
RCIN, 33516436, 0, 0, 0, 0, 0, 0, 0, 0, 0, 0, 0, 0, 0, 0
RCOU, 33516441, 1101, 1101, 1101, 1101, 0, 0, 0, 0, 0, 0, 0, 0, 0, 0
VIBE, 33516450, 0.01899747, 0.01899666, 0.02709738, 0, 0, 0
CTRL, 33516457, 0.001870119, 0.0001521353, 0.000637818, 0.0002068596, 0.003244801
PRX, 33516490, 2, 0.62, 0, 0.63, 0, 3.6, 0, 2.38, 0, 0, 0, 0.62
IMU, 33535922, -0.001591806, -0.001878379, -0.0006169119, 0.2663898, -0.03986451, -9.795985, 0, 0, 33.90247, 1, 1, 1000, 1000
RFND, 33565548, 0.2, 25, 0, 0
IMU, 33575647, -0.00162477, 0.0007905847, -0.0003419255, 0.2646951, -0.03349819, -9.819399, 0, 0, 33.90364, 1, 1, 1000, 1000
MAG, 33616413, 410, 524, 348, 0, 0, 0, 0, 0, 0, 1, 33616405
RFND, 33616446, 0.2, 25, 0, 0
BARO, 33616482, -0.4744954, 993.4164, 31.89, -0.1540159, 33616, 0, 31.23
CTUN, 33616495, 0, 0, 0, 0.303312, 0.03595879, 0.03595879, -0.47, 0, 0.19, 0, 0, -1
ATT, 33616577, 0, 0.17, 0, -0.06, 343.35, 343.36, 0, 1
RATE, 33616583, -0.7675338, 0.02998346, -0.001667873, 0.2860867, -0.04126844, 0.0009449508, 0.008881854, -0.9798462, 0.003195068, 797.1969, -1.738834, 0
NKF1, 33616590, 0.17, -0.06, 343.35, 0.04021476, -0.02422387, 0.01968387, 0, 0, 0, -0.03595879, -0.13, 0.07, 1.03
NKF2, 33616590, -1, 0, 0, 0, 0, 0, 0, 0, 0, 0, 0, 0, 0
NKF3, 33616590, 0, 0, 0, 0.04, -0.02, 0.02, 0, 0, 0, 0, 0
NKF4, 33616590, 0, 0, 0.01, 0, 0, 1.559407E-06, 0, 0, 0, 19, 229, 0, 0
NKF5, 33616590, 0, 0, 0, 0, 0.17, 0.13, 0, 0.19, 0.5, 7.823128E-05, 0.002468413, 0.004076888
NKQ1, 33616590, 0.9893858, 0.003601716, 0.01214135, -0.1447592
AHR2, 33616638, -0.12, 0.08, 5.23, -0.47, 0, 0, 0.9989548, -0.001113383, 0.0007129923, 0.04569037
MOTB, 33616645, 1, 1, 0, 1
RCIN, 33616650, 0, 0, 0, 0, 0, 0, 0, 0, 0, 0, 0, 0, 0, 0
RCOU, 33616656, 1101, 1101, 1101, 1101, 0, 0, 0, 0, 0, 0, 0, 0, 0, 0
VIBE, 33616665, 0.01949798, 0.02076084, 0.03145987, 0, 0, 0
CTRL, 33616671, 0.001880598, 0.0001546979, 0.0006896532, 0.0002403502, 0.003250387
PRX, 33616705, 2, 0.62, 0, 0.63, 0, 3.6, 0, 2.4, 0, 0, 0, 0.62
IMU, 33616712, -0.001782214, 0.0005224952, 0.0009919772, 0.2560152, -0.03819373, -9.800224, 0, 0, 33.90395, 1, 1, 1000, 1000
IMU, 33655721, -0.00192825, 0.001269218, -4.274989E-06, 0.2604851, -0.03079875, -9.819721, 0, 0, 33.90322, 1, 1, 1000, 1000
RFND, 33665635, 0.2, 25, 0, 0
IMU, 33695670, -0.001899708, 0.00177543, -0.0001716877, 0.2680257, -0.04235284, -9.807001, 0, 0, 33.9032, 1, 1, 1000, 1000
MAG, 33715615, 405, 523, 350, 0, 0, 0, 0, 0, 0, 1, 33715607
RFND, 33715648, 0.2, 25, 0, 0
BARO, 33715682, -0.4521661, 993.4135, 31.89, -0.2546923, 33715, 0, 31.23
CTUN, 33715695, 0, 0, 0, 0.303312, 0.0363743, 0.0363743, -0.45, 0, 0.19, 0, 0, -1
ATT, 33715781, 0, 0.17, 0, -0.06, 343.24, 343.25, 0, 1
RATE, 33715787, -0.7805961, 0.0879411, -0.002254229, 0.2781948, 0.008384317, 0.0007253378, 0.009112363, -1.047066, 0.003282201, 787.0483, -0.8176804, 0
NKF1, 33715795, 0.17, -0.06, 343.24, 0.0419978, -0.02492436, 0.01943329, 0, 0, 0, -0.0363743, -0.13, 0.07, 1.03
NKF2, 33715795, -1, 0, 0, 0, 0, 0, 0, 0, 0, 0, 0, 0, 0
NKF3, 33715795, 0, 0, 0, 0.04, -0.02, 0.02, 0, 0, 0, 0, 0
NKF4, 33715795, 0, 0, 0.01, 0, 0, 1.482345E-06, 0, 0, 0, 19, 229, 0, 0
NKF5, 33715795, 0, 0, 0, 0, 0.17, 0.13, 0, 0.19, 0.5, 6.786823E-05, 0.002579508, 0.004657978
NKQ1, 33715795, 0.9892525, 0.0036367, 0.01215081, -0.145666
AHR2, 33715839, -0.12, 0.09, 5.23, -0.45, 0, 0, 0.9989552, -0.001099076, 0.0007472069, 0.04568239
MOTB, 33715847, 1, 1, 0, 1
RCIN, 33715851, 0, 0, 0, 0, 0, 0, 0, 0, 0, 0, 0, 0, 0, 0
RCOU, 33715857, 1101, 1101, 1101, 1101, 0, 0, 0, 0, 0, 0, 0, 0, 0, 0
VIBE, 33715866, 0.01909518, 0.01973685, 0.02889863, 0, 0, 0
CTRL, 33715872, 0.001899721, 0.0001495935, 0.0006708913, 0.0002022915, 0.00325044
PRX, 33715905, 2, 0.62, 0, 0.63, 0, 3.6, 0, 2.39, 0, 0, 0, 0.62
IMU, 33735924, -0.0009698058, 4.893165E-05, -8.444401E-05, 0.2711088, -0.03959602, -9.813042, 0, 0, 33.90335, 1, 1, 1000, 1000
RFND, 33765720, 0.2, 25, 0, 0
IMU, 33775788, -0.002681207, 0.001595151, -0.0002724231, 0.2698305, -0.02444553, -9.808316, 0, 0, 33.90328, 1, 1, 1000, 1000
DU32, 33813335, 7, 50389208
MAG, 33816506, 408, 527, 350, 0, 0, 0, 0, 0, 0, 1, 33816497
RFND, 33816540, 0.2, 25, 0, 0
BARO, 33816576, -0.4075078, 993.4088, 31.89, -0.2991806, 33816, 0, 31.23
CTUN, 33816589, 0, 0, 0, 0.303312, 0.03675376, 0.03675376, -0.4, 0, 0.19, 0, 0, -1
ATT, 33816748, 0, 0.17, 0, -0.06, 343.14, 343.15, 0, 1
RATE, 33816755, -0.7873043, 0.103422, -0.00224416, 0.2734122, -0.04421406, 0.001131184, 0.008436191, -0.9992567, 0.003277657, 761.816, 0.7642746, 0
NKF1, 33816764, 0.17, -0.06, 343.14, 0.04407304, -0.02603364, 0.01881027, 0, 0, 0, -0.03675376, -0.13, 0.07, 1.03
NKF2, 33816764, -1, 0, 0, 0, 0, 0, 0, 0, 0, 0, 0, 0, 0
NKF3, 33816764, 0, 0, 0, 0.05, -0.03, 0.02, 0, 0, 0, 0, 0
NKF4, 33816764, 0, 0, 0.01, 0, 0, 1.498906E-06, 0, 0, 0, 19, 229, 0, 0
NKF5, 33816764, 0, 0, 0, 0, 0.17, 0.13, 0, 0.19, 0.5, 6.545357E-05, 0.002270177, 0.003786205
NKQ1, 33816764, 0.9891204, 0.003666674, 0.01215257, -0.1465594
AHR2, 33816811, -0.12, 0.09, 5.23, -0.4, 0, 0, 0.9989549, -0.001089582, 0.00077276, 0.04568722
MOTB, 33816818, 1, 1, 0, 1
RCIN, 33816823, 0, 0, 0, 0, 0, 0, 0, 0, 0, 0, 0, 0, 0, 0
RCOU, 33816828, 1101, 1101, 1101, 1101, 0, 0, 0, 0, 0, 0, 0, 0, 0, 0
VIBE, 33816837, 0.01973489, 0.02057189, 0.03156107, 0, 0, 0
CTRL, 33816844, 0.001923425, 0.0001564398, 0.0006534619, 0.0002195637, 0.003264126
PRX, 33816877, 2, 0.62, 0, 0.63, 0, 3.6, 0, 2.4, 0, 0, 0, 0.62
IMU, 33816884, -0.0005029654, 0.0004723248, 0.0006749588, 0.2693413, -0.05363039, -9.824822, 0, 0, 33.90353, 1, 1, 1000, 1000
IMU, 33855877, -0.002119966, 0.001062095, 0.0001106686, 0.2678314, -0.03427108, -9.805329, 0, 0, 33.90404, 1, 1, 1000, 1000
RFND, 33866028, 0.2, 25, 0, 0
IMU, 33895901, -0.002263158, 0.0003659552, 0.0006260155, 0.2698038, -0.03671323, -9.810633, 0, 0, 33.90542, 1, 1, 1000, 1000
MAG, 33915744, 407, 527, 345, 0, 0, 0, 0, 0, 0, 1, 33915735
RFND, 33915778, 0.2, 25, 0, 0
BARO, 33915815, -0.4242547, 993.4108, 31.9, -0.18303, 33915, 0, 31.23
CTUN, 33915829, 0, 0, 0, 0.303312, 0.03699725, 0.03699725, -0.42, 0, 0.19, 0, 0, -1
ATT, 33915907, 0, 0.17, 0, -0.06, 343.03, 343.05, 0, 1
RATE, 33915913, -0.7885573, 0.05199473, -0.002136466, 0.2841304, 0.03293263, 0.0005697545, 0.01300822, -0.9909008, 0.003261232, 782.5701, -3.140736, 0
NKF1, 33915922, 0.17, -0.06, 343.04, 0.04613295, -0.02707325, 0.01932272, 0, 0, 0, -0.03699725, -0.13, 0.07, 1.03
NKF2, 33915922, -1, 0, 0, 0, 0, 0, 0, 0, 0, 0, 0, 0, 0
NKF3, 33915922, 0, 0, 0, 0.05, -0.03, 0.02, 0, 0, 0, 0, 0
NKF4, 33915922, 0, 0, 0.01, 0, 0, 1.578143E-06, 0, 0, 0, 19, 229, 0, 0
NKF5, 33915922, 0, 0, 0, 0, 0.17, 0.13, 0, 0.19, 0.5, 5.625904E-05, 0.002441524, 0.004554893
NKQ1, 33915922, 0.9889858, 0.003671931, 0.01213108, -0.1474672
AHR2, 33915968, -0.12, 0.09, 5.23, -0.42, 0, 0, 0.9989549, -0.001103019, 0.000771685, 0.04568697
MOTB, 33915975, 1, 1, 0, 1
RCIN, 33915980, 0, 0, 0, 0, 0, 0, 0, 0, 0, 0, 0, 0, 0, 0
RCOU, 33915986, 1101, 1101, 1101, 1101, 0, 0, 0, 0, 0, 0, 0, 0, 0, 0
VIBE, 33915995, 0.01942488, 0.01915063, 0.0337752, 0, 0, 0
CTRL, 33916001, 0.001923277, 0.0001503513, 0.0006853423, 0.0002554807, 0.003273979
PRX, 33916034, 2, 0.62, 0, 0.63, 0, 3.6, 0, 2.39, 0, 0, 0, 0.62
IMU, 33936070, -0.001955481, 0.002469773, -0.0001353888, 0.2613034, -0.03630037, -9.815149, 0, 0, 33.90612, 1, 1, 1000, 1000
RFND, 33965606, 0.2, 25, 0, 0
IMU, 33975977, -0.00124299, 0.001727785, -6.689832E-05, 0.2470947, -0.03781153, -9.793137, 0, 0, 33.90602, 1, 1, 1000, 1000
MAG, 34015779, 412, 526, 346, 0, 0, 0, 0, 0, 0, 1, 34015770
RFND, 34015812, 0.2, 25, 0, 0
BARO, 34015849, -0.4130901, 993.4094, 31.9, 0.03314488, 34015, 0, 31.23
CTUN, 34015862, 0, 0, 0, 0.303312, 0.03749529, 0.03749529, -0.41, 0, 0.19, 0, 0, -1
ATT, 34015989, 0, 0.17, 0, -0.06, 342.93, 342.94, 0, 1
RATE, 34015995, -0.7823858, 0.05651022, -0.002360718, 0.2872955, -0.1475153, 0.001381433, 0.008359454, -1.076049, 0.003303512, 773.0798, -1.422787, 0
NKF1, 34016003, 0.17, -0.06, 342.93, 0.04719413, -0.02763087, 0.01908839, 0, 0, 0, -0.03749529, -0.13, 0.07, 1.03
NKF2, 34016003, -1, 0, 0, 0, 0, 0, 0, 0, 0, 0, 0, 0, 0
NKF3, 34016003, 0, 0, 0, 0.05, -0.03, 0.02, 0, 0, 0, 0, 0
NKF4, 34016003, 0, 0, 0.01, 0, 0, 1.747087E-06, 0, 0, 0, 19, 229, 0, 0
NKF5, 34016003, 0, 0, 0, 0, 0.17, 0.13, 0, 0.19, 0.5, 5.492998E-05, 0.002089556, 0.003539048
NKQ1, 34016003, 0.988852, 0.003676376, 0.01211949, -0.1483625
AHR2, 34016050, -0.12, 0.09, 5.23, -0.41, 0, 0, 0.9989552, -0.001115955, 0.0007786877, 0.04568039
MOTB, 34016058, 1, 1, 0, 1
RCIN, 34016062, 0, 0, 0, 0, 0, 0, 0, 0, 0, 0, 0, 0, 0, 0
RCOU, 34016068, 1101, 1101, 1101, 1101, 0, 0, 0, 0, 0, 0, 0, 0, 0, 0
VIBE, 34016077, 0.01805466, 0.01908196, 0.03170019, 0, 0, 0
CTRL, 34016084, 0.001909513, 0.0001681883, 0.000684277, 0.0002409748, 0.003275248
PRX, 34016116, 2, 0.62, 0, 0.63, 0, 3.6, 0, 2.4, 0, 0, 0, 0.62
IMU, 34016124, -0.001323823, -0.001329623, -0.0006468178, 0.2625087, -0.03657173, -9.80313, 0, 0, 33.90631, 1, 1, 1000, 1000
IMU, 34055901, -0.002571428, 0.0006189581, -0.0004490916, 0.2644002, -0.03394314, -9.795847, 0, 0, 33.90611, 1, 1, 1000, 1000
RFND, 34066464, 0.2, 25, 0, 0
IMU, 34096008, -0.002326451, 0.001587509, 0.0002313478, 0.2754969, -0.04328977, -9.799984, 0, 0, 33.90629, 1, 1, 1000, 1000
MAG, 34115652, 405, 523, 351, 0, 0, 0, 0, 0, 0, 1, 34115644
RFND, 34115685, 0.2, 25, 0, 0
BARO, 34115738, -0.3405202, 993.4011, 31.9, 0.132772, 34115, 0, 31.23
CTUN, 34115753, 0, 0, 0, 0.303312, 0.03749982, 0.03749982, -0.34, 0, 0.19, 0, 0, -1
ATT, 34115825, 0, 0.17, 0, -0.06, 342.82, 342.84, 0, 1
RATE, 34115831, -0.7764922, 0.04047221, -0.002056663, 0.2754439, 0.02437857, 0.000632912, 0.004924559, -1.105269, 0.003308383, 809.097, -1.930904, 0
NKF1, 34115838, 0.17, -0.06, 342.83, 0.04891333, -0.02902001, 0.0199777, 0, 0, 0, -0.03749982, -0.13, 0.07, 1.03
NKF2, 34115838, -1, 0, 0, 0, 0, 0, 0, 0, 0, 0, 0, 0, 0
NKF3, 34115838, 0, 0, 0, 0.05, -0.03, 0.02, 0, 0, 0, 0, 0
NKF4, 34115838, 0, 0, 0.01, 0, 0, 1.911765E-06, 0, 0, 0, 19, 229, 0, 0
NKF5, 34115838, 0, 0, 0, 0, 0.17, 0.13, 0, 0.19, 0.5, 4.678202E-05, 0.002317841, 0.004464816
NKQ1, 34115838, 0.9887152, 0.003673969, 0.01214352, -0.1492694
AHR2, 34115883, -0.12, 0.09, 5.23, -0.34, 0, 0, 0.9989556, -0.001143274, 0.0008197914, 0.04567026
MOTB, 34115891, 1, 1, 0, 1
RCIN, 34115895, 0, 0, 0, 0, 0, 0, 0, 0, 0, 0, 0, 0, 0, 0
RCOU, 34115901, 1101, 1101, 1101, 1101, 0, 0, 0, 0, 0, 0, 0, 0, 0, 0
VIBE, 34115910, 0.01878766, 0.0184162, 0.03511272, 0, 0, 0
CTRL, 34115916, 0.001897091, 0.0001597767, 0.0006683141, 0.0002410764, 0.003276558
PRX, 34115949, 2, 0.62, 0, 0.63, 0, 3.6, 0, 2.38, 0, 0, 0, 0.62
IMU, 34136142, -0.002050143, 0.002005831, 0.0001415916, 0.2748264, -0.0443968, -9.794641, 0, 0, 33.90734, 1, 1, 1000, 1000
RFND, 34165769, 0.2, 25, 0, 0
IMU, 34175692, -0.003068262, 0.00179871, 0.0007861961, 0.2582436, -0.0459947, -9.808815, 0, 0, 33.90953, 1, 1, 1000, 1000
MAG, 34215616, 412, 522, 345, 0, 0, 0, 0, 0, 0, 1, 34215607
RFND, 34215648, 0.2, 25, 0, 0
BARO, 34215682, -0.3628494, 993.4035, 31.91, 0.165739, 34215, 0, 31.23
CTUN, 34215695, 0, 0, 0, 0.303312, 0.03793069, 0.03793069, -0.36, 0, 0.19, 0, 0, -1
ATT, 34215783, 0, 0.17, 0, -0.05, 342.72, 342.74, 0, 1
RATE, 34215790, -0.7706409, 0.03695751, -0.001783815, 0.2627927, 0.006877667, 0.000595272, 0.01241629, -1.00489, 0.003220692, 798.231, 0.5308151, 0
NKF1, 34215798, 0.17, -0.05, 342.73, 0.05072424, -0.03053287, 0.01970941, 0, 0, 0, -0.03793069, -0.13, 0.07, 1.03
NKF2, 34215798, -1, 0, 0, 0, 0, 0, 0, 0, 0, 0, 0, 0, 0
NKF3, 34215798, 0, 0, 0, 0.06, -0.04, 0.02, 0, 0, 0, 0, 0
NKF4, 34215798, 0, 0, 0.01, 0, 0, 2.196347E-06, 0, 0, 0, 19, 229, 0, 0
NKF5, 34215798, 0, 0, 0, 0, 0.17, 0.13, 0, 0.19, 0.5, 4.790239E-05, 0.001937345, 0.003358145
NKQ1, 34215798, 0.9885828, 0.003679727, 0.01216566, -0.1501424
AHR2, 34215841, -0.12, 0.1, 5.23, -0.36, 0, 0, 0.998954, -0.001160543, 0.0008594574, 0.04570414
MOTB, 34215848, 1, 1, 0, 1
RCIN, 34215853, 0, 0, 0, 0, 0, 0, 0, 0, 0, 0, 0, 0, 0, 0
RCOU, 34215858, 1101, 1101, 1101, 1101, 0, 0, 0, 0, 0, 0, 0, 0, 0, 0
VIBE, 34215868, 0.01810519, 0.02102517, 0.03163902, 0, 0, 0
CTRL, 34215874, 0.001888526, 0.0001567044, 0.0006430976, 0.0002065368, 0.003280118
PRX, 34215906, 2, 0.62, 0, 0.63, 0, 3.6, 0, 2.4, 0, 0, 0, 0.62
IMU, 34215914, -0.001662254, 0.001363364, 0.0005748885, 0.2716837, -0.04778664, -9.822321, 0, 0, 33.91251, 1, 1, 1000, 1000
IMU, 34255793, -0.0008541592, 5.247186E-05, 0.0001821048, 0.2600667, -0.02575596, -9.785921, 0, 0, 33.91696, 1, 1, 1000, 1000
RFND, 34265678, 0.2, 25, 0, 0
IMU, 34295619, -0.00243499, 0.001035427, -6.989145E-05, 0.2695445, -0.02687244, -9.836344, 0, 0, 33.92192, 1, 1, 1000, 1000
MAG, 34315582, 409, 520, 349, 0, 0, 0, 0, 0, 0, 1, 34315574
RFND, 34315614, 0.2, 25, 0, 0
BARO, 34315719, -0.468913, 993.4157, 31.91, 0.1815646, 34315, 0, 31.23
CTUN, 34315734, 0, 0, 0, 0.303312, 0.03784932, 0.03784932, -0.46, 0, 0.19, 0, 0, -1
ATT, 34315867, 0, 0.17, 0, -0.06, 342.62, 342.63, 0, 1
RATE, 34315873, -0.766228, 0.04684079, -0.002009467, 0.2754988, 0.03616776, 0.0004362598, 0.01639666, -1.021631, 0.003257803, 792.0564, -1.33009, 0
NKF1, 34315880, 0.17, -0.06, 342.62, 0.05279035, -0.03123524, 0.01955695, 0, 0, 0, -0.03784932, -0.13, 0.07, 1.03
NKF2, 34315880, -1, 0, 0, 0, 0, 0, 0, 0, 0, 0, 0, 0, 0
NKF3, 34315880, 0, 0, 0, 0.07, -0.04, 0.02, 0, 0, 0, 0, 0
NKF4, 34315880, 0, 0, 0.01, 0, 0, 2.428867E-06, 0, 0, 0, 19, 229, 0, 0
NKF5, 34315880, 0, 0, 0, 0, 0.17, 0.13, 0, 0.19, 0.5, 4.991464E-05, 0.001653592, 0.002579878
NKQ1, 34315880, 0.9884465, 0.003677251, 0.01213983, -0.1510387
AHR2, 34315925, -0.13, 0.1, 5.23, -0.46, 0, 0, 0.9989539, -0.001174601, 0.0008488059, 0.04570501
MOTB, 34315932, 1, 1, 0, 1
RCIN, 34315937, 0, 0, 0, 0, 0, 0, 0, 0, 0, 0, 0, 0, 0, 0
RCOU, 34315943, 1101, 1101, 1101, 1101, 0, 0, 0, 0, 0, 0, 0, 0, 0, 0
VIBE, 34315952, 0.01781059, 0.02116979, 0.03190059, 0, 0, 0
CTRL, 34315958, 0.001876846, 0.0001904528, 0.0006703884, 0.0002014349, 0.003266094
PRX, 34315990, 2, 0.62, 0, 0.63, 0, 3.6, 0, 2.4, 0, 0, 0, 0.62
IMU, 34336019, -0.00201959, 0.001765085, -0.000655957, 0.2639242, -0.03647735, -9.807018, 0, 0, 33.92549, 1, 1, 1000, 1000
RFND, 34365530, 0.2, 25, 0, 0
IMU, 34375612, -0.001631355, 0.0008718777, 0.0005110318, 0.2634035, -0.03407295, -9.814087, 0, 0, 33.92916, 1, 1, 1000, 1000
MAG, 34415617, 406, 528, 343, 0, 0, 0, 0, 0, 0, 1, 34415608
RFND, 34415648, 0.2, 25, 0, 0
BARO, 34415684, -0.5359006, 993.4231, 31.91, -0.01751169, 34415, 0, 31.23
CTUN, 34415696, 0, 0, 0, 0.303312, 0.03827655, 0.03827655, -0.53, 0, 0.19, 0, 0, -1
ATT, 34415785, 0, 0.16, 0, -0.06, 342.52, 342.53, 0, 1
RATE, 34415792, -0.747356, -0.02877992, -0.001812361, 0.2698781, 0.03879945, 0.0002719592, 0.003579647, -1.024361, 0.003296952, 792.8414, -2.059841, 0
NKF1, 34415799, 0.16, -0.06, 342.52, 0.05428116, -0.03215361, 0.01957633, 0, 0, 0, -0.03827655, -0.13, 0.07, 1.04
NKF2, 34415799, -1, 0, 0, 0, 0, 0, 0, 0, 0, 0, 0, 0, 0
NKF3, 34415799, 0, 0, 0, 0.07, -0.04, 0.02, 0, 0, 0, 0, 0
NKF4, 34415799, 0, 0, 0.01, 0, 0, 2.808868E-06, 0, 0, 0, 19, 229, 0, 0
NKF5, 34415799, 0, 0, 0, 0, 0.17, 0.13, 0, 0.19, 0.5, 4.690779E-05, 0.001813967, 0.003243427
NKQ1, 34415799, 0.9883103, 0.003652001, 0.01215391, -0.1519263
AHR2, 34415844, -0.13, 0.1, 5.23, -0.53, 0, 0, 0.9989538, -0.001220225, 0.0008730467, 0.04570704
MOTB, 34415851, 1, 1, 0, 1
RCIN, 34415856, 0, 0, 0, 0, 0, 0, 0, 0, 0, 0, 0, 0, 0, 0
RCOU, 34415862, 1101, 1101, 1101, 1101, 0, 0, 0, 0, 0, 0, 0, 0, 0, 0
VIBE, 34415870, 0.01838078, 0.02078316, 0.03087325, 0, 0, 0
CTRL, 34415877, 0.001837631, 0.0001792541, 0.0006596142, 0.0001783098, 0.003272762
PRX, 34415908, 2, 0.62, 0, 0.63, 0, 3.6, 0, 2.39, 0, 0, 0, 0.62
IMU, 34415916, -0.002815256, 0.001923369, 0.0002813827, 0.260379, -0.04156048, -9.796689, 0, 0, 33.93204, 1, 1, 1000, 1000
IMU, 34455923, -0.0005938144, 0.0009085477, 0.0006551386, 0.2629805, -0.04345774, -9.812213, 0, 0, 33.93483, 1, 1, 1000, 1000
RFND, 34465885, 0.2, 25, 0, 0
EV, 34467869, 57
IMU, 34495677, -0.001859739, 0.0002950465, 0.0007322392, 0.2651778, -0.0232748, -9.79071, 0, 0, 33.93761, 1, 1, 1000, 1000
MAG, 34515624, 408, 526, 348, 0, 0, 0, 0, 0, 0, 1, 34515615
RFND, 34515656, 0.2, 25, 0, 0
BARO, 34515690, -0.5079891, 993.4202, 31.92, -0.3802941, 34515, 0, 31.23
CTUN, 34515719, 0, 0, 0, 0.303312, 0.03827742, 0.03827742, -0.5, 0, 0.19, 0, 0, -2
ATT, 34515887, 0, 0.16, 0, -0.06, 342.41, 342.43, 0, 1
RATE, 34515893, -0.7532416, 0.03680288, -0.001980894, 0.2681312, -0.0193481, 0.000740004, -0.0004005946, -0.9845502, 0.003189087, 823.6599, -2.475262, 0
NKF1, 34515901, 0.16, -0.06, 342.42, 0.05639305, -0.0330395, 0.02033728, 0, 0, 0, -0.03827742, -0.13, 0.07, 1.03
NKF2, 34515901, -1, 0, 0, 0, 0, 0, 0, 0, 0, 0, 0, 0, 0
NKF3, 34515901, 0, 0, 0, 0.08, -0.05, 0.02, 0, 0, 0, 0, 0
NKF4, 34515901, 0, 0, 0, 0, 0, 3.145271E-06, 0, 0, 0, 19, 229, 0, 0
NKF5, 34515901, 0, 0, 0, 0, 0.17, 0.13, 0, 0.19, 0.5, 4.942392E-05, 0.001445419, 0.00216247
NKQ1, 34515901, 0.9881748, 0.003681796, 0.01214858, -0.1528056
AHR2, 34515945, -0.13, 0.1, 5.24, -0.5, 0, 0, 0.9989526, -0.001211299, 0.000890919, 0.04573381
MOTB, 34515954, 1, 1, 0, 1
RCIN, 34515958, 0, 0, 0, 0, 0, 0, 0, 0, 0, 0, 0, 0, 0, 0
RCOU, 34515963, 1111, 1111, 1111, 1111, 0, 0, 0, 0, 0, 0, 0, 0, 0, 0
VIBE, 34515972, 0.01964244, 0.01937798, 0.03036219, 0, 0, 0
CTRL, 34515979, 0.001852347, 0.0001851734, 0.0006489654, 0.0002059894, 0.003265072
PRX, 34516011, 2, 0.62, 0, 0.63, 0, 3.6, 0, 2.38, 0, 0, 0, 0.62
IMU, 34536155, -0.00190911, -0.0005402592, -0.0001395577, 0.2638539, -0.04495292, -9.814446, 0, 0, 33.93991, 1, 1, 1000, 1000
RFND, 34565540, 0.2, 25, 0, 0
IMU, 34575687, -0.002181665, 0.0003859985, 0.0005484258, 0.2598558, -0.04570454, -9.805382, 0, 0, 33.94119, 1, 1, 1000, 1000
MAG, 34615882, 408, 528, 346, 0, 0, 0, 0, 0, 0, 1, 34615873
RFND, 34615916, 0.2, 25, 0, 0
BARO, 34615951, -0.5861413, 993.4286, 31.92, -0.5338072, 34615, 0, 31.23
CTUN, 34615964, 0, 0, 0, 0.303312, 0.03840806, 0.03840806, -0.58, 0, 0.19, 0, 0, -2
ATT, 34616091, 0, 0.16, 0, -0.06, 342.31, 342.32, 0, 1
RATE, 34616098, -0.7540271, 0.04137906, -0.001830504, 0.2804812, -0.02530666, 0.000962018, -0.0004005179, -1.080132, 0.003226013, 816.1582, -0.3979683, 0
NKF1, 34616105, 0.16, -0.06, 342.31, 0.05805212, -0.03454075, 0.02015205, 0, 0, 0, -0.03840806, -0.13, 0.07, 1.03
NKF2, 34616105, -1, 0, 0, 0, 0, 0, 0, 0, 0, 0, 0, 0, 0
NKF3, 34616105, 0, 0, 0, 0.08, -0.05, 0.02, 0, 0, 0, 0, 0
NKF4, 34616105, 0, 0, 0, 0, 0, 3.575756E-06, 0, 0, 0, 19, 229, 0, 0
NKF5, 34616105, 0, 0, 0, 0, 0.17, 0.13, 0, 0.19, 0.5, 4.461515E-05, 0.001716816, 0.003189188
NKQ1, 34616105, 0.988035, 0.003682595, 0.01212507, -0.1537085
AHR2, 34616152, -0.13, 0.1, 5.24, -0.58, 0, 0, 0.9989528, -0.00122531, 0.0008845269, 0.04572795
MOTB, 34616159, 1, 1, 0, 1
RCIN, 34616163, 0, 0, 0, 0, 0, 0, 0, 0, 0, 0, 0, 0, 0, 0
RCOU, 34616169, 1135, 1135, 1135, 1135, 0, 0, 0, 0, 0, 0, 0, 0, 0, 0
VIBE, 34616178, 0.02010717, 0.01780179, 0.03302067, 0, 0, 0
CTRL, 34616184, 0.001845724, 0.000178972, 0.0006751815, 0.0002142523, 0.003244168
PRX, 34616217, 2, 0.62, 0, 0.63, 0, 3.6, 0, 2.39, 0, 0, 0, 0.62
IMU, 34616223, -0.001587367, 0.0008024558, -0.0007168286, 0.2746306, -0.04265996, -9.812873, 0, 0, 33.94165, 1, 1, 1000, 1000
IMU, 34656171, -0.002025339, 0.002755774, 0.0008159084, 0.2694014, -0.03522626, -9.817324, 0, 0, 33.9408, 1, 1, 1000, 1000
RFND, 34665573, 0.2, 25, 0, 0
IMU, 34695975, -0.001805054, 0.001945409, 0.001025971, 0.2710209, -0.02465805, -9.806081, 0, 0, 33.94165, 1, 1, 1000, 1000
MAG, 34715638, 407, 524, 344, 0, 0, 0, 0, 0, 0, 1, 34715629
RFND, 34715670, 0.2, 25, 0, 0
BARO, 34715724, -0.5135714, 993.4207, 31.92, -0.3942497, 34715, 0, 31.23
CTUN, 34715738, 0, 0, 0, 0.303312, 0.03850141, 0.03850141, -0.51, 0, 0.19, 0, 0, -1
ATT, 34715905, 0, 0.16, 0, -0.05, 342.21, 342.22, 0, 1
RATE, 34715911, -0.755096, 0.09152817, -0.002344366, 0.2628199, 0.02824364, 0.0006016196, -0.0003775915, -1.013472, 0.00315155, 803.4663, 0.07066727, 0
NKF1, 34715919, 0.16, -0.05, 342.21, 0.06000327, -0.03506802, 0.01983867, 0, 0, 0, -0.03850141, -0.13, 0.07, 1.03
NKF2, 34715919, -1, 0, 0, 0, 0, 0, 0, 0, 0, 0, 0, 0, 0
NKF3, 34715919, 0, 0, 0, 0.09, -0.05, 0.02, 0, 0, 0, 0, 0
NKF4, 34715919, 0, 0, 0, 0, 0, 4.035358E-06, 0, 0, 0, 19, 229, 0, 0
NKF5, 34715919, 0, 0, 0, 0, 0.17, 0.13, 0, 0.19, 0.5, 4.730386E-05, 0.001277954, 0.001882396
NKQ1, 34715919, 0.9878997, 0.00370589, 0.01215293, -0.1545728
AHR2, 34715962, -0.13, 0.11, 5.24, -0.51, 0, 0, 0.9989513, -0.001226583, 0.0009334261, 0.04576073
MOTB, 34715970, 1, 1, 0, 1
RCIN, 34715974, 0, 0, 0, 0, 0, 0, 0, 0, 0, 0, 0, 0, 0, 0
RCOU, 34715979, 1159, 1159, 1159, 1159, 0, 0, 0, 0, 0, 0, 0, 0, 0, 0
VIBE, 34715988, 0.02081964, 0.01993101, 0.03315878, 0, 0, 0
CTRL, 34715995, 0.001845082, 0.0001777547, 0.0006458422, 0.0002018309, 0.003233617
PRX, 34716026, 2, 0.62, 0, 0.63, 0, 3.6, 0, 2.4, 0, 0, 0, 0.62
IMU, 34736179, -0.002563537, 0.003258845, -8.02881E-05, 0.2661052, -0.02867985, -9.809118, 0, 0, 33.94272, 1, 1, 1000, 1000
RFND, 34765547, 0.2, 25, 0, 0
IMU, 34775742, -0.0006668394, 0.002154609, 0.000723171, 0.2670044, -0.05320015, -9.812147, 0, 0, 33.94455, 1, 1, 1000, 1000
DU32, 34813069, 7, 33611992
MAG, 34815676, 407, 522, 343, 0, 0, 0, 0, 0, 0, 1, 34815667
RFND, 34815726, 0.2, 25, 0, 0
BARO, 34815814, -0.4075078, 993.4089, 31.92, -0.1482798, 34815, 0, 31.23
CTUN, 34815831, 0, 0, 0, 0.303312, 0.03847191, 0.03847191, -0.4, 0, 0.19, 0, 0, -2
ATT, 34815908, 0, 0.16, 0, -0.05, 342.11, 342.12, 0, 1
RATE, 34815913, -0.7584506, 0.02722255, -0.001672347, 0.2528848, -0.0129033, 0.0006250034, -0.0003776533, -0.9056596, 0.003163236, 820.1505, -1.355171, 0
NKF1, 34815922, 0.16, -0.05, 342.11, 0.06173386, -0.03664461, 0.02025063, 0, 0, 0, -0.03847191, -0.13, 0.07, 1.03
NKF2, 34815922, -1, 0, 0, 0, 0, 0, 0, 0, 0, 0, 0, 0, 0
NKF3, 34815922, 0, 0, 0, 0.09, -0.05, 0.02, 0, 0, 0, 0, 0
NKF4, 34815922, 0, 0, 0, 0, 0, 4.510676E-06, 0, 0, 0, 19, 229, 0, 0
NKF5, 34815922, 0, 0, 0, 0, 0.17, 0.13, 0, 0.19, 0.5, 4.308677E-05, 0.001642019, 0.003181105
NKQ1, 34815922, 0.9877636, 0.00372815, 0.01216734, -0.1554387
AHR2, 34815968, -0.13, 0.11, 5.24, -0.4, 0, 0, 0.9989498, -0.00122602, 0.000967704, 0.04579189
MOTB, 34815975, 1, 1, 0, 1
RCIN, 34815979, 0, 0, 0, 0, 0, 0, 0, 0, 0, 0, 0, 0, 0, 0
RCOU, 34815985, 1183, 1183, 1183, 1183, 0, 0, 0, 0, 0, 0, 0, 0, 0, 0
VIBE, 34815994, 0.03008996, 0.02964798, 0.04055427, 0, 0, 0
CTRL, 34816001, 0.001863956, 0.0001823616, 0.0006217359, 0.000223388, 0.003223642
PRX, 34816034, 2, 0.62, 0, 0.63, 0, 0.65, 0, 2.39, 0, 0, 0, 0.62
IMU, 34816041, -0.001835571, 0.001019269, 0.002338754, 0.2731568, -0.04320043, -9.80328, 0, 0, 33.94654, 1, 1, 1000, 1000
IMU, 34856298, 0.0001157722, 0.001555295, -0.01260739, 0.2792229, -0.05211912, -9.802251, 0, 0, 33.94859, 1, 1, 1000, 1000
RFND, 34865692, 0.2, 25, 0, 0
IMU, 34895649, -0.004098445, 0.0002869967, -0.00615505, 0.2753878, -0.05501883, -9.806314, 0, 0, 33.95069, 1, 1, 1000, 1000
MAG, 34915775, 406, 521, 352, 0, 0, 0, 0, 0, 0, 1, 34915766
RFND, 34915806, 0.2, 25, 0, 0
BARO, 34915841, -0.4577484, 993.4144, 31.93, 0.1552576, 34915, 0, 31.23
CTUN, 34915855, 0, 0, 0, 0.303312, 0.03860546, 0.03860546, -0.45, 0, 0.19, 0, 0, -2
ATT, 34916026, 0, 0.16, 0, -0.05, 342.02, 342.03, 0, 1
RATE, 34916032, -0.7204726, -0.1054083, -0.0004335976, 0.2384253, 0.1948337, -0.00110992, -0.0003088695, -0.6980026, 0.003450874, 874.2914, -2.37751, 0
NKF1, 34916040, 0.16, -0.05, 342.02, 0.06229996, -0.03797176, 0.02158744, 0, 0, 0, -0.03860546, -0.13, 0.07, 1.03
NKF2, 34916040, -1, 0, 0, 0, 0, 0, 0, 0, 0, 0, 0, 0, 0
NKF3, 34916040, 0, 0, 0, 0.1, -0.06, 0.02, 0, 0, 0, 0, 0
NKF4, 34916040, 0, 0, 0, 0, 0, 5.097541E-06, 0, 0, 0, 19, 229, 0, 0
NKF5, 34916040, 0, 0, 0, 0, 0.17, 0.13, 0, 0.19, 0.5, 4.749365E-05, 0.001149952, 0.001742737
NKQ1, 34916040, 0.9876395, 0.003664682, 0.01220771, -0.1562243
AHR2, 34916211, -0.14, 0.12, 5.26, -0.45, 0, 0, 0.9989444, -0.001313713, 0.001009471, 0.04590595
MOTB, 34916218, 1, 1, 0, 1
RCIN, 34916223, 0, 0, 0, 0, 0, 0, 0, 0, 0, 0, 0, 0, 0, 0
RCOU, 34916294, 1207, 1207, 1207, 1207, 0, 0, 0, 0, 0, 0, 0, 0, 0, 0
VIBE, 34916304, 0.1624392, 0.2841392, 0.130908, 0, 0, 0
CTRL, 34916310, 0.001829104, 0.0003693921, 0.0006043396, 0.0003015705, 0.0032093
PRX, 34916341, 2, 0.62, 0, 0.63, 0, 0.65, 0, 2.4, 0, 0, 0, 0.62
IMU, 34935835, -0.005334062, 0.0005799797, 0.004241738, 0.232907, -0.1134355, -9.811383, 0, 0, 33.95135, 1, 1, 1000, 1000
RFND, 34965559, 0.2, 25, 0, 0
IMU, 34975827, -0.0007893545, 0.006416455, 0.0008487758, 0.265927, -0.07187572, -9.801587, 0, 0, 33.95121, 1, 1, 1000, 1000
MAG, 35015638, 398, 523, 343, 0, 0, 0, 0, 0, 0, 1, 35015629
RFND, 35015669, 0.2, 25, 0, 0
BARO, 35015722, -0.5526475, 993.4249, 31.93, 0.3366823, 35015, 0, 31.23
CTUN, 35015737, 0, 0, 0, 0.303312, 0.03829384, 0.03829384, -0.55, 0, 0.19, 0, 0, -2
ATT, 35015811, 0, 0.16, 0, -0.04, 341.89, 341.9, 0, 1
RATE, 35015817, -0.7341927, 0.0800562, -0.002463991, 0.1915517, 0.2304379, -0.001139272, -0.000270779, -0.8653378, 0.003345496, 842.7015, -2.342319, 0
NKF1, 35015824, 0.16, -0.04, 341.89, 0.06412463, -0.03965429, 0.02080745, 0, 0, 0, -0.03829384, -0.13, 0.07, 1.04
NKF2, 35015824, -1, 0, 0, 0, 0, 0, 0, 0, 0, 0, 0, 0, 0
NKF3, 35015824, 0, 0, 0, 0.1, -0.06, 0.02, 0, 0, 0, 0, 0
NKF4, 35015824, 0, 0, 0, 0, 0, 5.60927E-06, 0, 0, 0, 19, 229, 0, 0
NKF5, 35015824, 0, 0, 0, 0, 0.17, 0.13, 0, 0.19, 0.5, 4.289013E-05, 0.00158668, 0.003207103
NKQ1, 35015824, 0.9874657, 0.003718574, 0.01228817, -0.1573109
AHR2, 35015869, -0.14, 0.13, 5.24, -0.55, 0, 0, 0.9989532, -0.001304735, 0.001109656, 0.04571315
MOTB, 35015875, 1, 1, 0, 1
RCIN, 35015879, 0, 0, 0, 0, 0, 0, 0, 0, 0, 0, 0, 0, 0, 0
RCOU, 35015885, 1231, 1229, 1221, 1227, 0, 0, 0, 0, 0, 0, 0, 0, 0, 0
VIBE, 35015894, 0.5109938, 0.715311, 0.5596979, 0, 0, 0
CTRL, 35015901, 0.001797936, 0.0005397241, 0.0005620042, 0.000509257, 0.003256514
PRX, 35015933, 2, 0.62, 0, 0.63, 0, 3.6, 0, 2.38, 0, 0, 0, 0.62
IMU, 35015940, -0.0009144255, 0.005266576, 0.003051676, 0.3182624, -0.03870237, -9.792218, 0, 0, 33.95017, 1, 1, 1000, 1000
IMU, 35055830, 0.001882856, 0.005135995, 0.0315781, 0.2509776, -0.07005246, -9.839001, 0, 0, 33.94984, 1, 1, 1000, 1000
RFND, 35065677, 0.2, 25, 0, 0
IMU, 35095753, -0.005005668, 0.002806923, 0.01496454, 0.3146499, 0.07130831, -9.817238, 0, 0, 33.94965, 1, 1, 1000, 1000
MAG, 35115944, 394, 524, 347, 0, 0, 0, 0, 0, 0, 1, 35115934
RFND, 35115977, 0.2, 25, 0, 0
BARO, 35116015, -0.5582298, 993.4252, 31.93, 0.1134165, 35116, 0, 31.23
CTUN, 35116028, 0, 0, 0, 0.303312, 0.03847247, 0.03847247, -0.55, 0, 0.19, 0, 0, -2
ATT, 35116174, 0, 0.16, 0, -0.03, 341.8, 341.82, 0, 1
RATE, 35116180, -0.7494116, 0.4451455, -0.003170141, 0.1727357, -0.2322521, 0.00332768, -0.0002401024, -0.7743317, 0.002934293, 879.1995, -2.235985, 0
NKF1, 35116188, 0.16, -0.03, 341.81, 0.06611549, -0.04162891, 0.02170863, 0, 0, 0, -0.03847247, -0.13, 0.07, 1.04
NKF2, 35116188, -1, 0, 0, 0, 0, 0, 0, 0, 0, 0, 0, 0, 0
NKF3, 35116188, 0, 0, 0, 0.11, -0.07, 0.02, 0, 0, 0, 0, 0
NKF4, 35116188, 0, 0, 0, 0, 0, 6.343943E-06, 0, 0, 0, 19, 229, 0, 0
NKF5, 35116188, 0, 0, 0, 0, 0.17, 0.13, 0, 0.19, 0.5, 4.750586E-05, 0.001060772, 0.001738303
NKQ1, 35116188, 0.9873461, 0.003768199, 0.01231498, -0.158057
AHR2, 35116317, -0.14, 0.13, 5.25, -0.55, 0, 0, 0.9989461, -0.001288365, 0.001153945, 0.04586576
MOTB, 35116328, 1, 1, 0, 1
RCIN, 35116332, 0, 0, 0, 0, 0, 0, 0, 0, 0, 0, 0, 0, 0, 0
RCOU, 35116338, 1232, 1221, 1221, 1221, 0, 0, 0, 0, 0, 0, 0, 0, 0, 0
VIBE, 35116347, 0.3858589, 0.5152948, 0.4993625, 0, 0, 0
CTRL, 35116353, 0.001903857, 0.001126298, 0.0005101656, 0.0006905558, 0.003225063
PRX, 35116385, 2, 0.62, 0, 0.63, 0, 3.6, 0, 2.39, 0, 0, 0, 0.62
IMU, 35136023, -0.008624012, 0.004238955, -0.001314991, 0.2690911, -0.04657362, -9.810863, 0, 0, 33.9506, 1, 1, 1000, 1000
RFND, 35165634, 0.2, 25, 0, 0
IMU, 35175957, -0.001855206, -0.005639912, 0.00948537, 0.223083, -0.05937146, -9.799995, 0, 0, 33.95224, 1, 1, 1000, 1000
MAG, 35215759, 404, 525, 350, 0, 0, 0, 0, 0, 0, 1, 35215750
RFND, 35215792, 0.2, 25, 0, 0
BARO, 35215828, -0.3963432, 993.4073, 31.94, -0.2231527, 35215, 0, 31.23
CTUN, 35215842, 0, 0, 0, 0.303312, 0.03812386, 0.03812386, -0.39, 0, 0.19, 0, 0, -2
ATT, 35215971, 0, 0.17, 0, -0.04, 341.66, 341.68, 0, 1
RATE, 35215978, -0.7774568, 0.3857321, -0.004952764, 0.1856903, -0.2079269, 0.001633452, -0.0002628953, -1.069397, 0.003932535, 881.9369, -3.743267, 0
NKF1, 35215986, 0.17, -0.04, 341.67, 0.06978228, -0.04247737, 0.02177622, 0, 0, 0, -0.03812386, -0.13, 0.07, 1.04
NKF2, 35215986, -1, 0, 0, 0, 0, 0, 0, 0, 0, 0, 0, 0, 0
NKF3, 35215986, 0, 0, 0, 0.12, -0.07, 0.02, 0, 0, 0, 0, 0
NKF4, 35215986, 0, 0, 0, 0, 0, 6.922699E-06, 0, 0, 0, 19, 229, 0, 0
NKF5, 35215986, 0, 0, 0, 0, 0.17, 0.13, 0, 0.19, 0.5, 5.350424E-05, 0.0006109537, 0.0008029893
NKQ1, 35215986, 0.9871486, 0.003827619, 0.01227699, -0.1592864
AHR2, 35216033, -0.13, 0.13, 5.21, -0.39, 0, 0, 0.998962, -0.001246815, 0.001156796, 0.04552035
MOTB, 35216040, 1, 1, 0, 1
RCIN, 35216044, 0, 0, 0, 0, 0, 0, 0, 0, 0, 0, 0, 0, 0, 0
RCOU, 35216050, 1236, 1225, 1221, 1226, 0, 0, 0, 0, 0, 0, 0, 0, 0, 0
VIBE, 35216059, 0.3995796, 0.4393076, 0.5180293, 0, 0, 0
CTRL, 35216066, 0.001942486, 0.001324148, 0.0006017969, 0.000904918, 0.003400682
PRX, 35216098, 2, 0.62, 0, 0.63, 0, 3.6, 0, 2.4, 0, 0, 0, 0.62
IMU, 35216105, 0.004415396, -0.002382351, -0.0004660902, 0.2740506, -0.05945339, -9.779171, 0, 0, 33.95408, 1, 1, 1000, 1000
IMU, 35256511, 0.001680681, 0.006086571, -0.01282211, 0.4692527, -0.07258216, -9.795221, 0, 0, 33.95606, 1, 1, 1000, 1000
RFND, 35265699, 0.2, 25, 0, 0
IMU, 35295792, -0.005606341, 0.002903735, -0.00904171, 0.3335925, -0.02768997, -9.815683, 0, 0, 33.95768, 1, 1, 1000, 1000
MAG, 35316483, 400, 527, 351, 0, 0, 0, 0, 0, 0, 1, 35316475
RFND, 35316517, 0.2, 25, 0, 0
BARO, 35316554, -0.3405202, 993.401, 31.94, -0.08827674, 35316, 0, 31.23
CTUN, 35316568, 0, 0, 0, 0.303312, 0.03818957, 0.03818957, -0.34, 0, 0.19, 0, 0, -2
ATT, 35316744, 0, 0.17, 0, -0.04, 341.57, 341.59, 0, 1
RATE, 35316750, -0.7723351, 0.1782041, -0.00316154, 0.1857698, 0.2359173, -0.001152769, -0.0003013328, -0.68118, 0.003078897, 878.3679, -0.1180649, 0
NKF1, 35316758, 0.17, -0.04, 341.58, 0.07209928, -0.04430046, 0.0216881, 0, 0, 0, -0.03818957, -0.13, 0.07, 1.04
NKF2, 35316758, -1, 0, 0, 0, 0, 0, 0, 0, 0, 0, 0, 0, 0
NKF3, 35316758, 0, 0, 0, 0.12, -0.07, 0.02, 0, 0, 0, 0, 0
NKF4, 35316758, 0, 0, 0, 0, 0, 7.791517E-06, 0, 0, 0, 19, 229, 0, 0
NKF5, 35316758, 0, 0, 0, 0, 0.17, 0.13, 0, 0.19, 0.5, 4.942745E-05, 0.001006589, 0.001859392
NKQ1, 35316758, 0.9870288, 0.003832481, 0.01227582, -0.1600273
AHR2, 35316803, -0.13, 0.14, 5.23, -0.34, 0, 0, 0.9989547, -0.001251921, 0.001203575, 0.04567973
MOTB, 35316811, 1, 1, 0, 1
RCIN, 35316815, 0, 0, 0, 0, 0, 0, 0, 0, 0, 0, 0, 0, 0, 0
RCOU, 35316820, 1232, 1228, 1221, 1228, 0, 0, 0, 0, 0, 0, 0, 0, 0, 0
VIBE, 35316830, 0.4584719, 0.3959837, 0.4129298, 0, 0, 0
CTRL, 35316837, 0.00196662, 0.001296017, 0.0007253166, 0.001114383, 0.003402242
PRX, 35316869, 2, 0.62, 0, 0.63, 0, 3.6, 0, 2.4, 0, 0, 0, 0.62
IMU, 35335848, -0.002025584, -0.007502593, -0.003276998, 0.05089134, -0.05968831, -9.816116, 0, 0, 33.95916, 1, 1, 1000, 1000
RFND, 35366150, 0.2, 25, 0, 0
IMU, 35376435, 0.0008502837, 0.003152419, 0.001764921, 0.0323384, -0.1318846, -9.870472, 0, 0, 33.95786, 1, 1, 1000, 1000
MAG, 35415746, 401, 525, 352, 0, 0, 0, 0, 0, 0, 1, 35415738
RFND, 35415781, 0.2, 25, 0, 0
BARO, 35415817, -0.3405202, 993.401, 31.94, 0.4113291, 35415, 0, 31.23
CTUN, 35415831, 0, 0, 0, 0.303312, 0.03781941, 0.03781941, -0.34, 0, 0.19, 0, 0, -2
ATT, 35415910, 0, 0.17, 0, -0.04, 341.46, 341.48, 0, 1
RATE, 35415916, -0.7839407, 0.1921175, -0.002916237, 0.1795616, 0.3347093, -0.002504316, -0.0002475207, -1.403514, 0.003261461, 955.981, -4.601002, 0
NKF1, 35415923, 0.17, -0.04, 341.47, 0.07335665, -0.04688805, 0.02360447, 0, 0, 0, -0.03781941, -0.13, 0.07, 1.04
NKF2, 35415923, -1, 0, 0, 0, 0, 0, 0, 0, 0, 0, 0, 0, 0
NKF3, 35415923, 0, 0, 0, 0.13, -0.08, 0.02, 0, 0, 0, 0, 0
NKF4, 35415923, 0, 0, 0, 0, 0, 8.540161E-06, 0, 0, 0, 19, 229, 0, 0
NKF5, 35415923, 0, 0, 0, 0, 0.17, 0.13, 0, 0.19, 0.5, 5.569739E-05, 0.0003973413, 0.0007175813
NKQ1, 35415923, 0.9868714, 0.003866274, 0.01227654, -0.1609947
AHR2, 35415969, -0.13, 0.14, 5.22, -0.34, 0, 0, 0.9989574, -0.001235096, 0.001242453, 0.04561808
MOTB, 35415976, 1, 1, 0, 1
RCIN, 35415980, 0, 0, 0, 0, 0, 0, 0, 0, 0, 0, 0, 0, 0, 0
RCOU, 35415987, 1231, 1231, 1221, 1230, 0, 0, 0, 0, 0, 0, 0, 0, 0, 0
VIBE, 35415996, 0.4994338, 0.4403699, 0.4968908, 0, 0, 0
CTRL, 35416003, 0.001990325, 0.001255153, 0.0007569834, 0.001292023, 0.003351765
PRX, 35416035, 2, 0.62, 0, 0.63, 0, 3.6, 0, 2.38, 0, 0, 0, 0.62
IMU, 35416042, 0.001040485, 0.007085602, -0.006330187, 0.3979682, -0.008179253, -9.767539, 0, 0, 33.95302, 1, 1, 1000, 1000
IMU, 35456620, -0.004808461, -0.003636443, 0.00576544, 0.4343983, 0.06671441, -9.716723, 0, 0, 33.94523, 1, 1, 1000, 1000
RFND, 35465625, 0.2, 25, 0, 0
IMU, 35495900, -0.00309618, -0.003063733, 0.007138025, 0.1892584, -0.06775166, -9.783171, 0, 0, 33.93552, 1, 1, 1000, 1000
MAG, 35515777, 399, 521, 347, 0, 0, 0, 0, 0, 0, 1, 35515768
RFND, 35515809, 0.2, 25, 0, 0
BARO, 35515846, -0.4633307, 993.415, 31.93, 0.603586, 35515, 0, 31.23
CTUN, 35515859, 0, 0, 0, 0.303312, 0.03747159, 0.03747159, -0.46, 0, 0.19, 0, 0, -2
ATT, 35515994, 0, 0.16, 0, -0.05, 341.37, 341.39, 0, 1
RATE, 35516001, -0.7614255, 0.01699691, -0.001610935, 0.2267512, -0.2018011, 0.0009187842, -0.0003163898, -0.9674219, 0.003487133, 1015.522, 1.4184, 0
NKF1, 35516009, 0.16, -0.05, 341.38, 0.07298711, -0.04890203, 0.02507462, 0, 0, 0, -0.03747159, -0.13, 0.07, 1.03
NKF2, 35516009, -1, 0, 0, 0, 0, 0, 0, 0, 0, 0, 0, 0, 0
NKF3, 35516009, 0, 0, 0, 0.13, -0.08, 0.02, 0, 0, 0, 0, 0
NKF4, 35516009, 0, 0, 0, 0, 0, 9.452995E-06, 0, 0, 0, 19, 229, 0, 0
NKF5, 35516009, 0, 0, 0, 0, 0.17, 0.13, 0, 0.19, 0.5, 4.920775E-05, 0.0009803784, 0.001994137
NKQ1, 35516009, 0.9867439, 0.003820956, 0.01219162, -0.161782
AHR2, 35516054, -0.13, 0.14, 5.24, -0.46, 0, 0, 0.9989527, -0.001272955, 0.001167083, 0.04572206
MOTB, 35516062, 1, 1, 0, 1
RCIN, 35516066, 0, 0, 0, 0, 0, 0, 0, 0, 0, 0, 0, 0, 0, 0
RCOU, 35516071, 1230, 1225, 1221, 1222, 0, 0, 0, 0, 0, 0, 0, 0, 0, 0
VIBE, 35516081, 0.4464675, 0.4145852, 0.4963524, 0, 0, 0
CTRL, 35516088, 0.001953823, 0.001187638, 0.0007766974, 0.001241544, 0.003326481
PRX, 35516120, 2, 0.62, 0, 0.63, 0, 3.6, 0, 2.4, 0, 0, 0, 0.62
IMU, 35536322, 0.0003729686, 0.00510405, -0.0158106, 0.236608, -0.006526504, -9.777706, 0, 0, 33.92349, 1, 1, 1000, 1000
RFND, 35566069, 0.2, 25, 0, 0
IMU, 35576211, -0.002615754, -0.001650832, -0.004624534, 0.313287, -0.03155652, -9.79504, 0, 0, 33.91093, 1, 1, 1000, 1000
MAG, 35615628, 399, 524, 349, 0, 0, 0, 0, 0, 0, 1, 35615619
RFND, 35615658, 0.2, 25, 0, 0
BARO, 35615694, -0.4186724, 993.4102, 31.92, 0.2480118, 35615, 0, 31.23
CTUN, 35615724, 0, 0, 0, 0.303312, 0.03686039, 0.03686039, -0.41, 0, 0.19, 0, 0, -2
ATT, 35615793, 0, 0.17, 0, -0.05, 341.26, 341.28, 0, 1
RATE, 35615799, -0.7893308, -0.00136425, -0.002556769, 0.2520978, -0.1122362, 0.000852712, -0.0003775295, -0.1705045, 0.003194096, 1131.749, 1.786995, 0
NKF1, 35615807, 0.17, -0.05, 341.27, 0.07401641, -0.05002479, 0.02794441, 0, 0, 0, -0.03686039, -0.13, 0.07, 1.04
NKF2, 35615807, -1, 0, 0, 0, 0, 0, 0, 0, 0, 0, 0, 0, 0
NKF3, 35615807, 0, 0, 0, 0.14, -0.09, 0.02, 0, 0, 0, 0, 0
NKF4, 35615807, 0, 0, 0, 0, 0, 1.03961E-05, 0, 0, 0, 19, 229, 0, 0
NKF5, 35615807, 0, 0, 0, 0, 0.17, 0.13, 0, 0.19, 0.5, 5.666228E-05, 0.0002505707, 0.001057299
NKQ1, 35615807, 0.9865939, 0.003872859, 0.01213841, -0.1626966
AHR2, 35615851, -0.13, 0.13, 5.24, -0.41, 0, 0, 0.9989532, -0.00122339, 0.001133733, 0.04571357
MOTB, 35615859, 1, 1, 0, 1
