FMT, 128, 89, FMT, BBnNZ, Type,Length,Name,Format,Columns
FMT, 129, 31, PARM, QNf, TimeUS,Name,Value
FMT, 130, 46, GPS, QBIHBcLLefffB, TimeUS,Status,GMS,GWk,NSats,HDop,Lat,Lng,Alt,Spd,GCrs,VZ,U
FMT, 131, 46, GPS2, QBIHBcLLefffB, TimeUS,Status,GMS,GWk,NSats,HDop,Lat,Lng,Alt,Spd,GCrs,VZ,U
FMT, 132, 46, GPSB, QBIHBcLLefffB, TimeUS,Status,GMS,GWk,NSats,HDop,Lat,Lng,Alt,Spd,GCrs,VZ,U
FMT, 193, 24, GPA, QCCCCBI, TimeUS,VDop,HAcc,VAcc,SAcc,VV,SMS
FMT, 194, 24, GPA2, QCCCCBI, TimeUS,VDop,HAcc,VAcc,SAcc,VV,SMS
FMT, 195, 24, GPAB, QCCCCBI, TimeUS,VDop,HAcc,VAcc,SAcc,VV,SMS
FMT, 133, 53, IMU, QffffffIIfBBHH, TimeUS,GyrX,GyrY,GyrZ,AccX,AccY,AccZ,EG,EA,T,GH,AH,GHz,AHz
FMT, 134, 75, MSG, QZ, TimeUS,Message
FMT, 135, 39, RCIN, QHHHHHHHHHHHHHH, TimeUS,C1,C2,C3,C4,C5,C6,C7,C8,C9,C10,C11,C12,C13,C14
FMT, 136, 39, RCOU, QHHHHHHHHHHHHHH, TimeUS,C1,C2,C3,C4,C5,C6,C7,C8,C9,C10,C11,C12,C13,C14
FMT, 137, 15, RSSI, Qf, TimeUS,RXRSSI
FMT, 139, 37, BARO, QffcfIff, TimeUS,Alt,Press,Temp,CRt,SMS,Offset,GndTemp
FMT, 140, 22, POWR, QffHB, TimeUS,Vcc,VServo,Flags,Safety
FMT, 143, 45, CMD, QHHHfffffff, TimeUS,CTot,CNum,CId,Prm1,Prm2,Prm3,Prm4,Lat,Lng,Alt
FMT, 144, 20, RAD, QBBBBBHH, TimeUS,RSSI,RemRSSI,TxBuf,Noise,RemNoise,RxErrors,Fixed
FMT, 146, 43, CAM, QIHLLeeeccC, TimeUS,GPSTime,GPSWeek,Lat,Lng,Alt,RelAlt,GPSAlt,Roll,Pitch,Yaw
FMT, 232, 43, TRIG, QIHLLeeeccC, TimeUS,GPSTime,GPSWeek,Lat,Lng,Alt,RelAlt,GPSAlt,Roll,Pitch,Yaw
FMT, 162, 30, ARSP, QffcffB, TimeUS,Airspeed,DiffPress,Temp,RawPress,Offset,U
FMT, 164, 45, CURR, QfffcHHHHHHHHHH, TimeUS,Volt,Curr,CurrTot,Temp,V1,V2,V3,V4,V5,V6,V7,V8,V9,V10
FMT, 165, 45, CUR2, QfffcHHHHHHHHHH, TimeUS,Volt,Curr,CurrTot,Temp,V1,V2,V3,V4,V5,V6,V7,V8,V9,V10
FMT, 163, 27, ATT, QccccCCCC, TimeUS,DesRoll,Roll,DesPitch,Pitch,DesYaw,Yaw,ErrRP,ErrYaw
FMT, 166, 34, MAG, QhhhhhhhhhBI, TimeUS,MagX,MagY,MagZ,OfsX,OfsY,OfsZ,MOfsX,MOfsY,MOfsZ,Health,S
FMT, 169, 14, MODE, QMBB, TimeUS,Mode,ModeNum,Rsn
FMT, 196, 17, RFND, QCBCB, TimeUS,Dist1,Orient1,Dist2,Orient2
FMT, 223, 33, DMS, IIIIIBBBBBBBBBB, TimeMS,N,Dp,RT,RS,Er,Fa,Fmn,Fmx,Pa,Pmn,Pmx,Sa,Smn,Smx
FMT, 240, 41, BCN, QBBfffffff, TimeUS,Health,Cnt,D0,D1,D2,D3,PosX,PosY,PosZ
FMT, 138, 53, IMU2, QffffffIIfBBHH, TimeUS,GyrX,GyrY,GyrZ,AccX,AccY,AccZ,EG,EA,T,GH,AH,GHz,AHz
FMT, 147, 53, IMU3, QffffffIIfBBHH, TimeUS,GyrX,GyrY,GyrZ,AccX,AccY,AccZ,EG,EA,T,GH,AH,GHz,AHz
FMT, 141, 45, AHR2, QccCfLLffff, TimeUS,Roll,Pitch,Yaw,Alt,Lat,Lng,Q1,Q2,Q3,Q4
FMT, 180, 31, POS, QLLfff, TimeUS,Lat,Lng,Alt,RelHomeAlt,RelOriginAlt
FMT, 142, 45, SIM, QccCfLLffff, TimeUS,Roll,Pitch,Yaw,Alt,Lat,Lng,Q1,Q2,Q3,Q4
FMT, 198, 51, NKF1, QccCfffffffccc, TimeUS,Roll,Pitch,Yaw,VN,VE,VD,dPD,PN,PE,PD,GX,GY,GZ
FMT, 199, 35, NKF2, QbccccchhhhhhB, TimeUS,AZbias,GSX,GSY,GSZ,VWN,VWE,MN,ME,MD,MX,MY,MZ,MI
FMT, 200, 33, NKF3, Qcccccchhhcc, TimeUS,IVN,IVE,IVD,IPN,IPE,IPD,IMX,IMY,IMZ,IYAW,IVT
FMT, 201, 35, NKF4, QcccccfbbHBHHb, TimeUS,SV,SP,SH,SM,SVT,errRP,OFN,OFE,FS,TS,SS,GPS,PI
FMT, 202, 40, NKF5, QBhhhcccCCfff, TimeUS,NI,FIX,FIY,AFI,HAGL,offset,RI,rng,Herr,eAng,eVel,ePos
FMT, 203, 51, NKF6, QccCfffffffccc, TimeUS,Roll,Pitch,Yaw,VN,VE,VD,dPD,PN,PE,PD,GX,GY,GZ
FMT, 204, 35, NKF7, QbccccchhhhhhB, TimeUS,AZbias,GSX,GSY,GSZ,VWN,VWE,MN,ME,MD,MX,MY,MZ,MI
FMT, 205, 33, NKF8, Qcccccchhhcc, TimeUS,IVN,IVE,IVD,IPN,IPE,IPD,IMX,IMY,IMZ,IYAW,IVT
FMT, 206, 35, NKF9, QcccccfbbHBHHb, TimeUS,SV,SP,SH,SM,SVT,errRP,OFN,OFE,FS,TS,SS,GPS,PI
FMT, 207, 36, NKF0, QBccCCcccccccc, TimeUS,ID,rng,innov,SIV,TR,BPN,BPE,BPD,OFH,OFL,OFN,OFE,OFD
FMT, 208, 27, NKQ1, Qffff, TimeUS,Q1,Q2,Q3,Q4
FMT, 209, 27, NKQ2, Qffff, TimeUS,Q1,Q2,Q3,Q4
FMT, 210, 51, XKF1, QccCfffffffccc, TimeUS,Roll,Pitch,Yaw,VN,VE,VD,dPD,PN,PE,PD,GX,GY,GZ
FMT, 211, 34, XKF2, QccccchhhhhhB, TimeUS,AX,AY,AZ,VWN,VWE,MN,ME,MD,MX,MY,MZ,MI
FMT, 212, 33, XKF3, Qcccccchhhcc, TimeUS,IVN,IVE,IVD,IPN,IPE,IPD,IMX,IMY,IMZ,IYAW,IVT
FMT, 213, 35, XKF4, QcccccfbbHBHHb, TimeUS,SV,SP,SH,SM,SVT,errRP,OFN,OFE,FS,TS,SS,GPS,PI
FMT, 214, 40, XKF5, QBhhhcccCCfff, TimeUS,NI,FIX,FIY,AFI,HAGL,offset,RI,rng,Herr,eAng,eVel,ePos
FMT, 215, 51, XKF6, QccCfffffffccc, TimeUS,Roll,Pitch,Yaw,VN,VE,VD,dPD,PN,PE,PD,GX,GY,GZ
FMT, 216, 34, XKF7, QccccchhhhhhB, TimeUS,AX,AY,AZ,VWN,VWE,MN,ME,MD,MX,MY,MZ,MI
FMT, 217, 33, XKF8, Qcccccchhhcc, TimeUS,IVN,IVE,IVD,IPN,IPE,IPD,IMX,IMY,IMZ,IYAW,IVT
FMT, 218, 35, XKF9, QcccccfbbHBHHb, TimeUS,SV,SP,SH,SM,SVT,errRP,OFN,OFE,FS,TS,SS,GPS,PI
FMT, 219, 36, XKF0, QBccCCcccccccc, TimeUS,ID,rng,innov,SIV,TR,BPN,BPE,BPD,OFH,OFL,OFN,OFE,OFD
FMT, 220, 27, XKQ1, Qffff, TimeUS,Q1,Q2,Q3,Q4
FMT, 221, 27, XKQ2, Qffff, TimeUS,Q1,Q2,Q3,Q4
FMT, 222, 35, XKFD, Qffffff, TimeUS,IX,IY,IZ,IVX,IVY,IVZ
FMT, 148, 34, TERR, QBLLHffHH, TimeUS,Status,Lat,Lng,Spacing,TerrH,CHeight,Pending,Loaded
FMT, 149, 18, UBX1, QBHBBH, TimeUS,Instance,noisePerMS,jamInd,aPower,agcCnt
FMT, 150, 16, UBX2, QBbBbB, TimeUS,Instance,ofsI,magI,ofsQ,magQ
FMT, 151, 18, UBY1, QBHBBH, TimeUS,Instance,noisePerMS,jamInd,aPower,agcCnt
FMT, 152, 16, UBY2, QBbBbB, TimeUS,Instance,ofsI,magI,ofsQ,magQ
FMT, 170, 42, GRAW, QIHBBddfBbB, TimeUS,WkMS,Week,numSV,sv,cpMes,prMes,doMes,mesQI,cno,lli
FMT, 171, 24, GRXH, QdHbBB, TimeUS,rcvTime,week,leapS,numMeas,recStat
FMT, 172, 41, GRXS, QddfBBBHBBBBB, TimeUS,prMes,cpMes,doMes,gnss,sv,freq,lock,cno,prD,cpD,doD,trk
FMT, 173, 63, SBFE, QIHBBdddfffff, TimeUS,TOW,WN,Mode,Err,Lat,Lng,Height,Undul,Vn,Ve,Vu,COG
FMT, 153, 19, ESC1, Qcccc, TimeUS,RPM,Volt,Curr,Temp
FMT, 154, 19, ESC2, Qcccc, TimeUS,RPM,Volt,Curr,Temp
FMT, 155, 19, ESC3, Qcccc, TimeUS,RPM,Volt,Curr,Temp
FMT, 156, 19, ESC4, Qcccc, TimeUS,RPM,Volt,Curr,Temp
FMT, 157, 19, ESC5, Qcccc, TimeUS,RPM,Volt,Curr,Temp
FMT, 158, 19, ESC6, Qcccc, TimeUS,RPM,Volt,Curr,Temp
FMT, 159, 19, ESC7, Qcccc, TimeUS,RPM,Volt,Curr,Temp
FMT, 160, 19, ESC8, Qcccc, TimeUS,RPM,Volt,Curr,Temp
FMT, 167, 34, MAG2, QhhhhhhhhhBI, TimeUS,MagX,MagY,MagZ,OfsX,OfsY,OfsZ,MOfsX,MOfsY,MOfsZ,Health,S
FMT, 168, 34, MAG3, QhhhhhhhhhBI, TimeUS,MagX,MagY,MagZ,OfsX,OfsY,OfsZ,MOfsX,MOfsY,MOfsZ,Health,S
FMT, 174, 31, ACC1, QQfff, TimeUS,SampleUS,AccX,AccY,AccZ
FMT, 175, 31, ACC2, QQfff, TimeUS,SampleUS,AccX,AccY,AccZ
FMT, 176, 31, ACC3, QQfff, TimeUS,SampleUS,AccX,AccY,AccZ
FMT, 177, 31, GYR1, QQfff, TimeUS,SampleUS,GyrX,GyrY,GyrZ
FMT, 178, 31, GYR2, QQfff, TimeUS,SampleUS,GyrX,GyrY,GyrZ
FMT, 179, 31, GYR3, QQfff, TimeUS,SampleUS,GyrX,GyrY,GyrZ
FMT, 181, 35, PIDR, Qffffff, TimeUS,Des,P,I,D,FF,AFF
FMT, 182, 35, PIDP, Qffffff, TimeUS,Des,P,I,D,FF,AFF
FMT, 183, 35, PIDY, Qffffff, TimeUS,Des,P,I,D,FF,AFF
FMT, 184, 35, PIDA, Qffffff, TimeUS,Des,P,I,D,FF,AFF
FMT, 185, 35, PIDS, Qffffff, TimeUS,Des,P,I,D,FF,AFF
FMT, 186, 35, PIDL, Qffffff, TimeUS,Des,P,I,D,FF,AFF
FMT, 161, 37, BAR2, QffcfIff, TimeUS,Alt,Press,Temp,CRt,SMS,Offset,GndTemp
FMT, 197, 37, BAR3, QffcfIff, TimeUS,Alt,Press,Temp,CRt,SMS,Offset,GndTemp
FMT, 187, 35, VIBE, QfffIII, TimeUS,VibeX,VibeY,VibeZ,Clip0,Clip1,Clip2
FMT, 188, 47, IMT, Qfffffffff, TimeUS,DelT,DelvT,DelaT,DelAX,DelAY,DelAZ,DelVX,DelVY,DelVZ
FMT, 189, 47, IMT2, Qfffffffff, TimeUS,DelT,DelvT,DelaT,DelAX,DelAY,DelAZ,DelVX,DelVY,DelVZ
FMT, 190, 47, IMT3, Qfffffffff, TimeUS,DelT,DelvT,DelaT,DelAX,DelAY,DelAZ,DelVX,DelVY,DelVZ
FMT, 191, 24, ORGN, QBLLe, TimeUS,Type,Lat,Lng,Alt
FMT, 192, 19, RPM, Qff, TimeUS,rpm1,rpm2
FMT, 233, 47, GMB1, Iffffffffff, TimeMS,dt,dax,day,daz,dvx,dvy,dvz,jx,jy,jz
FMT, 234, 44, GMB2, IBfffffffff, TimeMS,es,ex,ey,ez,rx,ry,rz,tx,ty,tz
FMT, 235, 13, GMB3, Ihhh, TimeMS,rl_torque_cmd,el_torque_cmd,az_torque_cmd
FMT, 236, 59, RATE, Qffffffffffff, TimeUS,RDes,R,ROut,PDes,P,POut,YDes,Y,YOut,ADes,A,AOut
FMT, 237, 23, RALY, QBBLLh, TimeUS,Tot,Seq,Lat,Lng,Alt
FMT, 238, 43, VISO, Qffffffff, TimeUS,dt,AngDX,AngDY,AngDZ,PosDX,PosDY,PosDZ,conf
FMT, 224, 23, SBPH, QIII, TimeUS,CrcError,LastInject,IARhyp
FMT, 229, 80, SBR1, QHHBZ, TimeUS,msg_type,sender_id,msg_len,d1
FMT, 230, 205, SBR2, QHZZZ, TimeUS,msg_type,d2,d3,d4
FMT, 25, 41, ATUN, QBBfffffff, TimeUS,Axis,TuneStep,Targ,Min,Max,RP,RD,SP,ddt
FMT, 26, 19, ATDE, Qff, TimeUS,Angle,Rate
FMT, 31, 22, PTUN, QBfHHH, TimeUS,Param,TunVal,CtrlIn,TunLo,TunHi
FMT, 12, 28, OF, QBffff, TimeUS,Qual,flowX,flowY,bodyX,bodyY
FMT, 5, 51, NTUN, Qffffffffff, TimeUS,DPosX,DPosY,PosX,PosY,DVelX,DVelY,VelX,VelY,DAccX,DAccY
FMT, 4, 51, CTUN, Qffffffeccfhh, TimeUS,ThI,ABst,ThO,ThH,DAlt,Alt,BAlt,DSAlt,SAlt,TAlt,DCRt,CRt
FMT, 6, 32, PM, QHHIhBHII, TimeUS,NLon,NLoop,MaxT,PMT,I2CErr,INSErr,LogDrop,Mem
FMT, 30, 27, MOTB, Qffff, TimeUS,LiftMax,BatVolt,BatRes,ThLimit
FMT, 13, 12, EV, QB, TimeUS,Id
FMT, 20, 14, D16, QBh, TimeUS,Id,Value
FMT, 21, 14, DU16, QBH, TimeUS,Id,Value
FMT, 22, 16, D32, QBi, TimeUS,Id,Value
FMT, 23, 16, DU32, QBI, TimeUS,Id,Value
FMT, 24, 16, DFLT, QBf, TimeUS,Id,Value
FMT, 19, 13, ERR, QBB, TimeUS,Subsys,ECode
FMT, 32, 19, HELI, Qff, TimeUS,DRRPM,ERRPM
FMT, 33, 29, PL, QBBffff, TimeUS,Heal,TAcq,pX,pY,vX,vY
FMT, 34, 36, GUID, QBffffff, TimeUS,Type,pX,pY,pZ,vX,vY,vZ
FMT, 35, 32, THRO, QBffffbbbb, TimeUS,Stage,Vel,VelZ,Acc,AccEfZ,Throw,AttOk,HgtOk,PosOk
FMT, 36, 56, PRX, QBfffffffffff, TimeUS,Health,D0,D45,D90,D135,D180,D225,D270,D315,DUp,CAn,CDis
MODE, 27610884, 100, 100, 2
FMT, 254, 47, NKT1, QIffffffff, TimeUS,Cnt,IMUMin,IMUMax,EKFMin,EKFMax,AngMin,AngMax,VelMin,VelM
FMT, 253, 31, CTRL, Qfffff, TimeUS,RMSRollP,RMSRollD,RMSPitchP,RMSPitchD,RMSYaw
MSG, 27781931, APM:Copter V3.5.7 (38483450)
MSG, 27781936, New mission
MSG, 27781947, Frame: QUAD
MODE, 27781952, Autonomous, 100, 2
RFND, 27783785, 0.2, 25, 0, 0
IMU, 27796729, 0.00117354, -0.0007292365, -0.0004835154, 0.251626, -0.004380179, -9.802402, 0, 0, 36.62552, 1, 1, 1000, 1000
MAG, 27833879, 358, 573, 378, 0, 0, 0, 0, 0, 0, 1, 27833871
RFND, 27833913, 0.2, 25, 0, 0
BARO, 27833951, -0.08464779, 993.5379, 34.68, -0.8474199, 27833, 0, 34.55
CTUN, 27833965, 0, 0, 0, 0.3069316, 0.07944681, 0.07944681, -0.08, 0, 0.19, 0, 0, 0
DU32, 27836443, 7, 50389208
ATT, 27836570, 0, -0.19, 0, 0.17, 137.4, 137.4, 0, 1
RATE, 27836577, 0.8919035, -0.07526141, 0.002253245, -0.7933532, 0.09361245, -0.002261224, -0.009049539, 1.584178, -0.004948676, -228.7516, -1.674557, 0
NKF1, 27836584, -0.19, 0.17, 137.4, 0.08642655, -0.02255817, -0.005648186, 0, 0, 0, -0.0793481, 0.05, 0, -1.57
NKF2, 27836584, 0, 0, 0, 0, 0, 0, 0, 0, 0, 0, 0, 0, 0
NKF3, 27836584, 0, 0, 0, 0.06, 0, -0.01, 0, 0, 0, 0, 0
NKF4, 27836584, 0, 0, 0, 0, 0, 0.0001525587, 0, 0, 0, 19, 229, 0, 0
NKF5, 27836584, 0, 0, 0, 0, 0.21, 0.13, 0, 0.19, 0.5, 0.0003912392, 0.01919923, 0.02752308
NKQ1, 27836584, 0.3631915, -0.01414444, 0.003983186, 0.9315986
AHR2, 27836703, -0.15, 0, 123.66, -0.08, 0, 0, 0.472075, -0.0006068664, -0.001178138, 0.8815574
MOTB, 27836713, 1, 1, 0, 1
RCIN, 27836718, 0, 0, 0, 0, 0, 0, 0, 0, 0, 0, 0, 0, 0, 0
RCOU, 27836724, 1101, 1101, 1101, 1101, 0, 0, 0, 0, 0, 0, 0, 0, 0, 0
VIBE, 27836732, 0.0201453, 0.01986168, 0.0338312, 0, 0, 0
CTRL, 27836739, 0.002372786, 0.0001426716, 0.00193694, 0.0002448401, 0.004949883
PRX, 27836770, 2, 0.62, 0, 0.88, 0, 3.6, 0, 2.16, 0, 0, 0, 0.62
IMU, 27836778, -0.0004165402, 0.001464605, 0.0002384882, 0.2565959, 0.01479477, -9.791227, 0, 0, 36.62532, 1, 1, 1000, 1000
IMU, 27876708, 0.000982476, -0.0002269287, 0.0003151812, 0.2602097, 0.01229125, -9.806376, 0, 0, 36.62534, 1, 1, 1000, 1000
RFND, 27883857, 0.2, 25, 0, 0
IMU, 27916551, 0.0007635506, 0.0008265159, -0.001236651, 0.2573099, 0.01370453, -9.808031, 0, 0, 36.62483, 1, 1, 1000, 1000
MAG, 27934066, 358, 574, 374, 0, 0, 0, 0, 0, 0, 1, 27934058
RFND, 27934099, 0.2, 25, 0, 0
BARO, 27934136, -0.1015773, 993.5399, 34.68, -0.5326986, 27934, 0, 34.55
CTUN, 27934149, 0, 0, 0, 0.3069316, 0.07889419, 0.07889419, -0.1, 0, 0.19, 0, 0, 0
ATT, 27936494, 0, -0.19, 0, 0.17, 137.55, 137.55, 0, 1
RATE, 27936503, 0.8625064, -0.04710267, 0.002282264, -0.8008059, 0.03999603, -0.00179877, -0.01545826, 1.548491, -0.004915728, -191.3632, -2.78759, 0
NKF1, 27936511, -0.19, 0.17, 137.55, 0.08705494, -0.02322895, -0.004725017, 0, 0, 0, -0.07876418, 0.05, 0, -1.57
NKF2, 27936511, 0, 0, 0, 0, 0, 0, 0, 0, 0, 0, 0, 0, 0
NKF3, 27936511, 0, 0, 0, 0.07, 0, -0.01, 0, 0, 0, 0, 0
NKF4, 27936511, 0, 0, 0, 0, 0, 0.0001011145, 0, 0, 0, 19, 229, 0, 0
NKF5, 27936511, 0, 0, 0, 0, 0.21, 0.13, 0, 0.19, 0.5, 0.0002657328, 0.01816167, 0.02599646
NKQ1, 27936511, 0.3619356, -0.01413912, 0.00402494, 0.9320872
AHR2, 27936553, -0.14, 0, 123.66, -0.09999999, 0, 0, 0.4720885, -0.0005870537, -0.001150001, 0.8815502
MOTB, 27936561, 1, 1, 0, 1
RCIN, 27936565, 0, 0, 0, 0, 0, 0, 0, 0, 0, 0, 0, 0, 0, 0
RCOU, 27936571, 1101, 1101, 1101, 1101, 0, 0, 0, 0, 0, 0, 0, 0, 0, 0
VIBE, 27936580, 0.01775336, 0.01981154, 0.03294319, 0, 0, 0
CTRL, 27936587, 0.002279203, 0.0001549419, 0.001948888, 0.0002319237, 0.004952718
PRX, 27936620, 2, 0.62, 0, 0.88, 0, 3.6, 0, 2.17, 0, 0, 0, 0.62
IMU, 27956437, -0.0004799606, -0.001002464, -0.001051997, 0.2598622, 0.002688413, -9.801243, 0, 0, 36.62475, 1, 1, 1000, 1000
RFND, 27983793, 0.2, 25, 0, 0
IMU, 27996448, 0.0003382248, 0.0002763979, -0.0003645567, 0.2695887, 0.002834938, -9.80694, 0, 0, 36.62483, 1, 1, 1000, 1000
MAG, 28033766, 358, 574, 377, 0, 0, 0, 0, 0, 0, 1, 28033758
RFND, 28033796, 0.2, 25, 0, 0
BARO, 28033835, -0.09593417, 993.5392, 34.67, -0.01946788, 28033, 0, 34.55
CTUN, 28033848, 0, 0, 0, 0.3069316, 0.07819325, 0.07819325, -0.09, 0, 0.19, 0, 0, 0
ATT, 28036473, 0, -0.19, 0, 0.17, 137.7, 137.7, 0, 1
RATE, 28036482, 0.8617318, -0.1595694, 0.002595523, -0.8016389, 0.05966657, -0.002134979, -0.01584246, 1.521484, -0.004856829, -174.5855, -0.04310608, 0
NKF1, 28036489, -0.19, 0.17, 137.7, 0.08860748, -0.02291892, -0.004310753, 0, 0, 0, -0.07811351, 0.05, 0, -1.57
NKF2, 28036489, 0, 0, 0, 0, 0, 0, 0, 0, 0, 0, 0, 0, 0
NKF3, 28036489, 0, 0, 0, 0.07, 0, -0.01, 0, 0, 0, 0, 0
NKF4, 28036489, 0, 0, 0, 0, 0, 6.692889E-05, 0, 0, 0, 19, 229, 0, 0
NKF5, 28036489, 0, 0, 0, 0, 0.21, 0.13, 0, 0.19, 0.5, 0.0001677727, 0.01740005, 0.02521122
NKQ1, 28036489, 0.3606968, -0.01414766, 0.004007297, 0.9325673
AHR2, 28036532, -0.15, 0, 123.65, -0.09, 0, 0, 0.4721194, -0.0005799963, -0.001176799, 0.8815337
MOTB, 28036540, 1, 1, 0, 1
RCIN, 28036544, 0, 0, 0, 0, 0, 0, 0, 0, 0, 0, 0, 0, 0, 0
RCOU, 28036550, 1101, 1101, 1101, 1101, 0, 0, 0, 0, 0, 0, 0, 0, 0, 0
VIBE, 28036559, 0.01821616, 0.02009103, 0.03340106, 0, 0, 0
CTRL, 28036566, 0.002245054, 0.0001623674, 0.001929811, 0.0002200335, 0.004933606
PRX, 28036598, 2, 0.62, 0, 0.89, 0, 3.6, 0, 2.15, 0, 0, 0, 0.62
IMU, 28036606, -0.001885393, 0.0008715334, -0.0009350437, 0.2537596, -0.0005954077, -9.807738, 0, 0, 36.62468, 1, 1, 1000, 1000
IMU, 28076405, 0.0008858942, 0.001753944, -0.001386656, 0.2614933, 0.009772126, -9.812628, 0, 0, 36.62463, 1, 1, 1000, 1000
RFND, 28083803, 0.2, 25, 0, 0
IMU, 28116455, -0.0001442371, 0.001080513, 0.0008769943, 0.2664144, 0.01307655, -9.816326, 0, 0, 36.62471, 1, 1, 1000, 1000
MAG, 28133927, 360, 576, 373, 0, 0, 0, 0, 0, 0, 1, 28133918
RFND, 28133956, 0.2, 25, 0, 0
BARO, 28133995, -0.1241501, 993.5427, 34.67, 0.1977179, 28133, 0, 34.55
CTUN, 28134008, 0, 0, 0, 0.3069316, 0.07752083, 0.07752083, -0.12, 0, 0.19, 0, 0, 0
ATT, 28136783, 0, -0.19, 0, 0.18, 137.86, 137.86, 0, 1
RATE, 28136793, 0.8544916, -0.04788672, 0.002076355, -0.8287585, 0.002580911, -0.001797069, -0.01559682, 1.531515, -0.004937963, -159.8383, -0.2263069, 0
NKF1, 28136801, -0.19, 0.18, 137.86, 0.09027048, -0.0227581, -0.003946625, 0, 0, 0, -0.07740849, 0.05, 0, -1.57
NKF2, 28136801, 0, 0, 0, 0, 0, 0, 0, 0, 0, 0, 0, 0, 0
NKF3, 28136801, 0, 0, 0, 0.09, 0, -0.01, 0, 0, 0, 0, 0
NKF4, 28136801, 0, 0, 0, 0, 0, 4.522732E-05, 0, 0, 0, 19, 229, 0, 0
NKF5, 28136801, 0, 0, 0, 0, 0.21, 0.13, 0, 0.19, 0.5, 8.950988E-05, 0.01669539, 0.02433263
NKQ1, 28136801, 0.3594259, -0.01419704, 0.004019878, 0.933057
AHR2, 28136846, -0.15, 0, 123.65, -0.12, 0, 0, 0.4721352, -0.0006020432, -0.001164069, 0.8815252
MOTB, 28136853, 1, 1, 0, 1
RCIN, 28136858, 0, 0, 0, 0, 0, 0, 0, 0, 0, 0, 0, 0, 0, 0
RCOU, 28136864, 1101, 1101, 1101, 1101, 0, 0, 0, 0, 0, 0, 0, 0, 0, 0
VIBE, 28136873, 0.02141982, 0.01996273, 0.0320074, 0, 0, 0
CTRL, 28136880, 0.002209409, 0.0001540984, 0.001980606, 0.000194136, 0.004918289
PRX, 28136913, 2, 0.62, 0, 0.88, 0, 3.6, 0, 2.16, 0, 0, 0, 0.62
IMU, 28156756, -6.593787E-05, 3.528302E-05, -0.0008986603, 0.25915, 0.01315647, -9.800504, 0, 0, 36.62539, 1, 1, 1000, 1000
RFND, 28183825, 0.2, 25, 0, 0
IMU, 28196765, -0.0007791315, -4.90016E-05, -0.0001661821, 0.2588175, 0.006995209, -9.811243, 0, 0, 36.62532, 1, 1, 1000, 1000
MAG, 28233928, 360, 573, 374, 0, 0, 0, 0, 0, 0, 1, 28233919
RFND, 28233959, 0.2, 25, 0, 0
BARO, 28233998, -0.1241501, 993.5427, 34.67, 0.07614126, 28233, 0, 34.55
CTUN, 28234012, 0, 0, 0, 0.3069316, 0.07694042, 0.07694042, -0.12, 0, 0.19, 0, 0, 0
ATT, 28236603, 0, -0.18, 0, 0.18, 138.02, 138.01, 0, 1
RATE, 28236615, 0.8446585, 0.04431725, 0.001962282, -0.8292587, 0.03324088, -0.002290754, -0.0149207, 1.564057, -0.005004928, -188.472, 1.989079, 0
NKF1, 28236702, -0.18, 0.18, 138.01, 0.09288563, -0.02312091, -0.004653629, 0, 0, 0, -0.07687438, 0.05, 0, -1.57
NKF2, 28236702, 0, 0, 0, 0, 0, 0, 0, 0, 0, 0, 0, 0, 0
NKF3, 28236702, 0, 0, 0, 0.09, 0, -0.01, 0, 0, 0, 0, 0
NKF4, 28236702, 0, 0, 0, 0, 0, 3.078552E-05, 0, 0, 0, 19, 229, 0, 0
NKF5, 28236702, 0, 0, 0, 0, 0.21, 0.13, 0, 0.19, 0.5, 4.286766E-05, 0.01608974, 0.02378773
NKQ1, 28236702, 0.3581509, -0.01419747, 0.004018013, 0.9335472
AHR2, 28236748, -0.14, 0, 123.65, -0.12, 0, 0, 0.4721394, -0.0005736597, -0.001167694, 0.881523
MOTB, 28236756, 1, 1, 0, 1
RCIN, 28236761, 0, 0, 0, 0, 0, 0, 0, 0, 0, 0, 0, 0, 0, 0
RCOU, 28236767, 1101, 1101, 1101, 1101, 0, 0, 0, 0, 0, 0, 0, 0, 0, 0
VIBE, 28236776, 0.02024534, 0.01927635, 0.03160462, 0, 0, 0
CTRL, 28236782, 0.002168098, 0.0001749607, 0.001966684, 0.000184804, 0.004925953
PRX, 28236814, 2, 0.62, 0, 0.88, 0, 0.61, 0, 2.16, 0, 0, 180, 0.61
IMU, 28236822, 0.001673116, 0.0004102267, -0.0001929217, 0.2558757, 0.006972592, -9.828035, 0, 0, 36.6259, 1, 1, 1000, 1000
IMU, 28276504, 0.0001586802, -0.0005259356, 0.0007267824, 0.2598093, 0.01037583, -9.820857, 0, 0, 36.62699, 1, 1, 1000, 1000
RFND, 28283739, 0.2, 25, 0, 0
IMU, 28316479, -0.0001481388, -0.0004784267, 0.0003593941, 0.2620403, 0.009584879, -9.819045, 0, 0, 36.62776, 1, 1, 1000, 1000
MAG, 28333763, 361, 570, 376, 0, 0, 0, 0, 0, 0, 1, 28333755
RFND, 28333791, 0.2, 25, 0, 0
BARO, 28333830, -0.242657, 993.5555, 34.68, -0.102519, 28333, 0, 34.55
CTUN, 28333842, 0, 0, 0, 0.3069316, 0.0763661, 0.0763661, -0.24, 0, 0.19, 0, 0, 0
ATT, 28336505, 0, -0.18, 0, 0.18, 138.17, 138.17, 0, 1
RATE, 28336514, 0.8438974, -0.03053259, 0.001922743, -0.8300333, 0.05641008, -0.002245568, -0.01427526, 1.564328, -0.005023218, -214.1765, 0.4088402, 0
NKF1, 28336521, -0.18, 0.18, 138.17, 0.09564967, -0.02354667, -0.005288308, 0, 0, 0, -0.07627463, 0.05, 0, -1.57
NKF2, 28336521, 0, 0, 0, 0, 0, 0, 0, 0, 0, 0, 0, 0, 0
NKF3, 28336521, 0, 0, 0, 0.1, 0, -0.01, 0, 0, 0, 0, 0
NKF4, 28336521, 0, 0, 0, 0, 0, 2.129397E-05, 0, 0, 0, 19, 229, 0, 0
NKF5, 28336521, 0, 0, 0, 0, 0.21, 0.13, 0, 0.19, 0.5, 3.870702E-05, 0.01545528, 0.02298929
NKQ1, 28336521, 0.356865, -0.01420064, 0.004001875, 0.9340395
AHR2, 28336565, -0.14, 0, 123.65, -0.24, 0, 0, 0.4721365, -0.0005451416, -0.001183674, 0.8815245
MOTB, 28336572, 1, 1, 0, 1
RCIN, 28336577, 0, 0, 0, 0, 0, 0, 0, 0, 0, 0, 0, 0, 0, 0
RCOU, 28336583, 1101, 1101, 1101, 1101, 0, 0, 0, 0, 0, 0, 0, 0, 0, 0
VIBE, 28336592, 0.0199503, 0.02206933, 0.03289013, 0, 0, 0
CTRL, 28336598, 0.002148335, 0.000187978, 0.001959176, 0.0001886771, 0.004950173
PRX, 28336707, 2, 0.62, 0, 0.88, 0, 0.61, 0, 2.16, 0, 0, 180, 0.61
IMU, 28356926, 0.0002964316, 0.001271062, -0.0005740041, 0.2583981, 0.007032029, -9.808278, 0, 0, 36.63006, 1, 1, 1000, 1000
RFND, 28383773, 0.2, 25, 0, 0
IMU, 28396445, -0.0004823175, 0.0006133708, -9.516109E-05, 0.2559831, -0.002043293, -9.812389, 0, 0, 36.63276, 1, 1, 1000, 1000
MAG, 28433796, 357, 569, 371, 0, 0, 0, 0, 0, 0, 1, 28433788
RFND, 28433824, 0.2, 25, 0, 0
BARO, 28433861, -0.242657, 993.5555, 34.68, -0.2702568, 28433, 0, 34.55
CTUN, 28433874, 0, 0, 0, 0.3069316, 0.07604814, 0.07604814, -0.24, 0, 0.19, 0, 0, 0
ATT, 28436453, 0, -0.18, 0, 0.18, 138.33, 138.33, 0, 1
RATE, 28436462, 0.8456274, 0.0007075882, 0.001802339, -0.8519121, 0.05755705, -0.001745697, -0.01476717, 1.532278, -0.005030036, -204.4998, 0.2547264, 0
NKF1, 28436470, -0.18, 0.18, 138.33, 0.09871196, -0.02312127, -0.005049379, 0, 0, 0, -0.07599579, 0.05, 0, -1.57
NKF2, 28436470, 0, 0, 0, 0, 0, 0, 0, 0, 0, 0, 0, 0, 0
NKF3, 28436470, 0, 0, 0, 0.1, 0, -0.01, 0, 0, 0, 0, 0
NKF4, 28436470, 0, 0, 0, 0, 0, 1.50548E-05, 0, 0, 0, 19, 229, 0, 0
NKF5, 28436470, 0, 0, 0, 0, 0.21, 0.13, 0, 0.19, 0.5, 4.905043E-05, 0.01488407, 0.02240152
NKQ1, 28436470, 0.3555847, -0.0142484, 0.003993819, 0.9345269
AHR2, 28436515, -0.14, 0, 123.65, -0.24, 0, 0, 0.4721422, -0.0005543089, -0.001186351, 0.8815215
MOTB, 28436522, 1, 1, 0, 1
RCIN, 28436526, 0, 0, 0, 0, 0, 0, 0, 0, 0, 0, 0, 0, 0, 0
RCOU, 28436533, 1101, 1101, 1101, 1101, 0, 0, 0, 0, 0, 0, 0, 0, 0, 0
VIBE, 28436542, 0.01892265, 0.02044799, 0.03270884, 0, 0, 0
CTRL, 28436548, 0.002135776, 0.000207913, 0.002008622, 0.0002316679, 0.004967431
PRX, 28436580, 2, 0.62, 0, 0.88, 0, 3.6, 0, 2.16, 0, 0, 0, 0.62
IMU, 28436588, 0.0009132575, 0.000834327, -0.0007877257, 0.2664109, -0.001775442, -9.81045, 0, 0, 36.63518, 1, 1, 1000, 1000
IMU, 28476588, 0.0002251628, -0.0007393152, -0.0002093046, 0.2667091, 0.001585553, -9.819849, 0, 0, 36.6368, 1, 1, 1000, 1000
RFND, 28483776, 0.2, 25, 0, 0
IMU, 28516785, -0.0007369464, 0.001301846, 0.0003514151, 0.2598313, 0.01461182, -9.819726, 0, 0, 36.63875, 1, 1, 1000, 1000
MAG, 28533744, 360, 572, 377, 0, 0, 0, 0, 0, 0, 1, 28533736
RFND, 28533773, 0.2, 25, 0, 0
BARO, 28533811, -0.180582, 993.5488, 34.69, -0.3933007, 28533, 0, 34.55
CTUN, 28533825, 0, 0, 0, 0.3069316, 0.07554083, 0.07554083, -0.18, 0, 0.19, 0, 0, 0
ATT, 28536959, 0, -0.18, 0, 0.19, 138.49, 138.49, 0, 1
RATE, 28536968, 0.8460317, -0.0493519, 0.001962068, -0.8699732, 0.07199813, -0.002323208, -0.01472117, 1.625309, -0.005020516, -209.8044, 0.3115654, 0
NKF1, 28536975, -0.18, 0.19, 138.49, 0.1020691, -0.02287395, -0.005180356, 0, 0, 0, -0.07546642, 0.05, 0, -1.57
NKF2, 28536975, 0, 0, 0, 0, 0, 0, 0, 0, 0, 0, 0, 0, 0
NKF3, 28536975, 0, 0, 0, 0.12, 0, -0.01, 0, 0, 0, 0, 0
NKF4, 28536975, 0, 0, 0, 0, 0, 1.106733E-05, 0, 0, 0, 19, 229, 0, 0
NKF5, 28536975, 0, 0, 0, 0, 0.21, 0.13, 0, 0.19, 0.5, 6.161059E-05, 0.01426814, 0.02150457
NKQ1, 28536975, 0.354296, -0.01429007, 0.003983386, 0.9350157
AHR2, 28537019, -0.15, 0, 123.65, -0.18, 0, 0, 0.4721423, -0.0005572779, -0.00119096, 0.8815214
MOTB, 28537026, 1, 1, 0, 1
RCIN, 28537030, 0, 0, 0, 0, 0, 0, 0, 0, 0, 0, 0, 0, 0, 0
RCOU, 28537036, 1101, 1101, 1101, 1101, 0, 0, 0, 0, 0, 0, 0, 0, 0, 0
VIBE, 28537045, 0.0197912, 0.01891555, 0.03042825, 0, 0, 0
CTRL, 28537052, 0.002130934, 0.0001820963, 0.002034009, 0.0002260149, 0.004969579
PRX, 28537083, 2, 0.62, 0, 0.88, 0, 3.6, 0, 2.16, 0, 0, 0, 0.62
IMU, 28556436, 0.0005587192, -0.0005416758, 0.0004505217, 0.2532963, 0.01160916, -9.812556, 0, 0, 36.64064, 1, 1, 1000, 1000
RFND, 28583793, 0.2, 25, 0, 0
IMU, 28596621, -0.001000738, -0.000485886, 0.001041169, 0.2670405, 0.00564158, -9.804162, 0, 0, 36.64147, 1, 1, 1000, 1000
MAG, 28634213, 364, 570, 374, 0, 0, 0, 0, 0, 0, 1, 28634205
RFND, 28634243, 0.2, 25, 0, 0
BARO, 28634282, -0.1241501, 993.5424, 34.69, -0.2645097, 28634, 0, 34.55
CTUN, 28634296, 0, 0, 0, 0.3069316, 0.075348, 0.075348, -0.12, 0, 0.19, 0, 0, 0
ATT, 28637407, 0, -0.18, 0, 0.19, 138.65, 138.65, 0, 1
RATE, 28637418, 0.8453984, -0.02231482, 0.001968038, -0.8660094, 0.03693216, -0.002449039, -0.02277395, 1.501018, -0.00498565, -219.1252, 0.197506, 0
NKF1, 28637426, -0.18, 0.19, 138.65, 0.1055791, -0.0228879, -0.005410498, 0, 0, 0, -0.07525195, 0.05, 0, -1.57
NKF2, 28637426, 0, 0, 0, 0, 0, 0, 0, 0, 0, 0, 0, 0, 0
NKF3, 28637426, 0, 0, 0, 0.13, 0, -0.01, 0, 0, 0, 0, 0
NKF4, 28637426, 0, 0, 0, 0, 0, 8.504875E-06, 0, 0, 0, 19, 229, 0, 0
NKF5, 28637426, 0, 0, 0, 0, 0.2, 0.13, 0, 0.19, 0.5, 6.761284E-05, 0.01365802, 0.02054114
NKQ1, 28637426, 0.3529997, -0.01428636, 0.003963991, 0.935506
AHR2, 28637933, -0.14, -0.01, 123.65, -0.12, 0, 0, 0.4721493, -0.0005182257, -0.001206542, 0.8815176
MOTB, 28637947, 1, 1, 0, 1
RCIN, 28637952, 0, 0, 0, 0, 0, 0, 0, 0, 0, 0, 0, 0, 0, 0
RCOU, 28637958, 1101, 1101, 1101, 1101, 0, 0, 0, 0, 0, 0, 0, 0, 0, 0
VIBE, 28637967, 0.01895469, 0.01966638, 0.03221866, 0, 0, 0
CTRL, 28637973, 0.002124758, 0.0001915645, 0.002020937, 0.0002134103, 0.004990216
PRX, 28638007, 2, 0.62, 0, 0.88, 0, 3.6, 0, 2.17, 0, 0, 0, 0.62
IMU, 28638015, 0.0005103688, 0.0004745618, -0.00130586, 0.2606905, 9.863943E-07, -9.810114, 0, 0, 36.64087, 1, 1, 1000, 1000
IMU, 28676701, -0.001553916, 0.001135867, -0.0003924677, 0.25961, 0.01271038, -9.802683, 0, 0, 36.63991, 1, 1, 1000, 1000
RFND, 28683859, 0.2, 25, 0, 0
IMU, 28716621, -4.091842E-05, 0.0001265961, -0.001399398, 0.2436413, 0.0002552706, -9.808287, 0, 0, 36.63963, 1, 1, 1000, 1000
MAG, 28733880, 359, 575, 376, 0, 0, 0, 0, 0, 0, 1, 28733872
RFND, 28733911, 0.2, 25, 0, 0
BARO, 28733951, -0.09593417, 993.5391, 34.69, 0.1058097, 28733, 0, 34.55
CTUN, 28733965, 0, 0, 0, 0.3069316, 0.07493789, 0.07493789, -0.09, 0, 0.19, 0, 0, 0
ATT, 28736594, 0, -0.18, 0, 0.19, 138.8, 138.8, 0, 1
RATE, 28736606, 0.8464656, 0.007214874, 0.001695352, -0.887632, 0.003718905, -0.001998459, -0.02122192, 1.571678, -0.004969202, -208.1467, -0.05311966, 0
NKF1, 28736614, -0.18, 0.19, 138.8, 0.1099149, -0.02273257, -0.005139425, 0, 0, 0, -0.07488268, 0.05, 0, -1.57
NKF2, 28736614, 0, 0, 0, 0, 0, 0, 0, 0, 0, 0, 0, 0, 0
NKF3, 28736614, 0, 0, 0, 0.13, 0, -0.01, 0, 0, 0, 0, 0
NKF4, 28736614, 0, 0, 0, 0, 0, 7.13241E-06, 0, 0, 0, 19, 229, 0, 0
NKF5, 28736614, 0, 0, 0, 0, 0.21, 0.13, 0, 0.19, 0.5, 6.47196E-05, 0.0131172, 0.01986484
NKQ1, 28736614, 0.3517263, -0.01432936, 0.003957512, 0.9359848
AHR2, 28736738, -0.14, -0.01, 123.65, -0.09, 0, 0, 0.4721556, -0.0005237707, -0.001203748, 0.8815143
MOTB, 28736747, 1, 1, 0, 1
RCIN, 28736751, 0, 0, 0, 0, 0, 0, 0, 0, 0, 0, 0, 0, 0, 0
RCOU, 28736757, 1101, 1101, 1101, 1101, 0, 0, 0, 0, 0, 0, 0, 0, 0, 0
VIBE, 28736767, 0.01969879, 0.02226694, 0.03273862, 0, 0, 0
CTRL, 28736773, 0.002129175, 0.0002072445, 0.00207302, 0.0001939294, 0.00499004
PRX, 28736804, 2, 0.62, 0, 0.88, 0, 3.6, 0, 2.16, 0, 0, 0, 0.62
IMU, 28756606, 0.0006682603, -0.0003846735, -0.0005675796, 0.2557331, 0.007448348, -9.817885, 0, 0, 36.63964, 1, 1, 1000, 1000
RFND, 28783927, 0.2, 25, 0, 0
IMU, 28796619, -0.0002409732, 0.0008056374, -0.0007637551, 0.2462651, 0.006095066, -9.816277, 0, 0, 36.63973, 1, 1, 1000, 1000
MAG, 28833868, 360, 568, 379, 0, 0, 0, 0, 0, 0, 1, 28833860
RFND, 28833899, 0.2, 25, 0, 0
BARO, 28833938, -0.07900461, 993.5374, 34.69, 0.3817573, 28833, 0, 34.55
CTUN, 28833951, 0, 0, 0, 0.3069316, 0.07475618, 0.07475618, -0.07, 0, 0.19, 0, 0, 0
DU32, 28836590, 7, 50389208
ATT, 28836802, 0, -0.18, 0, 0.19, 138.96, 138.96, 0, 1
RATE, 28836809, 0.8460244, 0.02757341, 0.001600923, -0.9013728, 0.009698222, -0.002233246, -0.01596618, 1.635936, -0.004974703, -206.4412, -1.768589, 0
NKF1, 28836817, -0.18, 0.19, 138.96, 0.1137407, -0.02302532, -0.005097313, 0, 0, 0, -0.07467213, 0.05, 0, -1.58
NKF2, 28836817, 0, 0, 0, 0, 0, 0, 0, 0, 0, 0, 0, 0, 0
NKF3, 28836817, 0, 0, 0, 0.15, 0, -0.01, 0, 0, 0, 0, 0
NKF4, 28836817, 0, 0, 0, 0, 0, 6.38166E-06, 0, 0, 0, 19, 229, 0, 0
NKF5, 28836817, 0, 0, 0, 0, 0.2, 0.13, 0, 0.19, 0.5, 6.480727E-05, 0.01253326, 0.01884112
NKQ1, 28836817, 0.3504586, -0.01435871, 0.003947759, 0.9364598
AHR2, 28836861, -0.14, -0.01, 123.64, -0.07, 0, 0, 0.4721678, -0.0005118366, -0.001206605, 0.8815077
MOTB, 28836869, 1, 1, 0, 1
RCIN, 28836874, 0, 0, 0, 0, 0, 0, 0, 0, 0, 0, 0, 0, 0, 0
RCOU, 28836879, 1101, 1101, 1101, 1101, 0, 0, 0, 0, 0, 0, 0, 0, 0, 0
VIBE, 28836889, 0.01939552, 0.02231839, 0.03307764, 0, 0, 0
CTRL, 28836896, 0.002120881, 0.0002054055, 0.002103765, 0.000193591, 0.004971533
PRX, 28836928, 2, 0.62, 0, 0.88, 0, 3.6, 0, 2.16, 0, 0, 0, 0.62
IMU, 28836936, 0.001385104, -1.448403E-06, 0.0009216304, 0.2669742, 0.007895106, -9.790297, 0, 0, 36.6405, 1, 1, 1000, 1000
IMU, 28876803, -0.0003669919, -0.0005175024, 4.950177E-05, 0.254876, -0.0009503843, -9.820564, 0, 0, 36.6417, 1, 1, 1000, 1000
RFND, 28884980, 0.2, 25, 0, 0
IMU, 28916762, 4.706647E-05, 0.00121582, 0.0004590358, 0.2476159, 0.01331638, -9.796389, 0, 0, 36.6426, 1, 1, 1000, 1000
MAG, 28933977, 363, 573, 374, 0, 0, 0, 0, 0, 0, 1, 28933969
RFND, 28934006, 0.2, 25, 0, 0
BARO, 28934047, -0.1128637, 993.5414, 34.69, 0.3773206, 28934, 0, 34.55
CTUN, 28934060, 0, 0, 0, 0.3069316, 0.07445772, 0.07445772, -0.11, 0, 0.19, 0, 0, 0
ATT, 28936862, 0, -0.18, 0, 0.2, 139.12, 139.12, 0, 1
RATE, 28936872, 0.8492744, -0.07442714, 0.002213272, -0.9114762, 0.01318677, -0.00190887, -0.01550519, 1.586965, -0.005018575, -176.2706, -0.200367, 0
NKF1, 28936879, -0.18, 0.2, 139.12, 0.117629, -0.02320487, -0.00435236, 0, 0, 0, -0.07440776, 0.05, 0, -1.58
NKF2, 28936879, 0, 0, 0, 0, 0, 0, 0, 0, 0, 0, 0, 0, 0
NKF3, 28936879, 0, 0, 0, 0.15, 0, -0.01, 0, 0, 0, 0, 0
NKF4, 28936879, 0, 0, 0, 0, 0, 6.199897E-06, 0, 0, 0, 19, 229, 0, 0
NKF5, 28936879, 0, 0, 0, 0, 0.2, 0.13, 0, 0.19, 0.5, 5.901395E-05, 0.01202494, 0.01816251
NKQ1, 28936879, 0.349151, -0.01438454, 0.003929111, 0.9369479
AHR2, 28936921, -0.15, -0.01, 123.64, -0.11, 0, 0, 0.4721678, -0.0004981211, -0.001218811, 0.8815078
MOTB, 28936929, 1, 1, 0, 1
RCIN, 28936934, 0, 0, 0, 0, 0, 0, 0, 0, 0, 0, 0, 0, 0, 0
RCOU, 28936940, 1101, 1101, 1101, 1101, 0, 0, 0, 0, 0, 0, 0, 0, 0, 0
VIBE, 28936949, 0.02093281, 0.02059131, 0.03007615, 0, 0, 0
CTRL, 28936955, 0.002117513, 0.0001870349, 0.002129402, 0.0001817106, 0.004982054
PRX, 28936987, 2, 0.62, 0, 0.88, 0, 3.6, 0, 2.16, 0, 0, 0, 0.62
IMU, 28956735, -7.265897E-05, 0.0001623418, -6.021146E-07, 0.2613584, 0.01041617, -9.800143, 0, 0, 36.64261, 1, 1, 1000, 1000
RFND, 28983867, 0.2, 25, 0, 0
IMU, 28996611, -0.0006531738, -0.0004528299, -0.001127761, 0.2589335, 0.01095331, -9.814133, 0, 0, 36.64246, 1, 1, 1000, 1000
MAG, 29034312, 359, 574, 372, 0, 0, 0, 0, 0, 0, 1, 29034303
RFND, 29034342, 0.2, 25, 0, 0
BARO, 29034381, 0.0395023, 993.5245, 34.69, 0.2433591, 29034, 0, 34.55
CTUN, 29034395, 0, 0, 0, 0.3069316, 0.07412896, 0.07412896, 0.03, 0, 0.19, 0, 0, 0
ATT, 29037142, 0, -0.19, 0, 0.2, 139.28, 139.28, 0, 1
RATE, 29037153, 0.8593276, -0.09707526, 0.002429591, -0.9280439, 0.05682926, -0.002316358, -0.02282034, 1.593648, -0.004988846, -149.8381, -0.686264, 0
NKF1, 29037160, -0.19, 0.2, 139.28, 0.1209441, -0.02340256, -0.003699706, 0, 0, 0, -0.07405861, 0.05, 0, -1.57
NKF2, 29037160, 0, 0, 0, 0, 0, 0, 0, 0, 0, 0, 0, 0, 0
NKF3, 29037160, 0, 0, 0, 0.17, 0, -0.01, 0, 0, 0, 0, 0
NKF4, 29037160, 0, 0, 0, 0, 0, 6.41272E-06, 0, 0, 0, 19, 229, 0, 0
NKF5, 29037160, 0, 0, 0, 0, 0.2, 0.13, 0, 0.19, 0.5, 5.528692E-05, 0.01147781, 0.01712797
NKQ1, 29037160, 0.3478543, -0.01442668, 0.003901867, 0.9374295
AHR2, 29037239, -0.15, -0.01, 123.64, 0.03, 0, 0, 0.4721779, -0.0005037608, -0.001238925, 0.8815023
MOTB, 29037246, 1, 1, 0, 1
RCIN, 29037251, 0, 0, 0, 0, 0, 0, 0, 0, 0, 0, 0, 0, 0, 0
RCOU, 29037257, 1101, 1101, 1101, 1101, 0, 0, 0, 0, 0, 0, 0, 0, 0, 0
VIBE, 29037266, 0.01861644, 0.01995285, 0.03032414, 0, 0, 0
CTRL, 29037272, 0.002131322, 0.0001933865, 0.002153083, 0.0001761796, 0.004985938
PRX, 29037304, 2, 0.62, 0, 0.88, 0, 3.6, 0, 2.16, 0, 0, 0, 0.62
IMU, 29037312, -0.0007938895, 0.0008219244, 0.0002836881, 0.2633823, 0.01353152, -9.801234, 0, 0, 36.64369, 1, 1, 1000, 1000
IMU, 29077186, -0.0002058832, 0.0007358849, -0.001659556, 0.2604206, 0.01270178, -9.837066, 0, 0, 36.64573, 1, 1, 1000, 1000
RFND, 29084010, 0.2, 25, 0, 0
IMU, 29116712, 0.001456768, -0.0005587239, -0.001019373, 0.2615803, -0.006608027, -9.811316, 0, 0, 36.64715, 1, 1, 1000, 1000
MAG, 29133851, 367, 575, 374, 0, 0, 0, 0, 0, 0, 1, 29133842
RFND, 29133882, 0.2, 25, 0, 0
BARO, 29133922, 0.05078867, 993.5231, 34.7, 0.250548, 29133, 0, 34.55
CTUN, 29133936, 0, 0, 0, 0.3069316, 0.0739181, 0.0739181, 0.05, 0, 0.19, 0, 0, 0
ATT, 29137293, 0, -0.19, 0, 0.2, 139.43, 139.42, 0, 1
RATE, 29137303, 0.8511391, -0.05277977, 0.002402596, -0.9440115, 0.04079296, -0.00241277, -0.008666656, 1.546516, -0.004889205, -196.7018, 2.03476, 0
NKF1, 29137312, -0.19, 0.2, 139.42, 0.1244984, -0.02367227, -0.004856835, 0, 0, 0, -0.07387455, 0.05, 0, -1.58
NKF2, 29137312, 0, 0, 0, 0, 0, 0, 0, 0, 0, 0, 0, 0, 0
NKF3, 29137312, 0, 0, 0, 0.17, 0, -0.01, 0, 0, 0, 0, 0
NKF4, 29137312, 0, 0, 0, 0, 0, 6.828654E-06, 0, 0, 0, 19, 229, 0, 0
NKF5, 29137312, 0, 0, 0, 0, 0.2, 0.13, 0, 0.19, 0.5, 4.917515E-05, 0.01101154, 0.01647577
NKQ1, 29137312, 0.346633, -0.01445844, 0.003907824, 0.9378812
AHR2, 29137359, -0.15, -0.01, 123.64, 0.05, 0, 0, 0.4722227, -0.000497021, -0.001228632, 0.8814783
MOTB, 29137367, 1, 1, 0, 1
RCIN, 29137371, 0, 0, 0, 0, 0, 0, 0, 0, 0, 0, 0, 0, 0, 0
RCOU, 29137377, 1101, 1101, 1101, 1101, 0, 0, 0, 0, 0, 0, 0, 0, 0, 0
VIBE, 29137386, 0.01771511, 0.02137363, 0.03306996, 0, 0, 0
CTRL, 29137393, 0.002120138, 0.0001973194, 0.002202135, 0.0001805881, 0.004962495
PRX, 29137426, 2, 0.62, 0, 0.88, 0, 3.6, 0, 2.15, 0, 0, 0, 0.62
IMU, 29156474, -0.0009070571, 0.0004494955, -2.179401E-05, 0.2633646, 0.01388134, -9.819314, 0, 0, 36.64826, 1, 1, 1000, 1000
RFND, 29183807, 0.2, 25, 0, 0
IMU, 29196492, 0.000232629, 0.0003836286, -0.0003359719, 0.2600904, 0.01604519, -9.799456, 0, 0, 36.64859, 1, 1, 1000, 1000
MAG, 29234071, 362, 565, 384, 0, 0, 0, 0, 0, 0, 1, 29234063
RFND, 29234101, 0.2, 25, 0, 0
BARO, 29234139, 0.1015773, 993.5176, 34.69, 0.4381892, 29234, 0, 34.55
CTUN, 29234151, 0, 0, 0, 0.3069316, 0.07368586, 0.07368586, 0.1, 0, 0.19, 0, 0, 0
ATT, 29236878, 0, -0.19, 0, 0.21, 139.59, 139.58, 0, 1
RATE, 29236888, 0.8590752, -0.09692103, 0.002077217, -0.9741978, 0.04328744, -0.002770517, -0.01587434, 1.50427, -0.004944096, -198.074, 1.488495, 0
NKF1, 29236896, -0.19, 0.21, 139.58, 0.1277925, -0.02397648, -0.004890715, 0, 0, 0, -0.07362647, 0.05, 0, -1.58
NKF2, 29236896, 0, 0, 0, 0, 0, 0, 0, 0, 0, 0, 0, 0, 0
NKF3, 29236896, 0, 0, 0, 0.19, 0, 0, 0, 0, 0, 0, 0
NKF4, 29236896, 0, 0, 0, 0, 0, 7.650637E-06, 0, 0, 0, 19, 229, 0, 0
NKF5, 29236896, 0, 0, 0, 0, 0.2, 0.13, 0, 0.19, 0.5, 4.601729E-05, 0.01050624, 0.01546863
NKQ1, 29236896, 0.345337, -0.01452126, 0.003894862, 0.9383584
AHR2, 29236940, -0.15, -0.01, 123.64, 0.09999999, 0, 0, 0.4722335, -0.0005278115, -0.001232776, 0.8814725
MOTB, 29236947, 1, 1, 0, 1
RCIN, 29236952, 0, 0, 0, 0, 0, 0, 0, 0, 0, 0, 0, 0, 0, 0
RCOU, 29236958, 1101, 1101, 1101, 1101, 0, 0, 0, 0, 0, 0, 0, 0, 0, 0
VIBE, 29236967, 0.01891389, 0.0199895, 0.03214841, 0, 0, 0
CTRL, 29236974, 0.002140652, 0.0002546754, 0.002256217, 0.0001801697, 0.004955509
PRX, 29237005, 2, 0.62, 0, 0.88, 0, 3.6, 0, 2.17, 0, 0, 0, 0.62
IMU, 29237014, -0.0007892579, 0.0005854021, -0.001342975, 0.2691465, 0.007654755, -9.822883, 0, 0, 36.64781, 1, 1, 1000, 1000
IMU, 29276580, -0.0005251985, 0.002282966, -0.0001497429, 0.2562566, 0.0001808647, -9.801662, 0, 0, 36.64849, 1, 1, 1000, 1000
RFND, 29284175, 0.2, 25, 0, 0
IMU, 29316450, -0.0007103457, 0.0007061976, -0.0006109548, 0.258079, 0.01455815, -9.78196, 0, 0, 36.64885, 1, 1, 1000, 1000
MAG, 29333738, 360, 575, 376, 0, 0, 0, 0, 0, 0, 1, 29333730
RFND, 29333766, 0.2, 25, 0, 0
BARO, 29333806, 0.08464779, 993.5193, 34.69, 0.5385882, 29333, 0, 34.55
CTUN, 29333819, 0, 0, 0, 0.3069316, 0.07356943, 0.07356943, 0.08, 0, 0.19, 0, 0, 0
ATT, 29336407, 0, -0.19, 0, 0.22, 139.74, 139.74, 0, 1
RATE, 29336417, 0.8679559, -0.103738, 0.002362195, -1.018315, 0.1286438, -0.003122873, -0.0212687, 1.544556, -0.004931519, -154.8757, 0.1480103, 0
NKF1, 29336424, -0.19, 0.22, 139.74, 0.1315699, -0.02457931, -0.003824092, 0, 0, 0, -0.07353961, 0.05, 0, -1.57
NKF2, 29336424, 0, 0, 0, 0, 0, 0, 0, 0, 0, 0, 0, 0, 0
NKF3, 29336424, 0, 0, 0, 0.19, 0, 0, 0, 0, 0, 0, 0
NKF4, 29336424, 0, 0, 0, 0, 0, 8.409203E-06, 0, 0, 0, 19, 229, 0, 0
NKF5, 29336424, 0, 0, 0, 0, 0.2, 0.13, 0, 0.19, 0.5, 4.207954E-05, 0.01007883, 0.01488987
NKQ1, 29336424, 0.344056, -0.01461633, 0.003886068, 0.9388273
AHR2, 29336468, -0.15, 0, 123.63, 0.08, 0, 0, 0.472258, -0.000590314, -0.00122869, 0.8814594
MOTB, 29336475, 1, 1, 0, 1
RCIN, 29336480, 0, 0, 0, 0, 0, 0, 0, 0, 0, 0, 0, 0, 0, 0
RCOU, 29336485, 1101, 1101, 1101, 1101, 0, 0, 0, 0, 0, 0, 0, 0, 0, 0
VIBE, 29336494, 0.02013348, 0.01788131, 0.03538341, 0, 0, 0
CTRL, 29336501, 0.002164019, 0.0002242067, 0.002360354, 0.0001957472, 0.004945206
PRX, 29336533, 2, 0.62, 0, 0.88, 0, 3.6, 0, 2.16, 0, 0, 0, 0.62
IMU, 29356919, 0.0001949013, 0.003145089, 0.0006088542, 0.2551623, 0.01266824, -9.811196, 0, 0, 36.65015, 1, 1, 1000, 1000
RFND, 29383899, 0.2, 25, 0, 0
IMU, 29396687, 0.0008226449, -0.0001694782, -0.0009929041, 0.2685769, 0.01382431, -9.798664, 0, 0, 36.65147, 1, 1, 1000, 1000
MAG, 29433794, 360, 572, 372, 0, 0, 0, 0, 0, 0, 1, 29433785
RFND, 29433823, 0.2, 25, 0, 0
BARO, 29433863, -0.02821593, 993.5319, 34.7, 0.3603719, 29433, 0, 34.55
CTUN, 29433876, 0, 0, 0, 0.3069316, 0.07322188, 0.07322188, -0.02, 0, 0.19, 0, 0, 0
ATT, 29436529, 0, -0.19, 0, 0.23, 139.9, 139.9, 0, 1
RATE, 29436537, 0.859786, -0.02816361, 0.001960852, -1.059509, 0.07960847, -0.002683282, -0.01532164, 1.611529, -0.004973082, -151.089, 0.5017281, 0
NKF1, 29436545, -0.19, 0.23, 139.9, 0.1351754, -0.02521701, -0.003730592, 0, 0, 0, -0.0731706, 0.05, 0, -1.58
NKF2, 29436545, 0, 0, 0, 0, 0, 0, 0, 0, 0, 0, 0, 0, 0
NKF3, 29436545, 0, 0, 0, 0.21, 0, 0, 0, 0, 0, 0, 0
NKF4, 29436545, 0, 0, 0, 0, 0, 9.769474E-06, 0, 0, 0, 19, 229, 0, 0
NKF5, 29436545, 0, 0, 0, 0, 0.2, 0.13, 0, 0.19, 0.5, 4.314626E-05, 0.009617674, 0.01390862
NKQ1, 29436545, 0.3427774, -0.0146908, 0.003907617, 0.9392937
AHR2, 29436585, -0.15, 0, 123.63, -0.02, 0, 0, 0.472261, -0.0006292069, -0.001198772, 0.8814577
MOTB, 29436592, 1, 1, 0, 1
RCIN, 29436596, 0, 0, 0, 0, 0, 0, 0, 0, 0, 0, 0, 0, 0, 0
RCOU, 29436603, 1101, 1101, 1101, 1101, 0, 0, 0, 0, 0, 0, 0, 0, 0, 0
VIBE, 29436611, 0.02195755, 0.0175506, 0.03391555, 0, 0, 0
CTRL, 29436618, 0.002155445, 0.0002003087, 0.002469266, 0.0002320051, 0.004947496
PRX, 29436719, 2, 0.62, 0, 0.88, 0, 3.6, 0, 2.15, 0, 0, 0, 0.62
IMU, 29436728, 0.0004108765, 0.001219579, 0.0005169396, 0.2629382, 0.01137008, -9.813227, 0, 0, 36.65199, 1, 1, 1000, 1000
IMU, 29476569, 0.0005427409, -0.001919619, -0.0009873266, 0.2444273, 0.0180816, -9.799005, 0, 0, 36.65105, 1, 1, 1000, 1000
RFND, 29483868, 0.2, 25, 0, 0
IMU, 29516565, -0.0006500715, 0.001206136, 0.0006361994, 0.2614091, 0.003632718, -9.80232, 0, 0, 36.65128, 1, 1, 1000, 1000
MAG, 29533810, 361, 571, 369, 0, 0, 0, 0, 0, 0, 1, 29533801
RFND, 29533838, 0.2, 25, 0, 0
BARO, 29533875, 0.05078867, 993.5231, 34.7, 0.01927168, 29533, 0, 34.55
CTUN, 29533889, 0, 0, 0, 0.3069316, 0.07305941, 0.07305941, 0.05, 0, 0.19, 0, 0, 0
ATT, 29536521, 0, -0.19, 0, 0.23, 140.05, 140.05, 0, 1
RATE, 29536529, 0.8594612, -0.04791407, 0.00202379, -1.052248, -0.02318354, -0.002273364, -0.0226521, 1.49543, -0.004967369, -125.6468, -0.2324104, 0
NKF1, 29536537, -0.19, 0.23, 140.05, 0.1390865, -0.02623375, -0.003102391, 0, 0, 0, -0.07298726, 0.05, 0, -1.57
NKF2, 29536537, 0, 0, 0, 0, 0, 0, 0, 0, 0, 0, 0, 0, 0
NKF3, 29536537, 0, 0, 0, 0.23, 0, 0, 0, 0, 0, 0, 0
NKF4, 29536537, 0, 0, 0, 0, 0, 1.086638E-05, 0, 0, 0, 19, 229, 0, 0
NKF5, 29536537, 0, 0, 0, 0, 0.2, 0.13, 0, 0.19, 0.5, 4.592239E-05, 0.009186215, 0.01287939
NKQ1, 29536537, 0.3414988, -0.01468213, 0.003884909, 0.9397595
AHR2, 29536581, -0.15, 0, 123.63, 0.05, 0, 0, 0.472287, -0.0005916338, -0.001224572, 0.8814438
MOTB, 29536588, 1, 1, 0, 1
RCIN, 29536593, 0, 0, 0, 0, 0, 0, 0, 0, 0, 0, 0, 0, 0, 0
RCOU, 29536599, 1101, 1101, 1101, 1101, 0, 0, 0, 0, 0, 0, 0, 0, 0, 0
VIBE, 29536608, 0.02111175, 0.01953254, 0.03200029, 0, 0, 0
CTRL, 29536614, 0.002145013, 0.000186059, 0.002472356, 0.0002555546, 0.004951369
PRX, 29536714, 2, 0.62, 0, 0.88, 0, 3.6, 0, 2.14, 0, 0, 0, 0.62
IMU, 29556396, -0.001812868, 0.0001560951, -0.000133332, 0.267485, -0.003459702, -9.819521, 0, 0, 36.65131, 1, 1, 1000, 1000
RFND, 29584491, 0.2, 25, 0, 0
IMU, 29596462, 0.000128175, 0.001403996, -0.002154, 0.2581019, 0.01920897, -9.807621, 0, 0, 36.65108, 1, 1, 1000, 1000
EV, 29611682, 57
MAG, 29633863, 366, 572, 379, 0, 0, 0, 0, 0, 0, 1, 29633855
RFND, 29633892, 0.2, 25, 0, 0
BARO, 29633931, 0.1128637, 993.5164, 34.7, -0.1808574, 29633, 0, 34.55
CTUN, 29633944, 0, 0, 0, 0.3069316, 0.07272159, 0.07272159, 0.11, 0, 0.19, 0, 0, 0
ATT, 29636440, 0, -0.19, 0, 0.23, 140.21, 140.2, 0, 1
RATE, 29636449, 0.869559, -0.09863389, 0.002441083, -1.073915, 0.03636062, -0.002690574, -0.001813252, 1.544665, -0.0048521, -144.4154, 2.03495, 0
NKF1, 29636456, -0.19, 0.23, 140.2, 0.1427882, -0.02656851, -0.003565812, 0, 0, 0, -0.0726819, 0.05, 0, -1.57
NKF2, 29636456, 0, 0, 0, 0, 0, 0, 0, 0, 0, 0, 0, 0, 0
NKF3, 29636456, 0, 0, 0, 0.23, 0, 0, 0, 0, 0, 0, 0
NKF4, 29636456, 0, 0, 0, 0, 0, 1.257134E-05, 0, 0, 0, 19, 229, 0, 0
NKF5, 29636456, 0, 0, 0, 0, 0.2, 0.13, 0, 0.19, 0.5, 4.414739E-05, 0.008807441, 0.01246859
NKQ1, 29636456, 0.3402461, -0.01473486, 0.003859923, 0.940213
AHR2, 29636500, -0.15, 0, 123.62, 0.11, 0, 0, 0.4723259, -0.0006139299, -0.001246618, 0.8814229
MOTB, 29636507, 1, 1, 0, 1
RCIN, 29636512, 0, 0, 0, 0, 0, 0, 0, 0, 0, 0, 0, 0, 0, 0
RCOU, 29636517, 1106, 1106, 1106, 1106, 0, 0, 0, 0, 0, 0, 0, 0, 0, 0
VIBE, 29636526, 0.01906308, 0.01871273, 0.035384, 0, 0, 0
CTRL, 29636533, 0.002164236, 0.0001828442, 0.002515565, 0.0002642065, 0.004929757
PRX, 29636564, 2, 0.62, 0, 0.88, 0, 3.6, 0, 2.16, 0, 0, 0, 0.62
IMU, 29636572, -0.0008208008, 0.0004654518, -0.0006083105, 0.2695747, 0.01099003, -9.828386, 0, 0, 36.65162, 1, 1, 1000, 1000
IMU, 29676506, -2.3174E-05, -0.0003398655, -0.0008429413, 0.2610271, 0.005379447, -9.819139, 0, 0, 36.65199, 1, 1, 1000, 1000
RFND, 29683852, 0.2, 25, 0, 0
IMU, 29716459, 0.0006374915, -0.0004139747, -1.493385E-05, 0.2582308, 0.01682279, -9.799006, 0, 0, 36.65231, 1, 1, 1000, 1000
MAG, 29733853, 363, 570, 372, 0, 0, 0, 0, 0, 0, 1, 29733844
RFND, 29733883, 0.2, 25, 0, 0
BARO, 29733923, 0.1439012, 993.5129, 34.7, -0.009663874, 29733, 0, 34.55
CTUN, 29733936, 0, 0, 0, 0.3069316, 0.07256494, 0.07256494, 0.14, 0, 0.19, 0, 0, 0
ATT, 29736465, 0, -0.19, 0, 0.23, 140.37, 140.36, 0, 1
RATE, 29736475, 0.8699397, -0.1561334, 0.002990183, -1.077304, 0.01929578, -0.002684216, -0.001797896, 1.656579, -0.00498637, -161.1543, 1.641083, 0
NKF1, 29736482, -0.19, 0.23, 140.36, 0.1465185, -0.02731937, -0.003979119, 0, 0, 0, -0.0725105, 0.05, 0, -1.57
NKF2, 29736482, 0, 0, 0, 0, 0, 0, 0, 0, 0, 0, 0, 0, 0
NKF3, 29736482, 0, 0, 0, 0.26, 0, 0, 0, 0, 0, 0, 0
NKF4, 29736482, 0, 0, 0, 0, 0, 1.418487E-05, 0, 0, 0, 19, 229, 0, 0
NKF5, 29736482, 0, 0, 0, 0, 0.2, 0.13, 0, 0.19, 0.5, 5.0327E-05, 0.00842055, 0.01148735
NKQ1, 29736482, 0.3389353, -0.01474684, 0.003839582, 0.9406863
AHR2, 29736525, -0.16, 0, 123.63, 0.14, 0, 0, 0.4723105, -0.0005952509, -0.001268838, 0.8814311
MOTB, 29736533, 1, 1, 0, 1
RCIN, 29736537, 0, 0, 0, 0, 0, 0, 0, 0, 0, 0, 0, 0, 0, 0
RCOU, 29736543, 1130, 1130, 1130, 1130, 0, 0, 0, 0, 0, 0, 0, 0, 0, 0
VIBE, 29736552, 0.01637976, 0.02060727, 0.03059308, 0, 0, 0
CTRL, 29736559, 0.002160035, 0.0001975672, 0.002525884, 0.0002313559, 0.004922126
PRX, 29736590, 2, 0.62, 0, 0.88, 0, 3.6, 0, 2.16, 0, 0, 0, 0.62
IMU, 29756709, -0.001467489, 0.0003866937, 0.0006916097, 0.2585773, 0.01273691, -9.813958, 0, 0, 36.6523, 1, 1, 1000, 1000
RFND, 29783748, 0.2, 25, 0, 0
IMU, 29796511, 0.0003478644, 1.272788E-05, 0.001024327, 0.2656901, 0.0113417, -9.811575, 0, 0, 36.65288, 1, 1, 1000, 1000
MAG, 29833760, 357, 575, 375, 0, 0, 0, 0, 0, 0, 1, 29833752
RFND, 29833791, 0.2, 25, 0, 0
BARO, 29833829, 0.07618301, 993.5204, 34.7, 0.2865548, 29833, 0, 34.55
CTUN, 29833843, 0, 0, 0, 0.3069316, 0.07240529, 0.07240529, 0.07, 0, 0.19, 0, 0, 0
DU32, 29836483, 7, 33611992
ATT, 29836611, 0, -0.19, 0, 0.24, 140.53, 140.52, 0, 1
RATE, 29836618, 0.87387, -0.04247528, 0.00235683, -1.092437, 0.02803685, -0.002712101, -0.001920915, 1.505768, -0.004997541, -189.3077, 2.143478, 0
NKF1, 29836692, -0.19, 0.24, 140.52, 0.1498572, -0.02790924, -0.004674265, 0, 0, 0, -0.07237659, 0.05, 0, -1.57
NKF2, 29836692, 0, 0, 0, 0, 0, 0, 0, 0, 0, 0, 0, 0, 0
NKF3, 29836692, 0, 0, 0, 0.26, 0, 0, 0, 0, 0, 0, 0
NKF4, 29836692, 0, 0, 0, 0, 0, 1.610096E-05, 0, 0, 0, 19, 229, 0, 0
NKF5, 29836692, 0, 0, 0, 0, 0.2, 0.13, 0, 0.19, 0.5, 4.699235E-05, 0.008067482, 0.01116487
NKQ1, 29836692, 0.3376307, -0.01477876, 0.003824634, 0.9411549
AHR2, 29836739, -0.16, 0, 123.63, 0.07, 0, 0, 0.4723015, -0.0005982653, -0.001278661, 0.881436
MOTB, 29836747, 1, 1, 0, 1
RCIN, 29837099, 0, 0, 0, 0, 0, 0, 0, 0, 0, 0, 0, 0, 0, 0
RCOU, 29837106, 1154, 1154, 1154, 1154, 0, 0, 0, 0, 0, 0, 0, 0, 0, 0
VIBE, 29837275, 0.02077426, 0.02071759, 0.0317841, 0, 0, 0
CTRL, 29837282, 0.002176586, 0.0001937547, 0.002546437, 0.0001987823, 0.004956841
PRX, 29837316, 2, 0.62, 0, 0.88, 0, 3.6, 0, 2.15, 0, 0, 0, 0.62
IMU, 29837324, 0.0001591586, 0.00032068, -0.001295196, 0.2705572, 0.008490965, -9.829479, 0, 0, 36.65289, 1, 1, 1000, 1000
IMU, 29876855, 0.0004330224, 0.0003592938, -0.0008854635, 0.2525221, 0.0109144, -9.798418, 0, 0, 36.65236, 1, 1, 1000, 1000
RFND, 29883768, 0.2, 25, 0, 0
IMU, 29917081, -0.0002539124, 0.0004077381, -0.001493327, 0.2605035, 0.005733635, -9.809156, 0, 0, 36.65221, 1, 1, 1000, 1000
MAG, 29934451, 358, 574, 376, 0, 0, 0, 0, 0, 0, 1, 29934442
RFND, 29934483, 0.2, 25, 0, 0
BARO, 29934520, 0.09029098, 993.5187, 34.7, 0.2777476, 29934, 0, 34.55
CTUN, 29934534, 0, 0, 0, 0.3069316, 0.07230224, 0.07230224, 0.09, 0, 0.19, 0, 0, 0
ATT, 29936528, 0, -0.19, 0, 0.24, 140.68, 140.68, 0, 1
RATE, 29936539, 0.8814085, -0.1056032, 0.002506649, -1.111654, -0.06621166, -0.002120264, -0.001951709, 1.581101, -0.004895615, -159.6826, -0.6866455, 0
NKF1, 29936547, -0.19, 0.24, 140.68, 0.1537027, -0.02887263, -0.003942781, 0, 0, 0, -0.07224704, 0.05, 0, -1.58
NKF2, 29936547, 0, 0, 0, 0, 0, 0, 0, 0, 0, 0, 0, 0, 0
NKF3, 29936547, 0, 0, 0, 0.28, -0.01, 0, 0, 0, 0, 0, 0
NKF4, 29936547, 0, 0, 0, 0, 0, 1.823981E-05, 0, 0, 0, 19, 229, 0, 0
NKF5, 29936547, 0, 0, 0, 0, 0.2, 0.13, 0, 0.19, 0.5, 5.621409E-05, 0.007727566, 0.0102364
NKQ1, 29936547, 0.3363782, -0.01482525, 0.003802165, 0.9416026
AHR2, 29936591, -0.16, 0, 123.63, 0.09, 0, 0, 0.4723171, -0.0006176851, -0.001294519, 0.8814275
MOTB, 29936598, 1, 1, 0, 1
RCIN, 29936603, 0, 0, 0, 0, 0, 0, 0, 0, 0, 0, 0, 0, 0, 0
RCOU, 29936608, 1178, 1178, 1178, 1178, 0, 0, 0, 0, 0, 0, 0, 0, 0, 0
VIBE, 29936618, 0.01863053, 0.01749776, 0.03399461, 0, 0, 0
CTRL, 29936700, 0.002200664, 0.0002118718, 0.002616533, 0.0002232411, 0.004954181
PRX, 29936733, 2, 0.62, 0, 0.88, 0, 3.6, 0, 2.15, 0, 0, 0, 0.62
IMU, 29956451, 0.001237625, -0.0008317954, -0.0005856671, 0.2547133, 0.004440276, -9.823516, 0, 0, 36.65236, 1, 1, 1000, 1000
RFND, 29983743, 0.2, 25, 0, 0
IMU, 29996586, 0.0003049079, 0.0002464791, 0.0002427124, 0.2598121, 0.008611079, -9.799421, 0, 0, 36.65228, 1, 1, 1000, 1000
MAG, 30033818, 362, 573, 374, 0, 0, 0, 0, 0, 0, 1, 30033810
RFND, 30033852, 0.2, 25, 0, 0
BARO, 30033888, 0.09029098, 993.5187, 34.7, 0.02897455, 30033, 0, 34.55
CTUN, 30033902, 0, 0, 0, 0.3069316, 0.07222766, 0.07222766, 0.09, 0, 0.19, 0, 0, 0
ATT, 30036451, 0, -0.19, 0, 0.24, 140.84, 140.83, 0, 1
RATE, 30036460, 0.8752918, -0.0878702, 0.002275458, -1.109339, -0.02871852, -0.002386613, -0.001951748, 1.516309, -0.004894901, -165.1899, 1.089191, 0
NKF1, 30036467, -0.19, 0.24, 140.83, 0.1577893, -0.02954985, -0.004078764, 0, 0, 0, -0.0722045, 0.05, 0, -1.58
NKF2, 30036467, 0, 0, 0, 0, 0, 0, 0, 0, 0, 0, 0, 0, 0
NKF3, 30036467, 0, 0, 0, 0.28, -0.01, 0, 0, 0, 0, 0, 0
NKF4, 30036467, 0, 0, 0, 0, 0, 2.037182E-05, 0, 0, 0, 19, 229, 0, 0
NKF5, 30036467, 0, 0, 0, 0, 0.2, 0.13, 0, 0.19, 0.5, 5.178338E-05, 0.007395351, 0.009978104
NKQ1, 30036467, 0.335075, -0.01482245, 0.003792067, 0.9420672
AHR2, 30036513, -0.16, -0.01, 123.62, 0.09, 0, 0, 0.4723343, -0.0005854142, -0.001305952, 0.8814183
MOTB, 30036521, 1, 1, 0, 1
RCIN, 30036525, 0, 0, 0, 0, 0, 0, 0, 0, 0, 0, 0, 0, 0, 0
RCOU, 30036531, 1202, 1202, 1202, 1202, 0, 0, 0, 0, 0, 0, 0, 0, 0, 0
VIBE, 30036540, 0.01958905, 0.0180418, 0.03044552, 0, 0, 0
CTRL, 30036546, 0.002189251, 0.0002025231, 0.00261233, 0.0001933499, 0.004942316
PRX, 30036578, 2, 0.62, 0, 0.88, 0, 0.6, 0, 2.15, 0, 0, 180, 0.6
IMU, 30036586, -0.0006334678, -0.0006692325, -0.001117684, 0.2685915, 0.01239292, -9.819006, 0, 0, 36.65294, 1, 1, 1000, 1000
IMU, 30076489, -0.000775394, 0.0001013416, -0.0008132856, 0.2698693, 0.004444398, -9.794691, 0, 0, 36.65421, 1, 1, 1000, 1000
RFND, 30083886, 0.2, 25, 0, 0
IMU, 30116749, 0.0001025538, 0.001188909, 0.001526107, 0.2551917, 0.007393251, -9.804351, 0, 0, 36.65607, 1, 1, 1000, 1000
MAG, 30133754, 363, 570, 373, 0, 0, 0, 0, 0, 0, 1, 30133745
RFND, 30133787, 0.2, 25, 0, 0
BARO, 30133823, 0.09029098, 993.5188, 34.71, -0.09922075, 30133, 0, 34.55
CTUN, 30133837, 0, 0, 0, 0.3069316, 0.0720706, 0.0720706, 0.09, 0, 0.19, 0, 0, 0
ATT, 30136469, 0, -0.19, 0, 0.24, 141, 140.99, 0, 1
RATE, 30136477, 0.8803447, -0.1475302, 0.002810053, -1.123146, 0.09138864, -0.002976493, -0.001921062, 1.482305, -0.004996784, -156.2622, 2.028179, 0
NKF1, 30136485, -0.19, 0.24, 140.99, 0.161398, -0.02985807, -0.003858325, 0, 0, 0, -0.07203075, 0.05, 0, -1.58
NKF2, 30136485, 0, 0, 0, 0, 0, 0, 0, 0, 0, 0, 0, 0, 0
NKF3, 30136485, 0, 0, 0, 0.3, -0.01, 0, 0, 0, 0, 0, 0
NKF4, 30136485, 0, 0, 0, 0, 0, 2.310413E-05, 0, 0, 0, 19, 229, 0, 0
NKF5, 30136485, 0, 0, 0, 0, 0.2, 0.13, 0, 0.19, 0.5, 6.530094E-05, 0.007099937, 0.009127623
NKQ1, 30136485, 0.3337807, -0.01485543, 0.003771877, 0.9425262
AHR2, 30136529, -0.16, -0.01, 123.62, 0.09, 0, 0, 0.4723356, -0.0005909664, -0.001322035, 0.8814176
MOTB, 30136537, 1, 1, 0, 1
RCIN, 30136541, 0, 0, 0, 0, 0, 0, 0, 0, 0, 0, 0, 0, 0, 0
RCOU, 30136547, 1221, 1231, 1234, 1235, 0, 0, 0, 0, 0, 0, 0, 0, 0, 0
VIBE, 30136556, 0.01946529, 0.01985556, 0.03373608, 0, 0, 0
CTRL, 30136563, 0.002187475, 0.0002013666, 0.002627628, 0.0002085821, 0.00493903
PRX, 30136594, 2, 0.62, 0, 0.88, 0, 0.6, 0, 2.15, 0, 0, 180, 0.6
IMU, 30157160, -0.0006315848, 0.0003531784, 0.0002441451, 0.2554438, 0.01124572, -9.810343, 0, 0, 36.6589, 1, 1, 1000, 1000
RFND, 30183795, 0.2, 25, 0, 0
IMU, 30196721, 0.001624742, 6.908724E-05, 0.0005450106, 0.2722411, 0.01464783, -9.804708, 0, 0, 36.66045, 1, 1, 1000, 1000
MAG, 30233876, 360, 573, 375, 0, 0, 0, 0, 0, 0, 1, 30233867
RFND, 30233911, 0.2, 25, 0, 0
BARO, 30233948, 0.05643186, 993.5226, 34.71, -0.06260408, 30233, 0, 34.55
CTUN, 30233961, 0, 0, 0, 0.3069316, 0.07203706, 0.07203706, 0.05, 0, 0.19, 0, 0, 0
ATT, 30236744, 0, -0.19, 0, 0.24, 141.15, 141.15, 0, 1
RATE, 30236757, 0.871883, -0.0606396, 0.002040636, -1.12621, -0.04455125, -0.002300893, -0.001921149, 1.518846, -0.004928487, -141.1397, -0.617218, 0
NKF1, 30236764, -0.19, 0.24, 141.15, 0.165086, -0.03035089, -0.00348493, 0, 0, 0, -0.07201124, 0.05, 0, -1.58
NKF2, 30236764, 0, 0, 0, 0, 0, 0, 0, 0, 0, 0, 0, 0, 0
NKF3, 30236764, 0, 0, 0, 0.3, -0.01, 0, 0, 0, 0, 0, 0
NKF4, 30236764, 0, 0, 0, 0, 0, 2.544598E-05, 0, 0, 0, 19, 229, 0, 0
NKF5, 30236764, 0, 0, 0, 0, 0.2, 0.13, 0, 0.19, 0.5, 5.766968E-05, 0.006781149, 0.008926061
NKQ1, 30236764, 0.3324969, -0.01486266, 0.003768057, 0.9429798
AHR2, 30236810, -0.16, -0.01, 123.62, 0.05, 0, 0, 0.4723354, -0.000567407, -0.001323491, 0.8814177
MOTB, 30236818, 1, 1, 0, 1
RCIN, 30236822, 0, 0, 0, 0, 0, 0, 0, 0, 0, 0, 0, 0, 0, 0
RCOU, 30236828, 1221, 1228, 1233, 1233, 0, 0, 0, 0, 0, 0, 0, 0, 0, 0
VIBE, 30236836, 0.02018464, 0.02025411, 0.02940491, 0, 0, 0
CTRL, 30236843, 0.002194152, 0.0002160343, 0.002653741, 0.0002063383, 0.00494901
PRX, 30236876, 2, 0.62, 0, 0.88, 0, 3.6, 0, 2.16, 0, 0, 0, 0.62
IMU, 30236884, -0.0001570459, -0.0009450491, -0.001128727, 0.2582113, -0.001029842, -9.802322, 0, 0, 36.66309, 1, 1, 1000, 1000
IMU, 30277163, -0.001502671, -0.0003464525, -0.001489714, 0.262225, 0.008149992, -9.827037, 0, 0, 36.66523, 1, 1, 1000, 1000
RFND, 30283852, 0.2, 25, 0, 0
IMU, 30317085, -0.000955832, 2.875939E-06, 0.0001102876, 0.2698098, 0.006544846, -9.793465, 0, 0, 36.66619, 1, 1, 1000, 1000
MAG, 30334077, 362, 573, 374, 0, 0, 0, 0, 0, 0, 1, 30334068
RFND, 30334112, 0.2, 25, 0, 0
BARO, 30334150, 0.00846478, 993.528, 34.71, -0.06694241, 30334, 0, 34.55
CTUN, 30334164, 0, 0, 0, 0.3069316, 0.07186506, 0.07186506, 0, 0, 0.19, 0, 0, 0
ATT, 30338222, 0, -0.19, 0, 0.24, 141.31, 141.3, 0, 1
RATE, 30338234, 0.8908804, -0.05779015, 0.002188918, -1.125442, 0.05055083, -0.003042044, -0.001936356, 1.522945, -0.004907729, -140.5409, -0.5544662, 0
NKF1, 30338241, -0.19, 0.24, 141.3, 0.1685983, -0.03092715, -0.003470146, 0, 0, 0, -0.07182794, 0.05, 0, -1.58
NKF2, 30338241, 0, 0, 0, 0, 0, 0, 0, 0, 0, 0, 0, 0, 0
NKF3, 30338241, 0, 0, 0, 0.33, -0.01, 0, 0, 0, 0, 0, 0
NKF4, 30338241, 0, 0, 0, 0, 0, 2.88851E-05, 0, 0, 0, 19, 229, 0, 0
NKF5, 30338241, 0, 0, 0, 0, 0.2, 0.13, 0, 0.19, 0.5, 7.535634E-05, 0.006533111, 0.00814946
NKQ1, 30338241, 0.3312245, -0.01487643, 0.003713268, 0.9434274
AHR2, 30338286, -0.16, -0.01, 123.62, 0, 0, 0, 0.472357, -0.0005594086, -0.001374503, 0.8814061
MOTB, 30338294, 1, 1, 0, 1
RCIN, 30338298, 0, 0, 0, 0, 0, 0, 0, 0, 0, 0, 0, 0, 0, 0
RCOU, 30338304, 1221, 1230, 1233, 1234, 0, 0, 0, 0, 0, 0, 0, 0, 0, 0
VIBE, 30338313, 0.01949253, 0.01815, 0.03145904, 0, 0, 0
CTRL, 30338320, 0.002225734, 0.0001989843, 0.002639415, 0.0001985381, 0.004933058
PRX, 30338353, 2, 0.62, 0, 0.88, 0, 3.6, 0, 2.16, 0, 0, 0, 0.62
IMU, 30357303, -0.001848769, 0.0009701095, 0.0004566452, 0.2576215, -2.605881E-05, -9.807578, 0, 0, 36.66613, 1, 1, 1000, 1000
RFND, 30383829, 0.2, 25, 0, 0
IMU, 30396812, -0.001210785, 0.001844709, 0.0003177, 0.2550055, 0.0107775, -9.807621, 0, 0, 36.66639, 1, 1, 1000, 1000
MAG, 30469283, 360, 573, 376, 0, 0, 0, 0, 0, 0, 1, 30469274
RFND, 30469347, 0.2, 25, 0, 0
BARO, 30469384, -0.1015773, 993.5402, 34.71, -0.2075934, 30469, 0, 34.55
CTUN, 30469397, 0, 0, 0, 0.3069316, 0.07186364, 0.07186364, -0.1, 0, 0.19, 0, 0, 0
ATT, 30472581, 0, -0.2, 0, 0.25, 141.48, 141.48, 0, 1
RATE, 30472592, 0.9177234, -0.0746654, 0.00232884, -1.15636, -0.01944556, -0.002537544, -0.002028544, 1.524312, -0.004907285, -155.4736, 0.935173, 0
NKF1, 30472600, -0.2, 0.25, 141.48, 0.1730686, -0.03170542, -0.003838854, 0, 0, 0, -0.07180123, 0.05, 0, -1.54
NKF2, 30472600, 0, 0, 0, 0, 0, 0, 0, 0, 0, 0, 0, 0, 0
NKF3, 30472600, 0, 0, 0, 0.36, -0.02, 0, 0, 0, 0, 0, 0
NKF4, 30472600, 0, 0, 0, 0, 0, 3.175517E-05, 0, 0, 0, 19, 229, 0, 0
NKF5, 30472600, 0, 0, 0, 0, 0.2, 0.13, 0, 0.19, 0.5, 0.0001193607, 0.006441837, 0.007747515
NKQ1, 30472600, 0.3297817, -0.01495461, 0.00366107, 0.9439318
AHR2, 30472706, -0.17, -0.01, 123.62, -0.09999999, 0, 0, 0.4723541, -0.0006105143, -0.001411896, 0.8814075
MOTB, 30472716, 1, 1, 0, 1
RCIN, 30472720, 0, 0, 0, 0, 0, 0, 0, 0, 0, 0, 0, 0, 0, 0
RCOU, 30472726, 1221, 1229, 1233, 1234, 0, 0, 0, 0, 0, 0, 0, 0, 0, 0
VIBE, 30472735, 0.01951746, 0.02098703, 0.03742673, 0, 0, 0
CTRL, 30472742, 0.00228469, 0.0001793301, 0.002709, 0.0001915385, 0.004938006
PRX, 30472774, 2, 0.62, 0, 0.88, 0, 3.6, 0, 2.16, 0, 0, 0, 0.62
IMU, 30472782, -0.0004232679, -0.000500976, -0.0004255471, 0.2552857, 0.01417662, -9.817835, 0, 0, 36.66672, 1, 1, 1000, 1000
IMU, 30520820, -0.0005848333, 0.0007706438, 0.0002132385, 0.2514783, 0.00788952, -9.807846, 0, 0, 36.66714, 1, 1, 1000, 1000
RFND, 30528220, 0.2, 25, 0, 0
IMU, 30561202, -0.0005068519, -0.0002730992, -0.0006036321, 0.2575756, 0.007243965, -9.80008, 0, 0, 36.66846, 1, 1, 1000, 1000
MAG, 30578069, 363, 570, 374, 0, 0, 0, 0, 0, 0, 1, 30578061
RFND, 30578106, 0.2, 25, 0, 0
BARO, 30578144, -0.1975115, 993.5506, 34.72, -0.4310433, 30578, 0, 34.55
CTUN, 30578158, 0, 0, 0, 0.3069316, 0.07168604, 0.07168604, -0.19, 0, 0.19, 0, 0, 0
ATT, 30580791, 0, -0.2, 0, 0.25, 141.65, 141.64, 0, 1
RATE, 30580801, 0.9267567, -0.1019687, 0.002335451, -1.149132, -0.04944197, -0.002449779, -0.002089896, 1.497544, -0.004781654, -134.2618, 1.759434, 0
NKF1, 30580809, -0.2, 0.25, 141.64, 0.1772646, -0.03253253, -0.003315106, 0, 0, 0, -0.07165144, 0.04, 0, -1.52
NKF2, 30580809, 0, 0, 0, 0, 0, 0, 0, 0, 0, 0, 0, 0, 0
NKF3, 30580809, 0, 0, 0, 0.36, -0.02, 0, 0, 0, 0, 0, 0
NKF4, 30580809, 0, 0, 0, 0, 0, 3.566277E-05, 0, 0, 0, 19, 229, 0, 0
NKF5, 30580809, 0, 0, 0, 0, 0.2, 0.13, 0, 0.19, 0.5, 0.0001980631, 0.006090552, 0.007383479
NKQ1, 30580809, 0.3284294, -0.01495281, 0.003618647, 0.9444033
AHR2, 30580852, -0.17, -0.01, 123.62, -0.19, 0, 0, 0.4723711, -0.000584406, -0.001452051, 0.8813984
MOTB, 30580859, 1, 1, 0, 1
RCIN, 30580863, 0, 0, 0, 0, 0, 0, 0, 0, 0, 0, 0, 0, 0, 0
RCOU, 30580870, 1221, 1229, 1233, 1233, 0, 0, 0, 0, 0, 0, 0, 0, 0, 0
VIBE, 30580879, 0.01881984, 0.01945798, 0.03375965, 0, 0, 0
CTRL, 30580886, 0.002305111, 0.0001732912, 0.002701176, 0.0001934989, 0.004898787
PRX, 30581013, 2, 0.62, 0, 0.89, 0, 3.6, 0, 2.15, 0, 0, 0, 0.62
IMU, 30601788, -0.0003811351, 0.001513639, -0.0003678441, 0.2548394, 0.01485091, -9.810663, 0, 0, 36.67046, 1, 1, 1000, 1000
RFND, 30628099, 0.2, 25, 0, 0
IMU, 30640784, 0.001588139, -0.003521682, 0.001405762, 0.2541931, -0.008691673, -9.793904, 0, 0, 36.67206, 1, 1, 1000, 1000
MAG, 30678105, 358, 574, 378, 0, 0, 0, 0, 0, 0, 1, 30678096
RFND, 30678140, 0.2, 25, 0, 0
BARO, 30678177, -0.1410796, 993.5442, 34.72, -0.5998607, 30678, 0, 34.55
CTUN, 30678191, 0, 0, 0, 0.3069316, 0.0715608, 0.0715608, -0.14, 0, 0.19, 0, 0, 0
ATT, 30682416, 0, -0.2, 0, 0.25, 141.8, 141.79, 0, 1
RATE, 30682425, 0.9163675, -0.1050688, 0.00271062, -1.1471, 0.02582628, -0.002853075, -0.00198239, 1.544315, -0.004867885, -120.0119, 0.7144928, 0
NKF1, 30682433, -0.2, 0.25, 141.79, 0.1810976, -0.03301348, -0.002963257, 0, 0, 0, -0.07151364, 0.05, 0, -1.53
NKF2, 30682433, 0, 0, 0, 0, 0, 0, 0, 0, 0, 0, 0, 0, 0
NKF3, 30682433, 0, 0, 0, 0.38, -0.02, 0, 0, 0, 0, 0, 0
NKF4, 30682433, 0, 0, 0, 0, 0, 3.934913E-05, 0, 0, 0, 19, 229, 0, 0
NKF5, 30682433, 0, 0, 0, 0, 0.2, 0.13, 0, 0.19, 0.5, 0.0003063012, 0.006078816, 0.007273187
NKQ1, 30682433, 0.3271644, -0.01494864, 0.003615447, 0.9448423
AHR2, 30682834, -0.17, -0.02, 123.62, -0.14, 0, 0, 0.4723512, -0.0005503498, -0.001456013, 0.881409
MOTB, 30682844, 1, 1, 0, 1
RCIN, 30682849, 0, 0, 0, 0, 0, 0, 0, 0, 0, 0, 0, 0, 0, 0
RCOU, 30682855, 1221, 1230, 1234, 1234, 0, 0, 0, 0, 0, 0, 0, 0, 0, 0
VIBE, 30682864, 0.01652691, 0.02010865, 0.03200404, 0, 0, 0
CTRL, 30682872, 0.00228374, 0.0001866876, 0.002696268, 0.0002717326, 0.004878256
PRX, 30682927, 2, 0.62, 0, 0.88, 0, 0.58, 0, 2.15, 0, 0, 180, 0.58
IMU, 30682936, -0.0009605109, 0.0002916103, 9.61174E-05, 0.2666014, 0.0106124, -9.815276, 0, 0, 36.67382, 1, 1, 1000, 1000
IMU, 30722769, -0.0001732746, -0.0004139608, 0.001085956, 0.2580757, 0.0147422, -9.803152, 0, 0, 36.67677, 1, 1, 1000, 1000
RFND, 30730044, 0.2, 25, 0, 0
IMU, 30762747, -0.001041858, -0.0002291312, -8.135679E-05, 0.260139, 0.01489166, -9.822829, 0, 0, 36.67971, 1, 1, 1000, 1000
MAG, 30779861, 358, 573, 373, 0, 0, 0, 0, 0, 0, 1, 30779852
RFND, 30779895, 0.2, 25, 0, 0
BARO, 30779932, -0.1580092, 993.546, 34.72, -0.5577932, 30779, 0, 34.55
CTUN, 30779999, 0, 0, 0, 0.3069316, 0.07140275, 0.07140275, -0.15, 0, 0.19, 0, 0, 0
ATT, 30782635, 0, -0.2, 0, 0.25, 141.95, 141.95, 0, 1
RATE, 30782645, 0.9173561, -0.008458842, 0.00191765, -1.142839, -0.04452117, -0.002410871, -0.002105301, 1.495501, -0.004855793, -136.8124, 1.459312, 0
NKF1, 30782652, -0.2, 0.25, 141.95, 0.1843847, -0.03408212, -0.003378084, 0, 0, 0, -0.07137986, 0.05, 0, -1.53
NKF2, 30782652, 0, 0, 0, 0, 0, 0, 0, 0, 0, 0, 0, 0, 0
NKF3, 30782652, 0, 0, 0, 0.38, -0.02, 0, 0, 0, 0, 0, 0
NKF4, 30782652, 0, 0, 0, 0, 0, 4.422316E-05, 0, 0, 0, 19, 229, 0, 0
NKF5, 30782652, 0, 0, 0, 0, 0.2, 0.13, 0, 0.19, 0.5, 0.0003052089, 0.00565493, 0.006795614
NKQ1, 30782652, 0.3258836, -0.01494722, 0.003590959, 0.9452849
AHR2, 30782695, -0.17, -0.02, 123.62, -0.15, 0, 0, 0.4723457, -0.0005242866, -0.00147826, 0.881412
MOTB, 30782702, 1, 1, 0, 1
RCIN, 30782706, 0, 0, 0, 0, 0, 0, 0, 0, 0, 0, 0, 0, 0, 0
RCOU, 30782712, 1221, 1228, 1232, 1233, 0, 0, 0, 0, 0, 0, 0, 0, 0, 0
VIBE, 30782720, 0.02176668, 0.02029821, 0.03233306, 0, 0, 0
CTRL, 30782727, 0.002292994, 0.0001739123, 0.002701244, 0.0002553911, 0.004879156
