FMT, 128, 89, FMT, BBnNZ, Type,Length,Name,Format,Columns
FMT, 129, 31, PARM, QNf, TimeUS,Name,Value
FMT, 130, 46, GPS, QBIHBcLLefffB, TimeUS,Status,GMS,GWk,NSats,HDop,Lat,Lng,Alt,Spd,GCrs,VZ,U
FMT, 131, 46, GPS2, QBIHBcLLefffB, TimeUS,Status,GMS,GWk,NSats,HDop,Lat,Lng,Alt,Spd,GCrs,VZ,U
FMT, 132, 46, GPSB, QBIHBcLLefffB, TimeUS,Status,GMS,GWk,NSats,HDop,Lat,Lng,Alt,Spd,GCrs,VZ,U
FMT, 193, 24, GPA, QCCCCBI, TimeUS,VDop,HAcc,VAcc,SAcc,VV,SMS
FMT, 194, 24, GPA2, QCCCCBI, TimeUS,VDop,HAcc,VAcc,SAcc,VV,SMS
FMT, 195, 24, GPAB, QCCCCBI, TimeUS,VDop,HAcc,VAcc,SAcc,VV,SMS
FMT, 133, 53, IMU, QffffffIIfBBHH, TimeUS,GyrX,GyrY,GyrZ,AccX,AccY,AccZ,EG,EA,T,GH,AH,GHz,AHz
FMT, 134, 75, MSG, QZ, TimeUS,Message
FMT, 135, 39, RCIN, QHHHHHHHHHHHHHH, TimeUS,C1,C2,C3,C4,C5,C6,C7,C8,C9,C10,C11,C12,C13,C14
FMT, 136, 39, RCOU, QHHHHHHHHHHHHHH, TimeUS,C1,C2,C3,C4,C5,C6,C7,C8,C9,C10,C11,C12,C13,C14
FMT, 137, 15, RSSI, Qf, TimeUS,RXRSSI
FMT, 139, 37, BARO, QffcfIff, TimeUS,Alt,Press,Temp,CRt,SMS,Offset,GndTemp
FMT, 140, 22, POWR, QffHB, TimeUS,Vcc,VServo,Flags,Safety
FMT, 143, 45, CMD, QHHHfffffff, TimeUS,CTot,CNum,CId,Prm1,Prm2,Prm3,Prm4,Lat,Lng,Alt
FMT, 144, 20, RAD, QBBBBBHH, TimeUS,RSSI,RemRSSI,TxBuf,Noise,RemNoise,RxErrors,Fixed
FMT, 146, 43, CAM, QIHLLeeeccC, TimeUS,GPSTime,GPSWeek,Lat,Lng,Alt,RelAlt,GPSAlt,Roll,Pitch,Yaw
FMT, 232, 43, TRIG, QIHLLeeeccC, TimeUS,GPSTime,GPSWeek,Lat,Lng,Alt,RelAlt,GPSAlt,Roll,Pitch,Yaw
FMT, 162, 30, ARSP, QffcffB, TimeUS,Airspeed,DiffPress,Temp,RawPress,Offset,U
FMT, 164, 45, CURR, QfffcHHHHHHHHHH, TimeUS,Volt,Curr,CurrTot,Temp,V1,V2,V3,V4,V5,V6,V7,V8,V9,V10
FMT, 165, 45, CUR2, QfffcHHHHHHHHHH, TimeUS,Volt,Curr,CurrTot,Temp,V1,V2,V3,V4,V5,V6,V7,V8,V9,V10
FMT, 163, 27, ATT, QccccCCCC, TimeUS,DesRoll,Roll,DesPitch,Pitch,DesYaw,Yaw,ErrRP,ErrYaw
FMT, 166, 34, MAG, QhhhhhhhhhBI, TimeUS,MagX,MagY,MagZ,OfsX,OfsY,OfsZ,MOfsX,MOfsY,MOfsZ,Health,S
FMT, 169, 14, MODE, QMBB, TimeUS,Mode,ModeNum,Rsn
FMT, 196, 17, RFND, QCBCB, TimeUS,Dist1,Orient1,Dist2,Orient2
FMT, 223, 33, DMS, IIIIIBBBBBBBBBB, TimeMS,N,Dp,RT,RS,Er,Fa,Fmn,Fmx,Pa,Pmn,Pmx,Sa,Smn,Smx
FMT, 240, 41, BCN, QBBfffffff, TimeUS,Health,Cnt,D0,D1,D2,D3,PosX,PosY,PosZ
FMT, 138, 53, IMU2, QffffffIIfBBHH, TimeUS,GyrX,GyrY,GyrZ,AccX,AccY,AccZ,EG,EA,T,GH,AH,GHz,AHz
FMT, 147, 53, IMU3, QffffffIIfBBHH, TimeUS,GyrX,GyrY,GyrZ,AccX,AccY,AccZ,EG,EA,T,GH,AH,GHz,AHz
FMT, 141, 45, AHR2, QccCfLLffff, TimeUS,Roll,Pitch,Yaw,Alt,Lat,Lng,Q1,Q2,Q3,Q4
FMT, 180, 31, POS, QLLfff, TimeUS,Lat,Lng,Alt,RelHomeAlt,RelOriginAlt
FMT, 142, 45, SIM, QccCfLLffff, TimeUS,Roll,Pitch,Yaw,Alt,Lat,Lng,Q1,Q2,Q3,Q4
FMT, 198, 51, NKF1, QccCfffffffccc, TimeUS,Roll,Pitch,Yaw,VN,VE,VD,dPD,PN,PE,PD,GX,GY,GZ
FMT, 199, 35, NKF2, QbccccchhhhhhB, TimeUS,AZbias,GSX,GSY,GSZ,VWN,VWE,MN,ME,MD,MX,MY,MZ,MI
FMT, 200, 33, NKF3, Qcccccchhhcc, TimeUS,IVN,IVE,IVD,IPN,IPE,IPD,IMX,IMY,IMZ,IYAW,IVT
FMT, 201, 35, NKF4, QcccccfbbHBHHb, TimeUS,SV,SP,SH,SM,SVT,errRP,OFN,OFE,FS,TS,SS,GPS,PI
FMT, 202, 40, NKF5, QBhhhcccCCfff, TimeUS,NI,FIX,FIY,AFI,HAGL,offset,RI,rng,Herr,eAng,eVel,ePos
FMT, 203, 51, NKF6, QccCfffffffccc, TimeUS,Roll,Pitch,Yaw,VN,VE,VD,dPD,PN,PE,PD,GX,GY,GZ
FMT, 204, 35, NKF7, QbccccchhhhhhB, TimeUS,AZbias,GSX,GSY,GSZ,VWN,VWE,MN,ME,MD,MX,MY,MZ,MI
FMT, 205, 33, NKF8, Qcccccchhhcc, TimeUS,IVN,IVE,IVD,IPN,IPE,IPD,IMX,IMY,IMZ,IYAW,IVT
FMT, 206, 35, NKF9, QcccccfbbHBHHb, TimeUS,SV,SP,SH,SM,SVT,errRP,OFN,OFE,FS,TS,SS,GPS,PI
FMT, 207, 36, NKF0, QBccCCcccccccc, TimeUS,ID,rng,innov,SIV,TR,BPN,BPE,BPD,OFH,OFL,OFN,OFE,OFD
FMT, 208, 27, NKQ1, Qffff, TimeUS,Q1,Q2,Q3,Q4
FMT, 209, 27, NKQ2, Qffff, TimeUS,Q1,Q2,Q3,Q4
FMT, 210, 51, XKF1, QccCfffffffccc, TimeUS,Roll,Pitch,Yaw,VN,VE,VD,dPD,PN,PE,PD,GX,GY,GZ
FMT, 211, 34, XKF2, QccccchhhhhhB, TimeUS,AX,AY,AZ,VWN,VWE,MN,ME,MD,MX,MY,MZ,MI
FMT, 212, 33, XKF3, Qcccccchhhcc, TimeUS,IVN,IVE,IVD,IPN,IPE,IPD,IMX,IMY,IMZ,IYAW,IVT
FMT, 213, 35, XKF4, QcccccfbbHBHHb, TimeUS,SV,SP,SH,SM,SVT,errRP,OFN,OFE,FS,TS,SS,GPS,PI
FMT, 214, 40, XKF5, QBhhhcccCCfff, TimeUS,NI,FIX,FIY,AFI,HAGL,offset,RI,rng,Herr,eAng,eVel,ePos
FMT, 215, 51, XKF6, QccCfffffffccc, TimeUS,Roll,Pitch,Yaw,VN,VE,VD,dPD,PN,PE,PD,GX,GY,GZ
FMT, 216, 34, XKF7, QccccchhhhhhB, TimeUS,AX,AY,AZ,VWN,VWE,MN,ME,MD,MX,MY,MZ,MI
FMT, 217, 33, XKF8, Qcccccchhhcc, TimeUS,IVN,IVE,IVD,IPN,IPE,IPD,IMX,IMY,IMZ,IYAW,IVT
FMT, 218, 35, XKF9, QcccccfbbHBHHb, TimeUS,SV,SP,SH,SM,SVT,errRP,OFN,OFE,FS,TS,SS,GPS,PI
FMT, 219, 36, XKF0, QBccCCcccccccc, TimeUS,ID,rng,innov,SIV,TR,BPN,BPE,BPD,OFH,OFL,OFN,OFE,OFD
FMT, 220, 27, XKQ1, Qffff, TimeUS,Q1,Q2,Q3,Q4
FMT, 221, 27, XKQ2, Qffff, TimeUS,Q1,Q2,Q3,Q4
FMT, 222, 35, XKFD, Qffffff, TimeUS,IX,IY,IZ,IVX,IVY,IVZ
FMT, 148, 34, TERR, QBLLHffHH, TimeUS,Status,Lat,Lng,Spacing,TerrH,CHeight,Pending,Loaded
FMT, 149, 18, UBX1, QBHBBH, TimeUS,Instance,noisePerMS,jamInd,aPower,agcCnt
FMT, 150, 16, UBX2, QBbBbB, TimeUS,Instance,ofsI,magI,ofsQ,magQ
FMT, 151, 18, UBY1, QBHBBH, TimeUS,Instance,noisePerMS,jamInd,aPower,agcCnt
FMT, 152, 16, UBY2, QBbBbB, TimeUS,Instance,ofsI,magI,ofsQ,magQ
FMT, 170, 42, GRAW, QIHBBddfBbB, TimeUS,WkMS,Week,numSV,sv,cpMes,prMes,doMes,mesQI,cno,lli
FMT, 171, 24, GRXH, QdHbBB, TimeUS,rcvTime,week,leapS,numMeas,recStat
FMT, 172, 41, GRXS, QddfBBBHBBBBB, TimeUS,prMes,cpMes,doMes,gnss,sv,freq,lock,cno,prD,cpD,doD,trk
FMT, 173, 63, SBFE, QIHBBdddfffff, TimeUS,TOW,WN,Mode,Err,Lat,Lng,Height,Undul,Vn,Ve,Vu,COG
FMT, 153, 19, ESC1, Qcccc, TimeUS,RPM,Volt,Curr,Temp
FMT, 154, 19, ESC2, Qcccc, TimeUS,RPM,Volt,Curr,Temp
FMT, 155, 19, ESC3, Qcccc, TimeUS,RPM,Volt,Curr,Temp
FMT, 156, 19, ESC4, Qcccc, TimeUS,RPM,Volt,Curr,Temp
FMT, 157, 19, ESC5, Qcccc, TimeUS,RPM,Volt,Curr,Temp
FMT, 158, 19, ESC6, Qcccc, TimeUS,RPM,Volt,Curr,Temp
FMT, 159, 19, ESC7, Qcccc, TimeUS,RPM,Volt,Curr,Temp
FMT, 160, 19, ESC8, Qcccc, TimeUS,RPM,Volt,Curr,Temp
FMT, 167, 34, MAG2, QhhhhhhhhhBI, TimeUS,MagX,MagY,MagZ,OfsX,OfsY,OfsZ,MOfsX,MOfsY,MOfsZ,Health,S
FMT, 168, 34, MAG3, QhhhhhhhhhBI, TimeUS,MagX,MagY,MagZ,OfsX,OfsY,OfsZ,MOfsX,MOfsY,MOfsZ,Health,S
FMT, 174, 31, ACC1, QQfff, TimeUS,SampleUS,AccX,AccY,AccZ
FMT, 175, 31, ACC2, QQfff, TimeUS,SampleUS,AccX,AccY,AccZ
FMT, 176, 31, ACC3, QQfff, TimeUS,SampleUS,AccX,AccY,AccZ
FMT, 177, 31, GYR1, QQfff, TimeUS,SampleUS,GyrX,GyrY,GyrZ
FMT, 178, 31, GYR2, QQfff, TimeUS,SampleUS,GyrX,GyrY,GyrZ
FMT, 179, 31, GYR3, QQfff, TimeUS,SampleUS,GyrX,GyrY,GyrZ
FMT, 181, 35, PIDR, Qffffff, TimeUS,Des,P,I,D,FF,AFF
FMT, 182, 35, PIDP, Qffffff, TimeUS,Des,P,I,D,FF,AFF
FMT, 183, 35, PIDY, Qffffff, TimeUS,Des,P,I,D,FF,AFF
FMT, 184, 35, PIDA, Qffffff, TimeUS,Des,P,I,D,FF,AFF
FMT, 185, 35, PIDS, Qffffff, TimeUS,Des,P,I,D,FF,AFF
FMT, 186, 35, PIDL, Qffffff, TimeUS,Des,P,I,D,FF,AFF
FMT, 161, 37, BAR2, QffcfIff, TimeUS,Alt,Press,Temp,CRt,SMS,Offset,GndTemp
FMT, 197, 37, BAR3, QffcfIff, TimeUS,Alt,Press,Temp,CRt,SMS,Offset,GndTemp
FMT, 187, 35, VIBE, QfffIII, TimeUS,VibeX,VibeY,VibeZ,Clip0,Clip1,Clip2
FMT, 188, 47, IMT, Qfffffffff, TimeUS,DelT,DelvT,DelaT,DelAX,DelAY,DelAZ,DelVX,DelVY,DelVZ
FMT, 189, 47, IMT2, Qfffffffff, TimeUS,DelT,DelvT,DelaT,DelAX,DelAY,DelAZ,DelVX,DelVY,DelVZ
FMT, 190, 47, IMT3, Qfffffffff, TimeUS,DelT,DelvT,DelaT,DelAX,DelAY,DelAZ,DelVX,DelVY,DelVZ
FMT, 191, 24, ORGN, QBLLe, TimeUS,Type,Lat,Lng,Alt
FMT, 192, 19, RPM, Qff, TimeUS,rpm1,rpm2
FMT, 233, 47, GMB1, Iffffffffff, TimeMS,dt,dax,day,daz,dvx,dvy,dvz,jx,jy,jz
FMT, 234, 44, GMB2, IBfffffffff, TimeMS,es,ex,ey,ez,rx,ry,rz,tx,ty,tz
FMT, 235, 13, GMB3, Ihhh, TimeMS,rl_torque_cmd,el_torque_cmd,az_torque_cmd
FMT, 236, 59, RATE, Qffffffffffff, TimeUS,RDes,R,ROut,PDes,P,POut,YDes,Y,YOut,ADes,A,AOut
FMT, 237, 23, RALY, QBBLLh, TimeUS,Tot,Seq,Lat,Lng,Alt
FMT, 238, 43, VISO, Qffffffff, TimeUS,dt,AngDX,AngDY,AngDZ,PosDX,PosDY,PosDZ,conf
FMT, 224, 23, SBPH, QIII, TimeUS,CrcError,LastInject,IARhyp
FMT, 229, 80, SBR1, QHHBZ, TimeUS,msg_type,sender_id,msg_len,d1
FMT, 230, 205, SBR2, QHZZZ, TimeUS,msg_type,d2,d3,d4
FMT, 25, 41, ATUN, QBBfffffff, TimeUS,Axis,TuneStep,Targ,Min,Max,RP,RD,SP,ddt
FMT, 26, 19, ATDE, Qff, TimeUS,Angle,Rate
FMT, 31, 22, PTUN, QBfHHH, TimeUS,Param,TunVal,CtrlIn,TunLo,TunHi
FMT, 12, 28, OF, QBffff, TimeUS,Qual,flowX,flowY,bodyX,bodyY
FMT, 5, 51, NTUN, Qffffffffff, TimeUS,DPosX,DPosY,PosX,PosY,DVelX,DVelY,VelX,VelY,DAccX,DAccY
FMT, 4, 51, CTUN, Qffffffeccfhh, TimeUS,ThI,ABst,ThO,ThH,DAlt,Alt,BAlt,DSAlt,SAlt,TAlt,DCRt,CRt
FMT, 6, 32, PM, QHHIhBHII, TimeUS,NLon,NLoop,MaxT,PMT,I2CErr,INSErr,LogDrop,Mem
FMT, 30, 27, MOTB, Qffff, TimeUS,LiftMax,BatVolt,BatRes,ThLimit
FMT, 13, 12, EV, QB, TimeUS,Id
FMT, 20, 14, D16, QBh, TimeUS,Id,Value
FMT, 21, 14, DU16, QBH, TimeUS,Id,Value
FMT, 22, 16, D32, QBi, TimeUS,Id,Value
FMT, 23, 16, DU32, QBI, TimeUS,Id,Value
FMT, 24, 16, DFLT, QBf, TimeUS,Id,Value
FMT, 19, 13, ERR, QBB, TimeUS,Subsys,ECode
FMT, 32, 19, HELI, Qff, TimeUS,DRRPM,ERRPM
FMT, 33, 29, PL, QBBffff, TimeUS,Heal,TAcq,pX,pY,vX,vY
FMT, 34, 36, GUID, QBffffff, TimeUS,Type,pX,pY,pZ,vX,vY,vZ
FMT, 35, 32, THRO, QBffffbbbb, TimeUS,Stage,Vel,VelZ,Acc,AccEfZ,Throw,AttOk,HgtOk,PosOk
FMT, 36, 56, PRX, QBfffffffffff, TimeUS,Health,D0,D45,D90,D135,D180,D225,D270,D315,DUp,CAn,CDis
MODE, 30055778, 100, 100, 2
FMT, 254, 47, NKT1, QIffffffff, TimeUS,Cnt,IMUMin,IMUMax,EKFMin,EKFMax,AngMin,AngMax,VelMin,VelM
FMT, 253, 31, CTRL, Qfffff, TimeUS,RMSRollP,RMSRollD,RMSPitchP,RMSPitchD,RMSYaw
IMU, 30146162, 0.0007513007, 0.0006319119, -0.0005525664, 0.2418472, -0.05053716, -9.797318, 0, 0, 38.59795, 1, 1, 1000, 1000
MSG, 30167470, APM:Copter V3.5.7 (38483450)
MSG, 30167475, New mission
MSG, 30167488, Frame: QUAD
MODE, 30167492, Autonomous, 100, 2
IMU, 30189654, -0.0004533985, 0.0001796822, 0.0004826956, 0.2457367, -0.06150698, -9.788718, 0, 0, 38.59795, 1, 1, 1000, 1000
MAG, 30209539, 404, 517, 346, 0, 0, 0, 0, 0, 0, 1, 30209531
RFND, 30209574, 0.2, 25, 0, 0
BARO, 30209607, -0.02825719, 993.468, 36.71, -0.2340444, 30209, 0, 35
CTUN, 30209620, 0, 0, 0, 0.3069316, 0.06715497, 0.06715497, -0.02, 0, 0.19, 0, 0, 0
ATT, 30209738, 0, 0.28, 0, -0.03, 359.77, 359.78, 0, 1
RATE, 30209744, -1.300448, 0.002394103, -0.0030136, 0.1388962, 0.03051539, 0.0003383543, 0.0007971902, -0.04522328, 2.563105E-05, 38.72757, 0.3904343, 0
NKF1, 30209752, 0.28, -0.03, 359.77, -0.0202253, -0.001256525, 0.0009562363, 0, 0, 0, -0.06715497, -0.02, 0, 0
NKF2, 30209752, 0, 0, 0, 0, 0, 0, 0, 0, 0, 0, 0, 0, 0
NKF3, 30209752, 0, 0, 0, -0.01, 0, 0, 0, 0, 0, 0, 0
NKF4, 30209752, 0, 0, 0, 0, 0, 3.740748E-05, 0, 0, 0, 19, 229, 0, 0
NKF5, 30209752, 0, 0, 0, 0, 0.19, 0.13, 0, 0.19, 0.5, 0.0001030655, 0.000785265, 0.001386272
NKQ1, 30209752, 0.9999119, 0.002862395, 0.01282005, -0.001974527
AHR2, 30209797, 0.24, -0.05, 359.75, -0.02, 0, 0, 0.9999954, 0.002121758, -0.0004989388, -0.00210482
MOTB, 30209804, 1, 1, 0, 1
RCIN, 30209809, 0, 0, 0, 0, 0, 0, 0, 0, 0, 0, 0, 0, 0, 0
RCOU, 30209815, 1101, 1101, 1101, 1101, 0, 0, 0, 0, 0, 0, 0, 0, 0, 0
VIBE, 30209824, 0.01895452, 0.0209581, 0.03664771, 0, 0, 0
CTRL, 30209830, 0.0030622, 0.0001751274, 0.0003009151, 0.0001607275, 3.363432E-05
PRX, 30209861, 2, 0.63, 0, 0.66, 0, 3.6, 0, 2.36, 0, 0, 0, 0.63
IMU, 30229716, 0.0001318643, -0.001258536, -0.001568646, 0.2419837, -0.04476506, -9.835206, 0, 0, 38.59796, 1, 1, 1000, 1000
RFND, 30259525, 0.2, 25, 0, 0
IMU, 30270181, 0.0007807044, -0.001611246, -0.0001633108, 0.2424912, -0.0645026, -9.824177, 0, 0, 38.59795, 1, 1, 1000, 1000
MAG, 30309512, 407, 516, 346, 0, 0, 0, 0, 0, 0, 1, 30309505
RFND, 30309546, 0.2, 25, 0, 0
BARO, 30309578, 0.06499155, 993.4578, 36.71, -0.106072, 30309, 0, 35
CTUN, 30309591, 0, 0, 0, 0.3069316, 0.06718221, 0.06718221, 0.06, 0, 0.19, 0, 0, 0
ATT, 30309647, 0, 0.29, 0, -0.03, 359.76, 359.78, 0, 1
RATE, 30309654, -1.324597, 0.0964797, -0.003415272, 0.1654636, -0.01201655, 0.0004669649, 6.993133E-06, -0.01247121, 3.690671E-05, 10.44607, -1.209927, 0
NKF1, 30309662, 0.29, -0.03, 359.77, -0.0207334, -0.0008895054, 0.0002579277, 0, 0, 0, -0.06718221, -0.02, 0, 0
NKF2, 30309662, 0, 0, 0, 0, 0, 0, 0, 0, 0, 0, 0, 0, 0
NKF3, 30309662, 0, 0, 0, -0.01, 0, 0, 0, 0, 0, 0, 0
NKF4, 30309662, 0, 0, 0, 0, 0, 2.507806E-05, 0, 0, 0, 19, 229, 0, 0
NKF5, 30309662, 0, 0, 0, 0, 0.19, 0.13, 0, 0.19, 0.5, 7.643385E-05, 0.001283882, 0.002301689
NKQ1, 30309662, 0.9999123, 0.002909849, 0.01276862, -0.001995574
AHR2, 30309707, 0.24, -0.06, 359.75, 0.06, 0, 0, 0.9999952, 0.00216307, -0.0005488855, -0.002126454
MOTB, 30309714, 1, 1, 0, 1
RCIN, 30309719, 0, 0, 0, 0, 0, 0, 0, 0, 0, 0, 0, 0, 0, 0
RCOU, 30309724, 1101, 1101, 1101, 1101, 0, 0, 0, 0, 0, 0, 0, 0, 0, 0
VIBE, 30309733, 0.01784506, 0.02164994, 0.0381404, 0, 0, 0
CTRL, 30309740, 0.00311032, 0.0001691418, 0.0003685728, 0.0001696459, 5.789733E-05
PRX, 30309772, 2, 0.63, 0, 0.66, 0, 3.6, 0, 2.37, 0, 0, 0, 0.63
IMU, 30309779, 0.001323761, -0.0002191823, -0.0002249443, 0.2422148, -0.03699894, -9.794006, 0, 0, 38.59794, 1, 1, 1000, 1000
IMU, 30349702, -0.0006595927, -4.107559E-05, -0.0006004631, 0.2456662, -0.05554288, -9.800626, 0, 0, 38.59796, 1, 1, 1000, 1000
RFND, 30359569, 0.2, 25, 0, 0
IMU, 30389866, 0.0003679641, 3.953822E-05, 0.0003823406, 0.2481156, -0.04873379, -9.813315, 0, 0, 38.59793, 1, 1, 1000, 1000
MAG, 30409521, 410, 519, 347, 0, 0, 0, 0, 0, 0, 1, 30409512
RFND, 30409555, 0.2, 25, 0, 0
BARO, 30409588, 0.1215059, 993.4514, 36.71, 0.1752979, 30409, 0, 35
CTUN, 30409602, 0, 0, 0, 0.3069316, 0.06723515, 0.06723515, 0.12, 0, 0.19, 0, 0, 0
ATT, 30409752, 0, 0.29, 0, -0.03, 359.76, 359.78, 0, 1
RATE, 30409758, -1.332789, -0.001432115, -0.003063859, 0.1715592, -0.03725709, 0.0006085563, -0.001123066, 0.01255225, 1.056074E-05, 13.13946, 0.6191254, 0
NKF1, 30409766, 0.29, -0.03, 359.77, -0.02094759, -0.0007329731, 0.0003244311, 0, 0, 0, -0.06723515, -0.02, 0, 0
NKF2, 30409766, 0, 0, 0, 0, 0, 0, 0, 0, 0, 0, 0, 0, 0
NKF3, 30409766, 0, 0, 0, -0.01, 0, 0, 0, 0, 0, 0, 0
NKF4, 30409766, 0, 0, 0, 0, 0, 1.643477E-05, 0, 0, 0, 19, 229, 0, 0
NKF5, 30409766, 0, 0, 0, 0, 0.19, 0.13, 0, 0.19, 0.5, 5.625467E-05, 0.001615819, 0.002972612
NKQ1, 30409766, 0.9999124, 0.002925269, 0.01275707, -0.002000832
AHR2, 30409810, 0.24, -0.06, 359.75, 0.12, 0, 0, 0.9999952, 0.002173838, -0.0005606794, -0.002131881
MOTB, 30409818, 1, 1, 0, 1
RCIN, 30409823, 0, 0, 0, 0, 0, 0, 0, 0, 0, 0, 0, 0, 0, 0
RCOU, 30409829, 1101, 1101, 1101, 1101, 0, 0, 0, 0, 0, 0, 0, 0, 0, 0
VIBE, 30409837, 0.01936109, 0.01939088, 0.03507452, 0, 0, 0
CTRL, 30409844, 0.003143553, 0.0001802019, 0.00038726, 0.0001558134, 5.793384E-05
PRX, 30409874, 2, 0.63, 0, 0.66, 0, 3.6, 0, 2.36, 0, 0, 0, 0.63
IMU, 30430037, -0.0009408275, 0.0006072855, 0.0002282163, 0.2439346, -0.06382715, -9.793655, 0, 0, 38.59797, 1, 1, 1000, 1000
RFND, 30459545, 0.2, 25, 0, 0
IMU, 30469648, -5.219906E-05, 1.044802E-05, 9.193905E-05, 0.2466218, -0.03793958, -9.795547, 0, 0, 38.59804, 1, 1, 1000, 1000
MAG, 30509634, 411, 511, 341, 0, 0, 0, 0, 0, 0, 1, 30509626
RFND, 30509668, 0.2, 25, 0, 0
BARO, 30509700, 0.1949746, 993.4433, 36.72, 0.4827827, 30509, 0, 35
CTUN, 30509713, 0, 0, 0, 0.3069316, 0.06724238, 0.06724238, 0.19, 0, 0.19, 0, 0, 0
ATT, 30509768, 0, 0.29, 0, -0.03, 359.76, 359.78, 0, 1
RATE, 30509774, -1.326223, 0.02627767, -0.00325516, 0.1761099, -0.09836115, 0.000962153, 0.0004083856, 0.04822597, 1.734372E-05, 41.89972, -0.1586914, 0
NKF1, 30509782, 0.29, -0.03, 359.77, -0.02127056, -0.0001857367, 0.001034561, 0, 0, 0, -0.06724238, -0.02, 0, 0
NKF2, 30509782, 0, 0, 0, 0, 0, 0, 0, 0, 0, 0, 0, 0, 0
NKF3, 30509782, 0, 0, 0, -0.02, 0, 0, 0, 0, 0, 0, 0
NKF4, 30509782, 0, 0, 0, 0, 0, 1.103178E-05, 0, 0, 0, 19, 229, 0, 0
NKF5, 30509782, 0, 0, 0, 0, 0.19, 0.13, 0, 0.19, 0.5, 4.386946E-05, 0.001828253, 0.003434124
NKQ1, 30509782, 0.9999125, 0.002914082, 0.01274842, -0.002001462
AHR2, 30509828, 0.24, -0.06, 359.75, 0.19, 0, 0, 0.9999953, 0.002156381, -0.0005702752, -0.002132319
MOTB, 30509835, 1, 1, 0, 1
RCIN, 30509840, 0, 0, 0, 0, 0, 0, 0, 0, 0, 0, 0, 0, 0, 0
RCOU, 30509846, 1101, 1101, 1101, 1101, 0, 0, 0, 0, 0, 0, 0, 0, 0, 0
VIBE, 30509854, 0.0192346, 0.02093624, 0.03411577, 0, 0, 0
CTRL, 30509860, 0.00312416, 0.0001654171, 0.0003930922, 0.0001542963, 4.80433E-05
PRX, 30509892, 2, 0.63, 0, 0.66, 0, 3.6, 0, 2.35, 0, 0, 0, 0.63
IMU, 30509900, 9.720072E-05, -0.001726187, 0.0008343948, 0.2397008, -0.0495805, -9.804518, 0, 0, 38.59807, 1, 1, 1000, 1000
IMU, 30549804, 0.0009515348, 0.0008522166, -8.094581E-05, 0.2515275, -0.04987307, -9.798042, 0, 0, 38.59799, 1, 1, 1000, 1000
RFND, 30559590, 0.2, 25, 0, 0
IMU, 30589548, -0.0005989388, 0.0005553912, -0.001206073, 0.2438192, -0.05590504, -9.810884, 0, 0, 38.59796, 1, 1, 1000, 1000
MAG, 30609642, 408, 522, 347, 0, 0, 0, 0, 0, 0, 1, 30609633
RFND, 30609676, 0.2, 25, 0, 0
BARO, 30609709, 0.1441117, 993.4489, 36.72, 0.6201773, 30609, 0, 35
CTUN, 30609722, 0, 0, 0, 0.3069316, 0.06724574, 0.06724574, 0.14, 0, 0.19, 0, 0, 0
ATT, 30609905, 0, 0.29, 0, -0.03, 359.76, 359.78, 0, 1
RATE, 30609912, -1.340179, 0.004490379, -0.00323326, 0.1598338, 0.03787035, 0.0001944152, -0.00024804, 0.0589551, 4.924768E-05, 16.46732, 2.249527, 0
NKF1, 30609920, 0.29, -0.03, 359.77, -0.02139895, 0.0005784973, 0.0004066004, 0, 0, 0, -0.06724574, -0.02, 0, 0
NKF2, 30609920, 0, 0, 0, 0, 0, 0, 0, 0, 0, 0, 0, 0, 0
NKF3, 30609920, 0, 0, 0, -0.02, 0, 0, 0, 0, 0, 0, 0
NKF4, 30609920, 0, 0, 0, 0, 0, 7.459009E-06, 0, 0, 0, 19, 229, 0, 0
NKF5, 30609920, 0, 0, 0, 0, 0.19, 0.13, 0, 0.19, 0.5, 3.855654E-05, 0.001966769, 0.003754352
NKQ1, 30609920, 0.999912, 0.002938804, 0.01278033, -0.002018932
AHR2, 30609963, 0.24, -0.06, 359.75, 0.14, 0, 0, 0.9999952, 0.002173928, -0.0005393483, -0.002150052
MOTB, 30609970, 1, 1, 0, 1
RCIN, 30609975, 0, 0, 0, 0, 0, 0, 0, 0, 0, 0, 0, 0, 0, 0
RCOU, 30609980, 1101, 1101, 1101, 1101, 0, 0, 0, 0, 0, 0, 0, 0, 0, 0
VIBE, 30609989, 0.01817583, 0.01918247, 0.03412171, 0, 0, 0
CTRL, 30609996, 0.003160889, 0.0001629106, 0.0003802611, 0.000163169, 4.88911E-05
PRX, 30610025, 2, 0.63, 0, 0.66, 0, 3.6, 0, 2.37, 0, 0, 0, 0.63
IMU, 30629675, -0.0008039367, 0.001953083, 4.393561E-05, 0.2462876, -0.05683649, -9.81225, 0, 0, 38.59795, 1, 1, 1000, 1000
RFND, 30659530, 0.2, 25, 0, 0
IMU, 30669770, -0.0002656853, -0.0002975749, 0.001489635, 0.232579, -0.04241685, -9.816463, 0, 0, 38.59795, 1, 1, 1000, 1000
MAG, 30709699, 408, 516, 344, 0, 0, 0, 0, 0, 0, 1, 30709690
RFND, 30709735, 0.2, 25, 0, 0
BARO, 30709766, 0.03673435, 993.4609, 36.73, 0.4510695, 30709, 0, 35
CTUN, 30709779, 0, 0, 0, 0.3069316, 0.06727676, 0.06727676, 0.03, 0, 0.19, 0, 0, 0
ATT, 30709837, 0, 0.29, 0, -0.02, 359.76, 359.78, 0, 1
RATE, 30709843, -1.331173, -0.005371195, -0.003435984, 0.1335145, 0.1244853, -0.0003783227, -0.0004747316, -0.043989, -5.43513E-05, 17.85491, 0.6858826, 0
NKF1, 30709850, 0.29, -0.02, 359.77, -0.02193235, 0.001209638, 0.000440862, 0, 0, 0, -0.06727676, -0.02, 0, 0
NKF2, 30709850, 0, 0, 0, 0, 0, 0, 0, 0, 0, 0, 0, 0, 0
NKF3, 30709850, 0, 0, 0, -0.02, 0, 0, 0, 0, 0, 0, 0
NKF4, 30709850, 0, 0, 0, 0, 0, 5.124638E-06, 0, 0, 0, 19, 229, 0, 0
NKF5, 30709850, 0, 0, 0, 0, 0.19, 0.13, 0, 0.19, 0.5, 3.733974E-05, 0.002027405, 0.003920898
NKQ1, 30709850, 0.9999115, 0.002922335, 0.01283029, -0.002004739
AHR2, 30709894, 0.24, -0.05, 359.75, 0.03, 0, 0, 0.9999953, 0.002147405, -0.0004906305, -0.002135579
MOTB, 30709901, 1, 1, 0, 1
RCIN, 30709905, 0, 0, 0, 0, 0, 0, 0, 0, 0, 0, 0, 0, 0, 0
RCOU, 30709911, 1101, 1101, 1101, 1101, 0, 0, 0, 0, 0, 0, 0, 0, 0, 0
VIBE, 30709919, 0.01974249, 0.02022107, 0.03184962, 0, 0, 0
CTRL, 30709925, 0.003139945, 0.000163263, 0.0003442595, 0.0001743097, 4.788766E-05
PRX, 30709957, 2, 0.63, 0, 0.66, 0, 3.6, 0, 2.36, 0, 0, 0, 0.63
IMU, 30709964, -0.0004561042, 0.002163214, -0.000775079, 0.2481785, -0.05292261, -9.812735, 0, 0, 38.59798, 1, 1, 1000, 1000
IMU, 30749812, -0.001294664, 0.0002803981, -0.001049222, 0.2357239, -0.05469298, -9.807734, 0, 0, 38.59795, 1, 1, 1000, 1000
RFND, 30759611, 0.2, 25, 0, 0
IMU, 30789654, 0.0003595426, -0.001613474, -0.0003846624, 0.2488247, -0.04500747, -9.810066, 0, 0, 38.59795, 1, 1, 1000, 1000
MAG, 30809732, 408, 516, 338, 0, 0, 0, 0, 0, 0, 1, 30809723
RFND, 30809763, 0.2, 25, 0, 0
BARO, 30809798, 0.01695432, 993.463, 36.73, 0.0141286, 30809, 0, 35
CTUN, 30809812, 0, 0, 0, 0.3069316, 0.06731139, 0.06731139, 0.01, 0, 0.19, 0, 0, 0
ATT, 30809965, 0, 0.29, 0, -0.03, 359.76, 359.78, 0, 1
RATE, 30809971, -1.335577, -0.0101585, -0.002996562, 0.1482375, -0.01538962, 0.0002238575, -0.00031998, -0.01690461, 3.514396E-05, 8.986539, 0.9583473, 0
NKF1, 30809979, 0.29, -0.03, 359.77, -0.02238156, 0.001624951, 0.0002218898, 0, 0, 0, -0.06731139, -0.02, 0, 0
NKF2, 30809979, 0, 0, 0, 0, 0, 0, 0, 0, 0, 0, 0, 0, 0
NKF3, 30809979, 0, 0, 0, -0.02, 0, 0, 0, 0, 0, 0, 0
NKF4, 30809979, 0, 0, 0, 0, 0, 3.557442E-06, 0, 0, 0, 19, 229, 0, 0
NKF5, 30809979, 0, 0, 0, 0, 0.19, 0.13, 0, 0.19, 0.5, 3.754212E-05, 0.002058309, 0.004022252
NKQ1, 30809979, 0.9999117, 0.002931846, 0.01280183, -0.002027614
AHR2, 30810025, 0.24, -0.05, 359.75, 0.01, 0, 0, 0.9999952, 0.002144034, -0.0005200228, -0.00215849
MOTB, 30810033, 1, 1, 0, 1
RCIN, 30810037, 0, 0, 0, 0, 0, 0, 0, 0, 0, 0, 0, 0, 0, 0
RCOU, 30810043, 1101, 1101, 1101, 1101, 0, 0, 0, 0, 0, 0, 0, 0, 0, 0
VIBE, 30810051, 0.02013093, 0.02177278, 0.02966531, 0, 0, 0
CTRL, 30810058, 0.003158158, 0.0001864619, 0.0003668415, 0.0001962691, 4.512475E-05
PRX, 30810089, 2, 0.63, 0, 0.66, 0, 3.6, 0, 2.37, 0, 0, 0, 0.63
IMU, 30829672, -0.0009170958, 0.0003250602, -0.001508733, 0.2429951, -0.04463854, -9.785404, 0, 0, 38.59795, 1, 1, 1000, 1000
RFND, 30859489, 0.2, 25, 0, 0
IMU, 30869711, 0.0003640217, 0.0006185002, -0.0002599137, 0.2508612, -0.06240002, -9.819372, 0, 0, 38.59802, 1, 1, 1000, 1000
MAG, 30909657, 407, 517, 338, 0, 0, 0, 0, 0, 0, 1, 30909649
RFND, 30909688, 0.2, 25, 0, 0
BARO, 30909722, 0.1215059, 993.4514, 36.73, -0.3602792, 30909, 0, 35
CTUN, 30909735, 0, 0, 0, 0.3069316, 0.0673504, 0.0673504, 0.12, 0, 0.19, 0, 0, 0
DU32, 30909757, 7, 50389208
ATT, 30909855, 0, 0.29, 0, -0.02, 359.76, 359.78, 0, 1
RATE, 30909861, -1.340816, 0.03140833, -0.003264816, 0.1259812, 0.06590036, 0.0005180729, 0.0005789139, 0.01003421, 4.875143E-05, -2.358328, 0.7537842, 0
NKF1, 30909869, 0.29, -0.02, 359.77, -0.02305119, 0.002040613, -5.823033E-05, 0, 0, 0, -0.0673504, -0.02, 0, 0
NKF2, 30909869, 0, 0, 0, 0, 0, 0, 0, 0, 0, 0, 0, 0, 0
NKF3, 30909869, 0, 0, 0, -0.03, 0, 0, 0, 0, 0, 0, 0
NKF4, 30909869, 0, 0, 0, 0, 0, 2.55877E-06, 0, 0, 0, 19, 229, 0, 0
NKF5, 30909869, 0, 0, 0, 0, 0.19, 0.13, 0, 0.19, 0.5, 3.755719E-05, 0.002036842, 0.004013349
NKQ1, 30909869, 0.9999111, 0.002942619, 0.01284519, -0.002043791
AHR2, 30909915, 0.24, -0.05, 359.75, 0.12, 0, 0, 0.9999952, 0.002144095, -0.0004787873, -0.00217472
MOTB, 30909923, 1, 1, 0, 1
RCIN, 30909927, 0, 0, 0, 0, 0, 0, 0, 0, 0, 0, 0, 0, 0, 0
RCOU, 30909933, 1101, 1101, 1101, 1101, 0, 0, 0, 0, 0, 0, 0, 0, 0, 0
VIBE, 30909941, 0.02200714, 0.01968295, 0.02987406, 0, 0, 0
CTRL, 30909981, 0.003164636, 0.000162852, 0.0003366475, 0.0002204871, 5.745587E-05
PRX, 30910013, 2, 0.64, 0, 0.66, 0, 3.6, 0, 2.36, 0, 0, 0, 0.64
IMU, 30910022, 0.0001851681, 0.001140727, 0.0001677903, 0.2406947, -0.04532458, -9.813654, 0, 0, 38.59829, 1, 1, 1000, 1000
IMU, 30949742, -0.0002385274, -0.0001871626, -0.001367847, 0.2569453, -0.06325963, -9.795997, 0, 0, 38.59954, 1, 1, 1000, 1000
RFND, 30959548, 0.2, 25, 0, 0
IMU, 30989625, -0.0004673201, -0.00136806, -0.001457844, 0.2514389, -0.04727488, -9.808763, 0, 0, 38.60123, 1, 1, 1000, 1000
MAG, 31009572, 403, 520, 342, 0, 0, 0, 0, 0, 0, 1, 31009564
RFND, 31009606, 0.2, 25, 0, 0
BARO, 31009684, 0.1695432, 993.4462, 36.73, -0.2755077, 31009, 0, 35
CTUN, 31009699, 0, 0, 0, 0.3069316, 0.06739166, 0.06739166, 0.16, 0, 0.19, 0, 0, 0
ATT, 31009884, 0, 0.29, 0, -0.02, 359.75, 359.77, 0, 1
RATE, 31009891, -1.346675, -0.02392518, -0.003113722, 0.1265207, 0.03355191, -5.303558E-05, 0.0003919833, -0.06008236, 0.0001325664, 23.72415, -1.495838, 0
NKF1, 31009899, 0.29, -0.02, 359.76, -0.02319517, 0.002521614, 0.0005857815, 0, 0, 0, -0.06739166, -0.02, 0, 0
NKF2, 31009899, 0, 0, 0, 0, 0, 0, 0, 0, 0, 0, 0, 0, 0
NKF3, 31009899, 0, 0, 0, -0.03, 0, 0, 0, 0, 0, 0, 0
NKF4, 31009899, 0, 0, 0, 0, 0, 1.893955E-06, 0, 0, 0, 19, 229, 0, 0
NKF5, 31009899, 0, 0, 0, 0, 0.19, 0.13, 0, 0.19, 0.5, 3.751725E-05, 0.002012667, 0.003992518
NKQ1, 31009899, 0.999911, 0.002953452, 0.01284337, -0.002094275
AHR2, 31009943, 0.24, -0.05, 359.74, 0.16, 0, 0, 0.9999951, 0.002146764, -0.0004837564, -0.002225245
MOTB, 31009951, 1, 1, 0, 1
RCIN, 31009956, 0, 0, 0, 0, 0, 0, 0, 0, 0, 0, 0, 0, 0, 0
RCOU, 31009961, 1101, 1101, 1101, 1101, 0, 0, 0, 0, 0, 0, 0, 0, 0, 0
VIBE, 31009970, 0.01809555, 0.02103156, 0.03264638, 0, 0, 0
CTRL, 31009977, 0.003182943, 0.0001550947, 0.0003376264, 0.0002237919, 7.499338E-05
PRX, 31010007, 2, 0.63, 0, 0.66, 0, 3.6, 0, 2.37, 0, 0, 0, 0.63
IMU, 31029542, -7.433277E-05, 0.0002300318, -0.0006316049, 0.2376331, -0.05780638, -9.803129, 0, 0, 38.60264, 1, 1, 1000, 1000
RFND, 31059527, 0.2, 25, 0, 0
IMU, 31069828, 0.0001980683, 0.001062449, -0.0007339929, 0.2429172, -0.03924258, -9.784245, 0, 0, 38.60436, 1, 1, 1000, 1000
MAG, 31109799, 403, 515, 339, 0, 0, 0, 0, 0, 0, 1, 31109791
RFND, 31109833, 0.2, 25, 0, 0
BARO, 31109866, 0.05934011, 993.4584, 36.73, 0.1218592, 31109, 0, 35
CTUN, 31109879, 0, 0, 0, 0.3069316, 0.06737798, 0.06737798, 0.05, 0, 0.19, 0, 0, 0
ATT, 31109936, 0, 0.3, 0, -0.02, 359.75, 359.77, 0, 1
RATE, 31109942, -1.351623, 0.04414322, -0.00372414, 0.1028141, 0.08042384, 8.058219E-05, -0.0005663448, -0.02161974, 9.618062E-05, 68.1316, -1.834297, 0
NKF1, 31109984, 0.3, -0.02, 359.76, -0.02437936, 0.003323394, 0.001682262, 0, 0, 0, -0.06737798, -0.02, 0, 0
NKF2, 31109984, 0, 0, 0, 0, 0, 0, 0, 0, 0, 0, 0, 0, 0
NKF3, 31109984, 0, 0, 0, -0.03, 0, 0, 0, 0, 0, 0, 0
NKF4, 31109984, 0, 0, 0, 0, 0, 1.507087E-06, 0, 0, 0, 19, 229, 0, 0
NKF5, 31109984, 0, 0, 0, 0, 0.19, 0.13, 0, 0.19, 0.5, 3.714514E-05, 0.001949368, 0.003888024
NKQ1, 31109984, 0.9999103, 0.002965821, 0.01288947, -0.002114988
AHR2, 31110029, 0.24, -0.04, 359.74, 0.05, 0, 0, 0.9999951, 0.002151003, -0.0004409243, -0.002246027
MOTB, 31110036, 1, 1, 0, 1
RCIN, 31110041, 0, 0, 0, 0, 0, 0, 0, 0, 0, 0, 0, 0, 0, 0
RCOU, 31110048, 1101, 1101, 1101, 1101, 0, 0, 0, 0, 0, 0, 0, 0, 0, 0
VIBE, 31110056, 0.02244764, 0.01874149, 0.02957371, 0, 0, 0
CTRL, 31110063, 0.003186761, 0.0001627796, 0.000294549, 0.0001986353, 9.352098E-05
PRX, 31110096, 2, 0.63, 0, 0.66, 0, 3.6, 0, 2.34, 0, 0, 0, 0.63
IMU, 31110104, 0.0004069332, 0.001394233, -0.000384686, 0.2416332, -0.04816237, -9.787725, 0, 0, 38.60584, 1, 1, 1000, 1000
IMU, 31149736, -0.0007707092, -0.0007196972, 0.0007652668, 0.2555953, -0.04820342, -9.803097, 0, 0, 38.60709, 1, 1, 1000, 1000
RFND, 31159451, 0.2, 25, 0, 0
IMU, 31189515, -0.001312982, -0.0005180051, 0.0008944835, 0.2391314, -0.04156077, -9.798566, 0, 0, 38.60808, 1, 1, 1000, 1000
MAG, 31209640, 407, 519, 344, 0, 0, 0, 0, 0, 0, 1, 31209633
RFND, 31209675, 0.2, 25, 0, 0
BARO, 31209707, -0.005651439, 993.4656, 36.74, 0.2198763, 31209, 0, 35
CTUN, 31209720, 0, 0, 0, 0.3069316, 0.06727576, 0.06727576, 0, 0, 0.19, 0, 0, 0
ATT, 31209872, 0, 0.29, 0, -0.02, 359.75, 359.77, 0, 1
RATE, 31209878, -1.335803, -0.03120273, -0.003113063, 0.1157643, -0.05792667, 0.0004404106, -0.0003392339, 0.03960406, -7.423118E-05, 70.1071, 0.8874893, 0
NKF1, 31209887, 0.29, -0.02, 359.76, -0.02502666, 0.00432751, 0.00173104, 0, 0, 0, -0.06727576, -0.02, 0, 0
NKF2, 31209887, 0, 0, 0, 0, 0, 0, 0, 0, 0, 0, 0, 0, 0
NKF3, 31209887, 0, 0, 0, -0.03, 0, 0, 0, 0, 0, 0, 0
NKF4, 31209887, 0, 0, 0, 0, 0, 1.263794E-06, 0, 0, 0, 19, 229, 0, 0
NKF5, 31209887, 0, 0, 0, 0, 0.19, 0.13, 0, 0.19, 0.5, 3.676301E-05, 0.001863459, 0.003732507
NKQ1, 31209887, 0.9999108, 0.002932532, 0.0128653, -0.002082527
AHR2, 31209929, 0.24, -0.05, 359.74, 0, 0, 0, 0.9999952, 0.002110535, -0.0004684659, -0.002213039
MOTB, 31209937, 1, 1, 0, 1
RCIN, 31209941, 0, 0, 0, 0, 0, 0, 0, 0, 0, 0, 0, 0, 0, 0
RCOU, 31209998, 1101, 1101, 1101, 1101, 0, 0, 0, 0, 0, 0, 0, 0, 0, 0
VIBE, 31210007, 0.02030502, 0.01772048, 0.03069182, 0, 0, 0
CTRL, 31210013, 0.00315898, 0.0001542678, 0.0003015371, 0.000177501, 8.332133E-05
PRX, 31210044, 2, 0.63, 0, 0.66, 0, 3.6, 0, 2.37, 0, 0, 0, 0.63
IMU, 31229515, -0.001268951, 0.001040296, -0.0008536147, 0.2528091, -0.05599726, -9.821782, 0, 0, 38.60859, 1, 1, 1000, 1000
RFND, 31259496, 0.2, 25, 0, 0
IMU, 31269786, 0.0001850093, 0.001201495, -8.331886E-05, 0.2436114, -0.04917554, -9.804935, 0, 0, 38.60843, 1, 1, 1000, 1000
MAG, 31309887, 409, 517, 340, 0, 0, 0, 0, 0, 0, 1, 31309831
RFND, 31309923, 0.2, 25, 0, 0
BARO, 31309954, -0.02260576, 993.4673, 36.74, -0.1439351, 31309, 0, 35
CTUN, 31309968, 0, 0, 0, 0.3069316, 0.06719934, 0.06719934, -0.02, 0, 0.19, 0, 0, 0
ATT, 31310027, 0, 0.29, 0, -0.02, 359.75, 359.77, 0, 1
RATE, 31310033, -1.339496, -0.01224896, -0.003043205, 0.1070241, -0.0524007, 0.0006323564, 0.0007698704, 0.02883921, 1.134953E-05, 61.92635, 0.0128746, 0
NKF1, 31310041, 0.29, -0.02, 359.76, -0.02580376, 0.004743593, 0.001529046, 0, 0, 0, -0.06719934, -0.02, 0, 0
NKF2, 31310041, 0, 0, 0, 0, 0, 0, 0, 0, 0, 0, 0, 0, 0
NKF3, 31310041, 0, 0, 0, -0.03, 0, 0, 0, 0, 0, 0, 0
NKF4, 31310041, 0, 0, 0, 0, 0, 1.156712E-06, 0, 0, 0, 19, 229, 0, 0
NKF5, 31310041, 0, 0, 0, 0, 0.19, 0.13, 0, 0.19, 0.5, 3.649973E-05, 0.001815536, 0.003641614
NKQ1, 31310041, 0.9999106, 0.002938663, 0.01288219, -0.002094931
AHR2, 31310088, 0.24, -0.05, 359.74, -0.02, 0, 0, 0.9999952, 0.002107086, -0.000455004, -0.002225426
MOTB, 31310095, 1, 1, 0, 1
RCIN, 31310100, 0, 0, 0, 0, 0, 0, 0, 0, 0, 0, 0, 0, 0, 0
RCOU, 31310105, 1101, 1101, 1101, 1101, 0, 0, 0, 0, 0, 0, 0, 0, 0, 0
VIBE, 31310114, 0.01949147, 0.01856473, 0.03333505, 0, 0, 0
CTRL, 31310120, 0.003166368, 0.000164636, 0.0002790062, 0.0002010131, 7.09653E-05
PRX, 31310153, 2, 0.63, 0, 0.66, 0, 3.6, 0, 2.36, 0, 0, 0, 0.63
IMU, 31310161, -0.0005776036, -0.0009239528, 0.000495982, 0.2402398, -0.05080618, -9.806224, 0, 0, 38.60922, 1, 1, 1000, 1000
IMU, 31349607, -2.648377E-05, -0.001012937, -0.001015007, 0.2414883, -0.05059486, -9.797776, 0, 0, 38.61003, 1, 1, 1000, 1000
RFND, 31359475, 0.2, 25, 0, 0
IMU, 31389614, -0.0005928639, 0.0007611463, 0.0005487374, 0.2354737, -0.03737215, -9.822025, 0, 0, 38.61082, 1, 1, 1000, 1000
MAG, 31409767, 404, 512, 340, 0, 0, 0, 0, 0, 0, 1, 31409759
RFND, 31409801, 0.2, 25, 0, 0
BARO, 31409833, -0.07346871, 993.4727, 36.74, -0.4821384, 31409, 0, 35
CTUN, 31409846, 0, 0, 0, 0.3069316, 0.06709906, 0.06709906, -0.07, 0, 0.19, 0, 0, 0
ATT, 31409969, 0, 0.29, 0, -0.02, 359.75, 359.77, 0, 1
RATE, 31409976, -1.344553, 0.07208254, -0.003643809, 0.117337, -0.04169011, 0.0005686167, -0.0002262501, -0.02208684, 3.081113E-05, 58.77903, 0.0658989, 0
NKF1, 31409983, 0.29, -0.02, 359.76, -0.02744662, 0.005855676, 0.001451334, 0, 0, 0, -0.06709906, -0.02, 0, 0
NKF2, 31409983, 0, 0, 0, 0, 0, 0, 0, 0, 0, 0, 0, 0, 0
NKF3, 31409983, 0, 0, 0, -0.04, 0, 0, 0, 0, 0, 0, 0
NKF4, 31409983, 0, 0, 0, 0, 0, 1.12108E-06, 0, 0, 0, 19, 229, 0, 0
NKF5, 31409983, 0, 0, 0, 0, 0.19, 0.13, 0, 0.19, 0.5, 3.63335E-05, 0.001714974, 0.003443755
NKQ1, 31409983, 0.9999108, 0.002950265, 0.01286147, -0.002111772
AHR2, 31410027, 0.24, -0.05, 359.74, -0.07, 0, 0, 0.9999952, 0.002107037, -0.0004792926, -0.002242312
MOTB, 31410034, 1, 1, 0, 1
RCIN, 31410038, 0, 0, 0, 0, 0, 0, 0, 0, 0, 0, 0, 0, 0, 0
RCOU, 31410044, 1101, 1101, 1101, 1101, 0, 0, 0, 0, 0, 0, 0, 0, 0, 0
VIBE, 31410052, 0.0202684, 0.0194695, 0.03078821, 0, 0, 0
CTRL, 31410059, 0.003169564, 0.0001560114, 0.0003023393, 0.0002120502, 6.225618E-05
PRX, 31410090, 2, 0.64, 0, 0.66, 0, 3.6, 0, 2.36, 0, 0, 0, 0.64
IMU, 31429533, -0.001722428, 0.0003178723, 0.0003564133, 0.2408243, -0.05637151, -9.825558, 0, 0, 38.61168, 1, 1, 1000, 1000
RFND, 31459650, 0.2, 25, 0, 0
IMU, 31469686, -0.0006488381, 0.0009764548, -0.0005339921, 0.2348766, -0.04258803, -9.794456, 0, 0, 38.61261, 1, 1, 1000, 1000
MAG, 31509509, 404, 516, 340, 0, 0, 0, 0, 0, 0, 1, 31509501
RFND, 31509543, 0.2, 25, 0, 0
BARO, 31509577, 0.03390864, 993.4612, 36.74, -0.4591794, 31509, 0, 35
CTUN, 31509590, 0, 0, 0, 0.3069316, 0.06704964, 0.06704964, 0.03, 0, 0.19, 0, 0, 0
ATT, 31509647, 0, 0.29, 0, -0.02, 359.75, 359.77, 0, 1
RATE, 31509653, -1.336238, 0.05105823, -0.003438141, 0.1106064, -0.02414435, 0.0001887319, -0.001407735, 0.01047587, 5.047242E-05, 52.42698, -0.2565384, 0
NKF1, 31509660, 0.29, -0.02, 359.76, -0.02851262, 0.006736001, 0.001294493, 0, 0, 0, -0.06704964, -0.02, 0, 0
NKF2, 31509660, 0, 0, 0, 0, 0, 0, 0, 0, 0, 0, 0, 0, 0
NKF3, 31509660, 0, 0, 0, -0.04, 0, 0, 0, 0, 0, 0, 0
NKF4, 31509660, 0, 0, 0, 0, 0, 1.145776E-06, 0, 0, 0, 19, 229, 0, 0
NKF5, 31509660, 0, 0, 0, 0, 0.19, 0.13, 0, 0.19, 0.5, 3.628511E-05, 0.001667247, 0.003343891
NKQ1, 31509660, 0.9999107, 0.002934171, 0.01287488, -0.002115456
AHR2, 31509705, 0.23, -0.05, 359.74, 0.03, 0, 0, 0.9999952, 0.002079813, -0.0004721846, -0.002245688
MOTB, 31509712, 1, 1, 0, 1
RCIN, 31509717, 0, 0, 0, 0, 0, 0, 0, 0, 0, 0, 0, 0, 0, 0
RCOU, 31509723, 1101, 1101, 1101, 1101, 0, 0, 0, 0, 0, 0, 0, 0, 0, 0
VIBE, 31509731, 0.01876878, 0.0193891, 0.03275817, 0, 0, 0
CTRL, 31509737, 0.003151766, 0.0001656536, 0.0002966495, 0.0002173351, 5.399656E-05
PRX, 31509770, 2, 0.64, 0, 0.66, 0, 3.6, 0, 2.38, 0, 0, 0, 0.64
IMU, 31509777, 0.0005277946, -0.0004307142, 0.0001754903, 0.2509227, -0.04661667, -9.803272, 0, 0, 38.61427, 1, 1, 1000, 1000
IMU, 31549738, -0.001075166, 0.0005451685, -0.0002525434, 0.2587463, -0.05031376, -9.809635, 0, 0, 38.61624, 1, 1, 1000, 1000
RFND, 31559606, 0.2, 25, 0, 0
IMU, 31589611, 0.0002315874, 0.0005495767, -0.0003393207, 0.2501146, -0.05826469, -9.822938, 0, 0, 38.6175, 1, 1, 1000, 1000
MAG, 31609656, 407, 517, 340, 0, 0, 0, 0, 0, 0, 1, 31609648
RFND, 31609686, 0.2, 25, 0, 0
BARO, 31609719, 0.06499155, 993.4578, 36.74, -0.1704262, 31609, 0, 35
CTUN, 31609732, 0, 0, 0, 0.3069316, 0.06701566, 0.06701566, 0.06, 0, 0.19, 0, 0, 0
ATT, 31609853, 0, 0.29, 0, -0.02, 359.75, 359.76, 0, 1
RATE, 31609859, -1.322499, -0.07484826, -0.002567496, 0.09513947, 0.03198282, 0.0002237359, 0.00145033, -0.03679487, 8.172094E-05, 39.72484, -0.3193855, 0
NKF1, 31609866, 0.29, -0.02, 359.75, -0.02867497, 0.00644505, 0.0009808602, 0, 0, 0, -0.06701566, -0.02, 0, 0
NKF2, 31609866, 0, 0, 0, 0, 0, 0, 0, 0, 0, 0, 0, 0, 0
NKF3, 31609866, 0, 0, 0, -0.04, 0, 0, 0, 0, 0, 0, 0
NKF4, 31609866, 0, 0, 0, 0, 0, 1.225242E-06, 0, 0, 0, 19, 229, 0, 0
NKF5, 31609866, 0, 0, 0, 0, 0.19, 0.13, 0, 0.19, 0.5, 3.633703E-05, 0.001560876, 0.003121575
NKQ1, 31609866, 0.9999103, 0.00290986, 0.01290425, -0.002143914
AHR2, 31609911, 0.23, -0.05, 359.73, 0.06, 0, 0, 0.9999952, 0.002044939, -0.0004529658, -0.002273729
MOTB, 31609918, 1, 1, 0, 1
RCIN, 31609923, 0, 0, 0, 0, 0, 0, 0, 0, 0, 0, 0, 0, 0, 0
RCOU, 31609929, 1101, 1101, 1101, 1101, 0, 0, 0, 0, 0, 0, 0, 0, 0, 0
VIBE, 31609937, 0.02001923, 0.01723989, 0.03248411, 0, 0, 0
CTRL, 31609943, 0.003140799, 0.0001794897, 0.0002612849, 0.000196252, 5.27024E-05
PRX, 31609974, 2, 0.63, 0, 0.66, 0, 0.59, 0, 2.37, 0, 0, 180, 0.59
IMU, 31629849, -0.001868296, 0.0001848324, -0.001310569, 0.2457956, -0.05068554, -9.807746, 0, 0, 38.61757, 1, 1, 1000, 1000
RFND, 31659590, 0.2, 25, 0, 0
IMU, 31669724, 0.0009235452, 0.001077558, -0.0003705503, 0.2438334, -0.05262759, -9.800806, 0, 0, 38.61843, 1, 1, 1000, 1000
MAG, 31710299, 403, 518, 338, 0, 0, 0, 0, 0, 0, 1, 31710291
RFND, 31710330, 0.2, 25, 0, 0
BARO, 31710363, 0.1554146, 993.4479, 36.75, 0.2065808, 31710, 0, 35
CTUN, 31710452, 0, 0, 0, 0.3069316, 0.0669791, 0.0669791, 0.15, 0, 0.19, 0, 0, 0
ATT, 31710515, 0, 0.29, 0, -0.01, 359.75, 359.76, 0, 1
RATE, 31710520, -1.323048, 0.03503298, -0.003060244, 0.08712587, -0.06848226, 0.0006707769, 0.001924417, 0.04120441, 9.515666E-06, 41.56706, 0.1247406, 0
NKF1, 31710528, 0.29, -0.01, 359.75, -0.02925217, 0.006907715, 0.001026347, 0, 0, 0, -0.0669791, -0.02, 0, 0
NKF2, 31710528, 0, 0, 0, 0, 0, 0, 0, 0, 0, 0, 0, 0, 0
NKF3, 31710528, 0, 0, 0, -0.04, 0, 0, 0, 0, 0, 0, 0
NKF4, 31710528, 0, 0, 0, 0, 0, 1.316529E-06, 0, 0, 0, 19, 229, 0, 0
NKF5, 31710528, 0, 0, 0, 0, 0.19, 0.13, 0, 0.19, 0.5, 3.63975E-05, 0.001519631, 0.003030336
NKQ1, 31710528, 0.9999101, 0.002910061, 0.01292064, -0.0021456
AHR2, 31710573, 0.23, -0.05, 359.73, 0.15, 0, 0, 0.9999952, 0.002037429, -0.0004424609, -0.002275322
MOTB, 31710581, 1, 1, 0, 1
RCIN, 31710586, 0, 0, 0, 0, 0, 0, 0, 0, 0, 0, 0, 0, 0, 0
RCOU, 31710592, 1101, 1101, 1101, 1101, 0, 0, 0, 0, 0, 0, 0, 0, 0, 0
VIBE, 31710601, 0.02105541, 0.01995342, 0.03101146, 0, 0, 0
CTRL, 31710607, 0.003131802, 0.0001807275, 0.0002405362, 0.0002154185, 6.135365E-05
PRX, 31710639, 2, 0.63, 0, 0.66, 0, 0.59, 0, 2.37, 0, 0, 180, 0.59
IMU, 31710647, 0.0002479769, -0.001204486, 0.0007118015, 0.2502758, -0.0607255, -9.807021, 0, 0, 38.61898, 1, 1, 1000, 1000
IMU, 31749664, 0.001678476, 0.0004900635, -0.0009920667, 0.2381432, -0.04599634, -9.822745, 0, 0, 38.62074, 1, 1, 1000, 1000
RFND, 31759479, 0.2, 25, 0, 0
IMU, 31789702, 0.0004862841, -0.0001126563, 0.0006237795, 0.2360571, -0.04912859, -9.807226, 0, 0, 38.6217, 1, 1, 1000, 1000
MAG, 31809730, 405, 522, 340, 0, 0, 0, 0, 0, 0, 1, 31809722
RFND, 31809761, 0.2, 25, 0, 0
BARO, 31809794, 0.1667175, 993.4465, 36.75, 0.4921799, 31809, 0, 35
CTUN, 31809807, 0, 0, 0, 0.3069316, 0.06700516, 0.06700516, 0.16, 0, 0.19, 0, 0, 0
ATT, 31809864, 0, 0.29, 0, -0.02, 359.74, 359.76, 0, 1
RATE, 31809871, -1.339923, 0.01803453, -0.003131, 0.1015064, -0.08424375, 0.0007021879, -0.00143681, 0.01002519, 2.455226E-05, 33.00905, -1.301193, 0
NKF1, 31809879, 0.29, -0.02, 359.75, -0.03037806, 0.007834719, 0.0008150382, 0, 0, 0, -0.06700516, -0.02, 0, 0
NKF2, 31809879, 0, 0, 0, 0, 0, 0, 0, 0, 0, 0, 0, 0, 0
NKF3, 31809879, 0, 0, 0, -0.05, 0, 0, 0, 0, 0, 0, 0
NKF4, 31809879, 0, 0, 0, 0, 0, 1.474544E-06, 0, 0, 0, 19, 229, 0, 0
NKF5, 31809879, 0, 0, 0, 0, 0.19, 0.13, 0, 0.19, 0.5, 3.651719E-05, 0.001411946, 0.002791653
NKQ1, 31809879, 0.9999103, 0.002944076, 0.01289222, -0.002159484
AHR2, 31809924, 0.23, -0.05, 359.73, 0.16, 0, 0, 0.9999952, 0.002066882, -0.0004710294, -0.002289551
MOTB, 31809931, 1, 1, 0, 1
RCIN, 31809935, 0, 0, 0, 0, 0, 0, 0, 0, 0, 0, 0, 0, 0, 0
RCOU, 31809941, 1101, 1101, 1101, 1101, 0, 0, 0, 0, 0, 0, 0, 0, 0, 0
VIBE, 31809950, 0.01879627, 0.01771569, 0.02955254, 0, 0, 0
CTRL, 31809956, 0.003168611, 0.0001870778, 0.0002610415, 0.0002042976, 5.931653E-05
PRX, 31809988, 2, 0.63, 0, 0.66, 0, 3.6, 0, 2.35, 0, 0, 0, 0.63
IMU, 31829671, -0.0003625356, 0.0002738962, -0.0006290282, 0.2390677, -0.05690246, -9.793907, 0, 0, 38.62158, 1, 1, 1000, 1000
RFND, 31859526, 0.2, 25, 0, 0
IMU, 31869759, 0.0001640967, -0.0002696982, -0.0005923379, 0.2424416, -0.0363943, -9.797998, 0, 0, 38.6218, 1, 1, 1000, 1000
MAG, 31909535, 408, 513, 339, 0, 0, 0, 0, 0, 0, 1, 31909527
RFND, 31909564, 0.2, 25, 0, 0
BARO, 31909599, 0.2288833, 993.4397, 36.75, 0.5677316, 31909, 0, 35
CTUN, 31909612, 0, 0, 0, 0.3069316, 0.06696482, 0.06696482, 0.22, 0, 0.19, 0, 0, 0
DU32, 31909633, 7, 50389208
ATT, 31909730, 0, 0.29, 0, -0.02, 359.74, 359.76, 0, 1
RATE, 31909736, -1.340133, 0.01325541, -0.00327695, 0.09867982, 0.08240467, -0.000216197, 0.0006510927, -0.02634919, 2.079734E-05, 32.73624, 2.017689, 0
NKF1, 31909743, 0.29, -0.02, 359.75, -0.03186753, 0.008797166, 0.0008083021, 0, 0, 0, -0.06696482, -0.02, 0, 0
NKF2, 31909743, 0, 0, 0, 0, 0, 0, 0, 0, 0, 0, 0, 0, 0
NKF3, 31909743, 0, 0, 0, -0.05, 0, 0, 0, 0, 0, 0, 0
NKF4, 31909743, 0, 0, 0, 0, 0, 1.612866E-06, 0, 0, 0, 19, 229, 0, 0
NKF5, 31909743, 0, 0, 0, 0, 0.19, 0.13, 0, 0.19, 0.5, 3.669995E-05, 0.001283361, 0.002505706
NKQ1, 31909743, 0.9999101, 0.00294495, 0.01289729, -0.002169524
AHR2, 31909790, 0.23, -0.05, 359.73, 0.22, 0, 0, 0.9999951, 0.002061071, -0.0004687449, -0.002299509
MOTB, 31909797, 1, 1, 0, 1
RCIN, 31909801, 0, 0, 0, 0, 0, 0, 0, 0, 0, 0, 0, 0, 0, 0
RCOU, 31909807, 1101, 1101, 1101, 1101, 0, 0, 0, 0, 0, 0, 0, 0, 0, 0
VIBE, 31909816, 0.01960619, 0.0243279, 0.0317262, 0, 0, 0
CTRL, 31909822, 0.003167134, 0.0001621805, 0.0002709932, 0.0002304192, 4.986727E-05
PRX, 31909854, 2, 0.63, 0, 0.66, 0, 3.6, 0, 2.37, 0, 0, 0, 0.63
IMU, 31909861, -0.0001329107, 0.001429171, -0.0004672476, 0.2353354, -0.0487542, -9.826411, 0, 0, 38.62184, 1, 1, 1000, 1000
IMU, 31949672, -0.0004645811, -0.0003750169, 0.0005052356, 0.2479776, -0.05106706, -9.803841, 0, 0, 38.6229, 1, 1, 1000, 1000
RFND, 31959403, 0.2, 25, 0, 0
IMU, 31989786, -0.001980634, 0.0009024456, 6.939682E-05, 0.2343322, -0.05111704, -9.803478, 0, 0, 38.62498, 1, 1, 1000, 1000
MAG, 32009618, 408, 518, 345, 0, 0, 0, 0, 0, 0, 1, 32009610
RFND, 32009649, 0.2, 25, 0, 0
BARO, 32009683, 0.1017259, 993.4537, 36.75, 0.4574134, 32009, 0, 35
CTUN, 32009697, 0, 0, 0, 0.3069316, 0.0669793, 0.0669793, 0.1, 0, 0.19, 0, 0, 0
ATT, 32009754, 0, 0.29, 0, -0.02, 359.74, 359.76, 0, 1
RATE, 32009761, -1.331008, -0.02473699, -0.003142967, 0.10147, 0.006745179, 0.0002822301, -0.0006320611, 0.01974674, -3.92961E-05, 42.50922, -1.146126, 0
NKF1, 32009768, 0.29, -0.02, 359.75, -0.03333774, 0.009672169, 0.00104961, 0, 0, 0, -0.0669793, -0.02, 0, 0
NKF2, 32009768, 0, 0, 0, 0, 0, 0, 0, 0, 0, 0, 0, 0, 0
NKF3, 32009768, 0, 0, 0, -0.05, 0, 0, 0, 0, 0, 0, 0
NKF4, 32009768, 0, 0, 0, 0, 0, 1.828628E-06, 0, 0, 0, 19, 229, 0, 0
NKF5, 32009768, 0, 0, 0, 0, 0.19, 0.13, 0, 0.19, 0.5, 3.670513E-05, 0.001275249, 0.002478957
NKQ1, 32009768, 0.9999103, 0.002924023, 0.01289265, -0.002156638
AHR2, 32009815, 0.23, -0.05, 359.73, 0.09999999, 0, 0, 0.9999952, 0.002031105, -0.0004799952, -0.002286252
MOTB, 32009822, 1, 1, 0, 1
RCIN, 32009826, 0, 0, 0, 0, 0, 0, 0, 0, 0, 0, 0, 0, 0, 0
RCOU, 32009832, 1101, 1101, 1101, 1101, 0, 0, 0, 0, 0, 0, 0, 0, 0, 0
VIBE, 32009840, 0.02052187, 0.02131255, 0.03772661, 0, 0, 0
CTRL, 32009847, 0.003152076, 0.000164218, 0.0002649931, 0.0002216468, 4.33248E-05
PRX, 32009879, 2, 0.63, 0, 0.66, 0, 3.6, 0, 2.37, 0, 0, 0, 0.63
IMU, 32029650, -0.0001127459, 0.000613357, -0.000562792, 0.2222774, -0.04755253, -9.821476, 0, 0, 38.62712, 1, 1, 1000, 1000
EV, 32056880, 57
RFND, 32059877, 0.2, 25, 0, 0
IMU, 32069852, -0.0003598401, 0.001215654, -0.0005465138, 0.2380776, -0.05337317, -9.785742, 0, 0, 38.628, 1, 1, 1000, 1000
MAG, 32109557, 407, 511, 342, 0, 0, 0, 0, 0, 0, 1, 32109549
RFND, 32109587, 0.2, 25, 0, 0
BARO, 32109622, 0.03956007, 993.4604, 36.75, 0.1630557, 32109, 0, 35
CTUN, 32109635, 0, 0, 0, 0.3069316, 0.06697377, 0.06697377, 0.03, 0, 0.19, 0, 0, 0
ATT, 32109692, 0, 0.29, 0, -0.02, 359.74, 359.76, 0, 1
RATE, 32109697, -1.340364, 0.0434404, -0.003390914, 0.0954696, 0.004827593, 0.0001960283, -0.0002441808, -0.008852938, 2.505417E-05, 42.81201, 0.2025604, 0
NKF1, 32109705, 0.29, -0.02, 359.75, -0.03500644, 0.01026165, 0.001057087, 0, 0, 0, -0.06697377, -0.02, 0, 0
NKF2, 32109705, 0, 0, 0, 0, 0, 0, 0, 0, 0, 0, 0, 0, 0
NKF3, 32109705, 0, 0, 0, -0.06, 0, 0, 0, 0, 0, 0, 0
NKF4, 32109705, 0, 0, 0, 0, 0, 2.021277E-06, 0, 0, 0, 19, 229, 0, 0
NKF5, 32109705, 0, 0, 0, 0, 0.19, 0.13, 0, 0.19, 0.5, 3.707705E-05, 0.001143107, 0.002177269
NKQ1, 32109705, 0.9999101, 0.002941332, 0.01290399, -0.002173383
AHR2, 32109749, 0.23, -0.05, 359.73, 0.03, 0, 0, 0.9999952, 0.002039062, -0.0004774485, -0.002303113
MOTB, 32109757, 1, 1, 0, 1
RCIN, 32109761, 0, 0, 0, 0, 0, 0, 0, 0, 0, 0, 0, 0, 0, 0
RCOU, 32109767, 1113, 1113, 1113, 1113, 0, 0, 0, 0, 0, 0, 0, 0, 0, 0
VIBE, 32109775, 0.02008694, 0.01844814, 0.03309535, 0, 0, 0
CTRL, 32109781, 0.003160415, 0.0001615221, 0.0002497723, 0.0002118748, 3.797439E-05
PRX, 32109813, 2, 0.63, 0, 0.66, 0, 3.6, 0, 2.36, 0, 0, 0, 0.63
IMU, 32109821, 0.0003945935, 7.534502E-05, -0.0001618661, 0.2513181, -0.05431304, -9.807802, 0, 0, 38.62751, 1, 1, 1000, 1000
IMU, 32149806, -0.0009469804, -0.0001163198, -0.0007896449, 0.2474805, -0.05257841, -9.819607, 0, 0, 38.62745, 1, 1, 1000, 1000
RFND, 32159811, 0.2, 25, 0, 0
IMU, 32189738, -0.0001233651, -0.001618885, -0.0008863483, 0.2451007, -0.04236266, -9.81604, 0, 0, 38.62803, 1, 1, 1000, 1000
MAG, 32209570, 409, 516, 343, 0, 0, 0, 0, 0, 0, 1, 32209562
RFND, 32209601, 0.2, 25, 0, 0
BARO, 32209635, 0.07064299, 993.457, 36.75, -0.2449643, 32209, 0, 35
CTUN, 32209647, 0, 0, 0, 0.3069316, 0.0669863, 0.0669863, 0.07, 0, 0.19, 0, 0, 0
ATT, 32209703, 0, 0.29, 0, -0.02, 359.74, 359.76, 0, 1
RATE, 32209710, -1.330619, 0.02631185, -0.003353905, 0.1064773, -0.05180066, 9.961639E-05, -0.0002722832, -0.02442414, 6.47019E-05, 37.95568, -2.081966, 0
NKF1, 32209718, 0.29, -0.02, 359.75, -0.035824, 0.01138058, 0.0009371773, 0, 0, 0, -0.0669863, -0.02, 0, 0
NKF2, 32209718, 0, 0, 0, 0, 0, 0, 0, 0, 0, 0, 0, 0, 0
NKF3, 32209718, 0, 0, 0, -0.06, 0, 0, 0, 0, 0, 0, 0
NKF4, 32209718, 0, 0, 0, 0, 0, 2.264516E-06, 0, 0, 0, 19, 229, 0, 0
NKF5, 32209718, 0, 0, 0, 0, 0.19, 0.13, 0, 0.19, 0.5, 3.693885E-05, 0.001148377, 0.002181771
NKQ1, 32209718, 0.9999104, 0.002927788, 0.01288204, -0.002202203
AHR2, 32209762, 0.23, -0.05, 359.73, 0.07, 0, 0, 0.9999951, 0.002015472, -0.0005117657, -0.002331633
MOTB, 32209769, 1, 1, 0, 1
RCIN, 32209773, 0, 0, 0, 0, 0, 0, 0, 0, 0, 0, 0, 0, 0, 0
RCOU, 32209779, 1137, 1137, 1137, 1137, 0, 0, 0, 0, 0, 0, 0, 0, 0, 0
VIBE, 32209788, 0.02035357, 0.02051244, 0.03323588, 0, 0, 0
CTRL, 32209794, 0.003145557, 0.0001662408, 0.0002866843, 0.0002096666, 4.981089E-05
PRX, 32209826, 2, 0.64, 0, 0.66, 0, 3.6, 0, 2.37, 0, 0, 0, 0.64
IMU, 32229608, 0.0002805014, 0.0005632631, -0.001308284, 0.239513, -0.05538899, -9.799538, 0, 0, 38.62706, 1, 1, 1000, 1000
RFND, 32259630, 0.2, 25, 0, 0
IMU, 32269702, 0.001163647, -0.0008996293, 0.0009595377, 0.2311055, -0.06602634, -9.802717, 0, 0, 38.62583, 1, 1, 1000, 1000
MAG, 32309540, 404, 518, 345, 0, 0, 0, 0, 0, 0, 1, 32309532
RFND, 32309571, 0.2, 25, 0, 0
BARO, 32309604, 0.06781727, 993.4573, 36.76, -0.4433304, 32309, 0, 35
CTUN, 32309618, 0, 0, 0, 0.3069316, 0.06698218, 0.06698218, 0.06, 0, 0.19, 0, 0, 0
ATT, 32309784, 0, 0.3, 0, -0.02, 359.74, 359.76, 0, 1
RATE, 32309791, -1.353483, 0.04665705, -0.003164268, 0.1161493, -0.03491272, 0.000532295, -0.000302332, -0.03547459, 3.847387E-05, 45.96594, 0.8331299, 0
NKF1, 32309799, 0.3, -0.02, 359.75, -0.03693252, 0.01141988, 0.001134961, 0, 0, 0, -0.06698218, -0.02, 0, 0
NKF2, 32309799, 0, 0, 0, 0, 0, 0, 0, 0, 0, 0, 0, 0, 0
NKF3, 32309799, 0, 0, 0, -0.06, 0, 0, 0, 0, 0, 0, 0
NKF4, 32309799, 0, 0, 0, 0, 0, 2.526546E-06, 0, 0, 0, 19, 229, 0, 0
NKF5, 32309799, 0, 0, 0, 0, 0.19, 0.13, 0, 0.19, 0.5, 3.757799E-05, 0.001012178, 0.00186432
NKQ1, 32309799, 0.9999105, 0.002971474, 0.01286308, -0.002207945
AHR2, 32309845, 0.23, -0.06, 359.73, 0.06, 0, 0, 0.9999951, 0.002051373, -0.0005405665, -0.002337818
MOTB, 32309852, 1, 1, 0, 1
RCIN, 32309856, 0, 0, 0, 0, 0, 0, 0, 0, 0, 0, 0, 0, 0, 0
RCOU, 32309862, 1161, 1161, 1161, 1161, 0, 0, 0, 0, 0, 0, 0, 0, 0, 0
VIBE, 32309871, 0.02118994, 0.01972533, 0.03153513, 0, 0, 0
CTRL, 32309878, 0.003197503, 0.0001599592, 0.0002846522, 0.0001968672, 5.789732E-05
PRX, 32309910, 2, 0.63, 0, 0.66, 0, 3.6, 0, 2.36, 0, 0, 0, 0.63
IMU, 32309917, 0.0004506554, -0.0006180969, -0.0006265017, 0.2481025, -0.05111665, -9.81421, 0, 0, 38.62502, 1, 1, 1000, 1000
IMU, 32349580, -0.001141698, -0.001016703, -0.0005288216, 0.2430257, -0.04670248, -9.80488, 0, 0, 38.62532, 1, 1, 1000, 1000
RFND, 32359539, 0.2, 25, 0, 0
IMU, 32389746, -0.0007701227, 9.53799E-05, -0.001806482, 0.2471834, -0.05082918, -9.819397, 0, 0, 38.62609, 1, 1, 1000, 1000
MAG, 32409653, 410, 518, 341, 0, 0, 0, 0, 0, 0, 1, 32409645
RFND, 32409684, 0.2, 25, 0, 0
BARO, 32409718, 0.1921489, 993.4437, 36.76, -0.2419522, 32409, 0, 35
CTUN, 32409730, 0, 0, 0, 0.3069316, 0.06696806, 0.06696806, 0.19, 0, 0.19, 0, 0, 0
ATT, 32409785, 0, 0.29, 0, -0.02, 359.74, 359.76, 0, 1
RATE, 32409791, -1.346704, 8.089505E-05, -0.003141598, 0.126204, -0.005308971, 0.0003718454, -0.0003234513, 0.1662397, 6.449489E-05, 38.98896, -0.2019882, 0
NKF1, 32409799, 0.29, -0.02, 359.75, -0.0379337, 0.01204501, 0.0009626905, 0, 0, 0, -0.06696806, -0.02, 0, 0
NKF2, 32409799, 0, 0, 0, 0, 0, 0, 0, 0, 0, 0, 0, 0, 0
NKF3, 32409799, 0, 0, 0, -0.06, 0, 0, 0, 0, 0, 0, 0
NKF4, 32409799, 0, 0, 0, 0, 0, 2.793151E-06, 0, 0, 0, 19, 229, 0, 0
NKF5, 32409799, 0, 0, 0, 0, 0.19, 0.13, 0, 0.19, 0.5, 3.734734E-05, 0.001031639, 0.001902757
NKQ1, 32409799, 0.9999107, 0.002954746, 0.01284597, -0.002212582
AHR2, 32409843, 0.23, -0.06, 359.73, 0.19, 0, 0, 0.9999951, 0.002029346, -0.000562977, -0.002342132
MOTB, 32409850, 1, 1, 0, 1
RCIN, 32409854, 0, 0, 0, 0, 0, 0, 0, 0, 0, 0, 0, 0, 0, 0
RCOU, 32409860, 1185, 1185, 1185, 1185, 0, 0, 0, 0, 0, 0, 0, 0, 0, 0
VIBE, 32409869, 0.04021328, 0.0395706, 0.04163985, 0, 0, 0
CTRL, 32409875, 0.00318103, 0.0001546604, 0.0003053369, 0.0002031186, 6.499173E-05
PRX, 32409907, 2, 0.64, 0, 0.66, 0, 3.6, 0, 2.36, 0, 0, 0, 0.64
IMU, 32429510, 0.001027893, -0.001011742, -0.005151827, 0.2728996, -0.06897356, -9.797311, 0, 0, 38.62634, 1, 1, 1000, 1000
RFND, 32459725, 0.2, 25, 0, 0
IMU, 32469632, -5.953699E-05, 0.001445534, -0.01447145, 0.1967963, -0.08623633, -9.825903, 0, 0, 38.62623, 1, 1, 1000, 1000
MAG, 32509510, 408, 519, 343, 0, 0, 0, 0, 0, 0, 1, 32509502
RFND, 32509540, 0.2, 25, 0, 0
BARO, 32509574, 0.07912014, 993.4561, 36.76, 0.1103797, 32509, 0, 35
CTUN, 32509588, 0, 0, 0, 0.3069316, 0.0670031, 0.0670031, 0.07, 0, 0.19, 0, 0, 0
ATT, 32509711, 0, 0.29, 0, -0.01, 359.76, 359.78, 0, 1
RATE, 32509717, -1.341923, -0.09623232, -0.003486304, 0.07009298, 0.2014554, 0.0006690617, -0.0001716251, 0.4804543, -0.001224726, 36.26564, -5.165195, 0
NKF1, 32509725, 0.29, -0.01, 359.77, -0.0376156, 0.011514, 0.0008954479, 0, 0, 0, -0.0670031, -0.02, 0, 0
NKF2, 32509725, 0, 0, 0, 0, 0, 0, 0, 0, 0, 0, 0, 0, 0
NKF3, 32509725, 0, 0, 0, -0.07, 0, 0, 0, 0, 0, 0, 0
NKF4, 32509725, 0, 0, 0, 0, 0, 3.129042E-06, 0, 0, 0, 19, 229, 0, 0
NKF5, 32509725, 0, 0, 0, 0, 0.19, 0.13, 0, 0.19, 0.5, 3.827796E-05, 0.0008906232, 0.00156639
NKQ1, 32509725, 0.9999097, 0.002947055, 0.0129583, -0.002036622
AHR2, 32509769, 0.23, -0.05, 359.75, 0.07, 0, 0, 0.9999955, 0.002018066, -0.0004564814, -0.002166016
MOTB, 32509776, 1, 1, 0, 1
RCIN, 32509780, 0, 0, 0, 0, 0, 0, 0, 0, 0, 0, 0, 0, 0, 0
RCOU, 32509786, 1208, 1208, 1208, 1208, 0, 0, 0, 0, 0, 0, 0, 0, 0, 0
VIBE, 32509795, 0.1505257, 0.1717957, 0.1568007, 0, 0, 0
CTRL, 32509801, 0.003156432, 0.0002897304, 0.0003841274, 0.000405068, 0.0003080649
PRX, 32509832, 2, 0.63, 0, 0.66, 0, 3.6, 0, 2.36, 0, 0, 0, 0.63
IMU, 32509840, -0.002043339, 0.003507492, 0.008378157, 0.3296894, -0.1466802, -9.75153, 0, 0, 38.62597, 1, 1, 1000, 1000
IMU, 32549537, -0.002346423, 0.00297903, 0.009500736, 0.2548473, 0.05489668, -9.817164, 0, 0, 38.62656, 1, 1, 1000, 1000
RFND, 32559508, 0.2, 25, 0, 0
IMU, 32589734, -0.001521728, 0.004103045, -0.004630385, 0.2088777, -0.02722449, -9.781743, 0, 0, 38.62669, 1, 1, 1000, 1000
MAG, 32609579, 403, 516, 342, 0, 0, 0, 0, 0, 0, 1, 32609571
RFND, 32609610, 0.2, 25, 0, 0
BARO, 32609643, 0.1073773, 993.4529, 36.76, 0.2410692, 32609, 0, 35
CTUN, 32609656, 0, 0, 0, 0.3069316, 0.06698091, 0.06698091, 0.1, 0, 0.19, 0, 0, 0
ATT, 32609711, 0, 0.29, 0, 0, 359.74, 359.76, 0, 1
RATE, 32609718, -1.32557, -0.261674, -0.001403601, -0.02763814, 0.3118908, -0.001332858, 7.645378E-05, -0.009883094, 0.0002759697, 69.21486, -2.216244, 0
NKF1, 32609726, 0.29, 0, 359.75, -0.03964175, 0.0100342, 0.001709009, 0, 0, 0, -0.06698091, -0.02, 0, 0
NKF2, 32609726, 0, 0, 0, 0, 0, 0, 0, 0, 0, 0, 0, 0, 0
NKF3, 32609726, 0, 0, 0, -0.07, 0, 0, 0, 0, 0, 0, 0
NKF4, 32609726, 0, 0, 0, 0, 0, 3.419674E-06, 0, 0, 0, 19, 229, 0, 0
NKF5, 32609726, 0, 0, 0, 0, 0.19, 0.13, 0, 0.19, 0.5, 3.779941E-05, 0.0009242488, 0.001645259
NKQ1, 32609726, 0.9999071, 0.002914779, 0.01314278, -0.002165036
AHR2, 32609770, 0.22, -0.03, 359.73, 0.09999999, 0, 0, 0.9999954, 0.00197552, -0.0002793836, -0.002293945
MOTB, 32609778, 1, 1, 0, 1
RCIN, 32609782, 0, 0, 0, 0, 0, 0, 0, 0, 0, 0, 0, 0, 0, 0
RCOU, 32609788, 1224, 1223, 1221, 1225, 0, 0, 0, 0, 0, 0, 0, 0, 0, 0
VIBE, 32609797, 0.4931702, 0.6615989, 0.4397834, 0, 0, 0
CTRL, 32609803, 0.003148578, 0.0006197129, 0.0004644271, 0.0006052926, 0.0003480607
PRX, 32609835, 2, 0.63, 0, 0.66, 0, 3.6, 0, 2.37, 0, 0, 0, 0.63
IMU, 32629514, 0.003400153, 0.002069876, -0.0001010407, 0.3011691, -0.08249918, -9.802715, 0, 0, 38.62674, 1, 1, 1000, 1000
RFND, 32659564, 0.2, 25, 0, 0
IMU, 32669985, -0.002663444, 0.00654378, -0.002126179, 0.3399862, 0.04061396, -9.774262, 0, 0, 38.62745, 1, 1, 1000, 1000
MAG, 32709566, 403, 515, 342, 0, 0, 0, 0, 0, 0, 1, 32709558
RFND, 32709597, 0.2, 25, 0, 0
BARO, 32709630, 0.05934011, 993.4584, 36.77, 0.06975994, 32709, 0, 35
CTUN, 32709643, 0, 0, 0, 0.3069316, 0.06696644, 0.06696644, 0.05, 0, 0.19, 0, 0, 0
ATT, 32709793, 0, 0.3, 0, 0.03, 359.74, 359.76, 0, 1
RATE, 32709799, -1.347778, 0.1693397, -0.003838755, -0.1688106, 0.3557752, -0.00175259, 0.0004397118, -0.752742, -0.0005827838, 90.72917, -2.140713, 0
NKF1, 32709806, 0.3, 0.03, 359.75, -0.0403245, 0.01134507, 0.002240227, 0, 0, 0, -0.06696644, -0.02, 0, 0
NKF2, 32709806, 0, 0, 0, 0, 0, 0, 0, 0, 0, 0, 0, 0, 0
NKF3, 32709806, 0, 0, 0, -0.08, 0, 0, 0, 0, 0, 0, 0
NKF4, 32709806, 0, 0, 0, 0, 0, 3.852291E-06, 0, 0, 0, 19, 229, 0, 0
NKF5, 32709806, 0, 0, 0, 0, 0.19, 0.13, 0, 0.19, 0.5, 3.905422E-05, 0.0007856355, 0.001301922
NKQ1, 32709806, 0.9999033, 0.002962992, 0.01340927, -0.002211572
AHR2, 32709850, 0.23, 0, 359.73, 0.05, 0, 0, 0.9999952, 0.002023015, -1.884261E-05, -0.002341056
MOTB, 32709858, 1, 1, 0, 1
RCIN, 32709862, 0, 0, 0, 0, 0, 0, 0, 0, 0, 0, 0, 0, 0, 0
RCOU, 32709868, 1226, 1223, 1221, 1230, 0, 0, 0, 0, 0, 0, 0, 0, 0, 0
VIBE, 32709877, 0.4346318, 0.509761, 0.5423033, 0, 0, 0
CTRL, 32709883, 0.003181624, 0.0007042491, 0.0006842418, 0.0006664121, 0.0004781476
PRX, 32709913, 2, 0.63, 0, 0.66, 0, 3.6, 0, 2.37, 0, 0, 0, 0.63
IMU, 32709921, 0.002591769, 0.006201103, -0.01314517, 0.3819749, -0.204955, -9.779969, 0, 0, 38.62697, 1, 1, 1000, 1000
IMU, 32749544, 0.003733246, 0.005693393, 0.03074437, 0.2134411, -0.1430161, -9.745674, 0, 0, 38.62653, 1, 1, 1000, 1000
RFND, 32759575, 0.2, 25, 0, 0
IMU, 32789719, 0.00715272, 0.008238249, -0.01906761, 0.2894722, 0.03800843, -9.757203, 0, 0, 38.62688, 1, 1, 1000, 1000
MAG, 32809529, 404, 519, 341, 0, 0, 0, 0, 0, 0, 1, 32809521
RFND, 32809560, 0.2, 25, 0, 0
BARO, 32809594, -0.005651439, 993.4655, 36.77, -0.166894, 32809, 0, 35
CTUN, 32809607, 0, 0, 0, 0.3069316, 0.06688438, 0.06688438, 0, 0, 0.19, 0, 0, 0
ATT, 32809664, 0, 0.29, 0, 0.04, 359.76, 359.78, 0, 1
RATE, 32809671, -1.341075, -0.1605432, -0.0009822741, -0.1963188, -0.2498393, 0.0008123117, 0.0005334506, 1.120202, -0.0002752985, 38.96307, 3.348446, 0
NKF1, 32809678, 0.29, 0.04, 359.77, -0.04255077, 0.01085465, 0.0009620511, 0, 0, 0, -0.06688438, -0.02, 0, 0
NKF2, 32809678, 0, 0, 0, 0, 0, 0, 0, 0, 0, 0, 0, 0, 0
NKF3, 32809678, 0, 0, 0, -0.08, 0, 0, 0, 0, 0, 0, 0
NKF4, 32809678, 0, 0, 0, 0, 0, 4.201471E-06, 0, 0, 0, 19, 229, 0, 0
NKF5, 32809678, 0, 0, 0, 0, 0.19, 0.13, 0, 0.19, 0.5, 4.063687E-05, 0.0005927158, 0.0008352256
NKQ1, 32809678, 0.9999028, 0.00294147, 0.01348167, -0.002027529
AHR2, 32809725, 0.23, 0, 359.75, 0, 0, 0, 0.9999956, 0.002019647, 4.967556E-05, -0.002156664
MOTB, 32809732, 1, 1, 0, 1
RCIN, 32809737, 0, 0, 0, 0, 0, 0, 0, 0, 0, 0, 0, 0, 0, 0
RCOU, 32809743, 1224, 1221, 1222, 1223, 0, 0, 0, 0, 0, 0, 0, 0, 0, 0
VIBE, 32809751, 0.4133284, 0.4781704, 0.5242667, 0, 0, 0
CTRL, 32809758, 0.003220775, 0.0009554042, 0.0008579431, 0.001155645, 0.0005496968
PRX, 32809790, 2, 0.63, 0, 0.66, 0, 3.6, 0, 2.36, 0, 0, 0, 0.63
IMU, 32829552, -0.0041138, 0.01158642, -0.03993844, 0.3621087, -0.03547026, -9.751789, 0, 0, 38.62662, 1, 1, 1000, 1000
RFND, 32859996, 0.2, 25, 0, 0
IMU, 32869580, -0.006338543, -0.006178407, 0.005810197, 0.1744787, -0.1035698, -9.804203, 0, 0, 38.62778, 1, 1, 1000, 1000
MAG, 32909537, 408, 519, 339, 0, 0, 0, 0, 0, 0, 1, 32909529
RFND, 32909569, 0.2, 25, 0, 0
BARO, 32909602, -0.02260576, 993.4672, 36.77, -0.3064139, 32909, 0, 35
CTUN, 32909615, 0, 0, 0, 0.3069316, 0.0667985, 0.0667985, -0.02, 0, 0.19, 0, 0, 0
DU32, 32909637, 7, 33611992
ATT, 32909953, 0, 0.3, 0, 0.05, 359.72, 359.74, 0, 1
RATE, 32909962, -1.362235, 0.1816265, -0.005080787, -0.2295369, -0.3625386, 0.003275557, 0.0006140939, -0.07773492, 0.0008156191, 31.63743, -0.7851601, 0
NKF1, 32909971, 0.3, 0.05, 359.73, -0.04520533, 0.01344876, 0.000781171, 0, 0, 0, -0.0667985, -0.02, 0, 0
NKF2, 32909971, 0, 0, 0, 0, 0, 0, 0, 0, 0, 0, 0, 0, 0
NKF3, 32909971, 0, 0, 0, -0.08, 0, 0, 0, 0, 0, 0, 0
NKF4, 32909971, 0, 0, 0, 0, 0, 4.664349E-06, 0, 0, 0, 19, 229, 0, 0
NKF5, 32909971, 0, 0, 0, 0, 0.19, 0.13, 0, 0.19, 0.5, 3.981647E-05, 0.0006877458, 0.001050196
NKQ1, 32909971, 0.9999012, 0.002990013, 0.01353312, -0.002360622
AHR2, 32910019, 0.23, 0.01, 359.71, -0.02, 0, 0, 0.9999948, 0.002077099, 9.307174E-05, -0.002490237
MOTB, 32910027, 1, 1, 0, 1
RCIN, 32910031, 0, 0, 0, 0, 0, 0, 0, 0, 0, 0, 0, 0, 0, 0
RCOU, 32910037, 1235, 1221, 1225, 1228, 0, 0, 0, 0, 0, 0, 0, 0, 0, 0
VIBE, 32910046, 0.412352, 0.4488723, 0.5448229, 0, 0, 0
CTRL, 32910051, 0.003206108, 0.001017397, 0.0009734195, 0.001431171, 0.0006436729
PRX, 32910081, 2, 0.63, 0, 0.66, 0, 3.6, 0, 2.37, 0, 0, 0, 0.63
IMU, 32910090, 0.00280614, -0.006335581, -0.001364074, 0.04871361, -0.05259323, -9.803421, 0, 0, 38.62859, 1, 1, 1000, 1000
IMU, 32949544, 0.0006357502, 0.004352795, 0.008785136, 0.1528149, -0.07495926, -9.830923, 0, 0, 38.628, 1, 1, 1000, 1000
RFND, 32959510, 0.2, 25, 0, 0
IMU, 32989734, -0.002542759, -0.004193014, -0.003297036, 0.4489019, -0.0741999, -9.803193, 0, 0, 38.62685, 1, 1, 1000, 1000
MAG, 33009568, 400, 511, 340, 0, 0, 0, 0, 0, 0, 1, 33009559
RFND, 33009598, 0.2, 25, 0, 0
BARO, 33009631, 0.005651439, 993.4641, 36.77, -0.3620453, 33009, 0, 35
CTUN, 33009645, 0, 0, 0, 0.3069316, 0.06664223, 0.06664223, 0, 0, 0.19, 0, 0, 0
ATT, 33009701, 0, 0.3, 0, 0.06, 359.74, 359.76, 0, 1
RATE, 33009707, -1.387137, 0.2436839, -0.006616675, -0.267345, 0.5631037, -0.002870286, 0.0007367808, 0.5379872, -7.54221E-05, 81.19247, 3.622055, 0
NKF1, 33009715, 0.3, 0.06, 359.75, -0.04451036, 0.01284128, 0.002004752, 0, 0, 0, -0.06664223, -0.02, 0, 0
NKF2, 33009715, 0, 0, 0, 0, 0, 0, 0, 0, 0, 0, 0, 0, 0
NKF3, 33009715, 0, 0, 0, -0.09, 0.01, 0, 0, 0, 0, 0, 0
NKF4, 33009715, 0, 0, 0, 0, 0, 5.108451E-06, 0, 0, 0, 19, 229, 0, 0
NKF5, 33009715, 0, 0, 0, 0, 0.19, 0.13, 0, 0.19, 0.5, 4.196639E-05, 0.0004881441, 0.0006132341
NKQ1, 33009715, 0.9999004, 0.003036053, 0.01361344, -0.002198686
AHR2, 33009759, 0.24, 0.01, 359.73, 0, 0, 0, 0.999995, 0.002132367, 0.0001564336, -0.002328762
MOTB, 33009766, 1, 1, 0, 1
RCIN, 33009770, 0, 0, 0, 0, 0, 0, 0, 0, 0, 0, 0, 0, 0, 0
RCOU, 33009776, 1232, 1226, 1221, 1237, 0, 0, 0, 0, 0, 0, 0, 0, 0, 0
VIBE, 33009785, 0.4212242, 0.4214953, 0.4631925, 0, 0, 0
CTRL, 33009791, 0.003234614, 0.001200267, 0.001029573, 0.0015999, 0.0005533785
PRX, 33009823, 2, 0.63, 0, 0.66, 0, 3.6, 0, 2.35, 0, 0, 0, 0.63
IMU, 33029622, -0.00129359, -0.006609958, -0.007477852, 0.2719947, -0.05058493, -9.75133, 0, 0, 38.62454, 1, 1, 1000, 1000
RFND, 33059682, 0.2, 25, 0, 0
IMU, 33069684, -0.0001930952, 0.002023312, 0.001133862, 0.04706102, -0.08641396, -9.795252, 0, 0, 38.62141, 1, 1, 1000, 1000
MAG, 33109564, 405, 516, 346, 0, 0, 0, 0, 0, 0, 1, 33109556
RFND, 33109595, 0.2, 25, 0, 0
BARO, 33109679, 0.01978004, 993.4625, 36.77, -0.2737416, 33109, 0, 35
CTUN, 33109693, 0, 0, 0, 0.3069316, 0.06637115, 0.06637115, 0.01, 0, 0.19, 0, 0, 0
ATT, 33109847, 0, 0.31, 0, 0.05, 359.72, 359.74, 0, 1
RATE, 33109853, -1.406449, 0.3507456, -0.006759811, -0.239329, 0.2745721, -0.004040212, 0.0006578803, -0.3795695, 3.657054E-05, 147.6422, 2.006626, 0
NKF1, 33109862, 0.31, 0.05, 359.73, -0.04240929, 0.014392, 0.003645487, 0, 0, 0, -0.06637115, -0.02, 0, 0
NKF2, 33109862, 0, 0, 0, 0, 0, 0, 0, 0, 0, 0, 0, 0, 0
NKF3, 33109862, 0, 0, 0, -0.09, 0.01, 0, 0, 0, 0, 0, 0
NKF4, 33109862, 0, 0, 0, 0, 0, 5.598133E-06, 0, 0, 0, 19, 229, 0, 0
NKF5, 33109862, 0, 0, 0, 0, 0.19, 0.13, 0, 0.19, 0.5, 4.082381E-05, 0.0005978784, 0.0008441276
NKQ1, 33109862, 0.9999008, 0.003078801, 0.01354925, -0.002331533
AHR2, 33110498, 0.24, 0.01, 359.71, 0.01, 0, 0, 0.9999946, 0.002171993, 8.718297E-05, -0.002461989
MOTB, 33110509, 1, 1, 0, 1
RCIN, 33110514, 0, 0, 0, 0, 0, 0, 0, 0, 0, 0, 0, 0, 0, 0
RCOU, 33110520, 1233, 1228, 1221, 1239, 0, 0, 0, 0, 0, 0, 0, 0, 0, 0
VIBE, 33110529, 0.4929092, 0.51838, 0.5167621, 0, 0, 0
