FMT, 128, 89, FMT, BBnNZ, Type,Length,Name,Format,Columns
FMT, 129, 31, PARM, QNf, TimeUS,Name,Value
FMT, 130, 46, GPS, QBIHBcLLefffB, TimeUS,Status,GMS,GWk,NSats,HDop,Lat,Lng,Alt,Spd,GCrs,VZ,U
FMT, 131, 46, GPS2, QBIHBcLLefffB, TimeUS,Status,GMS,GWk,NSats,HDop,Lat,Lng,Alt,Spd,GCrs,VZ,U
FMT, 132, 46, GPSB, QBIHBcLLefffB, TimeUS,Status,GMS,GWk,NSats,HDop,Lat,Lng,Alt,Spd,GCrs,VZ,U
FMT, 193, 24, GPA, QCCCCBI, TimeUS,VDop,HAcc,VAcc,SAcc,VV,SMS
FMT, 194, 24, GPA2, QCCCCBI, TimeUS,VDop,HAcc,VAcc,SAcc,VV,SMS
FMT, 195, 24, GPAB, QCCCCBI, TimeUS,VDop,HAcc,VAcc,SAcc,VV,SMS
FMT, 133, 53, IMU, QffffffIIfBBHH, TimeUS,GyrX,GyrY,GyrZ,AccX,AccY,AccZ,EG,EA,T,GH,AH,GHz,AHz
FMT, 134, 75, MSG, QZ, TimeUS,Message
FMT, 135, 39, RCIN, QHHHHHHHHHHHHHH, TimeUS,C1,C2,C3,C4,C5,C6,C7,C8,C9,C10,C11,C12,C13,C14
FMT, 136, 39, RCOU, QHHHHHHHHHHHHHH, TimeUS,C1,C2,C3,C4,C5,C6,C7,C8,C9,C10,C11,C12,C13,C14
FMT, 137, 15, RSSI, Qf, TimeUS,RXRSSI
FMT, 139, 37, BARO, QffcfIff, TimeUS,Alt,Press,Temp,CRt,SMS,Offset,GndTemp
FMT, 140, 22, POWR, QffHB, TimeUS,Vcc,VServo,Flags,Safety
FMT, 143, 45, CMD, QHHHfffffff, TimeUS,CTot,CNum,CId,Prm1,Prm2,Prm3,Prm4,Lat,Lng,Alt
FMT, 144, 20, RAD, QBBBBBHH, TimeUS,RSSI,RemRSSI,TxBuf,Noise,RemNoise,RxErrors,Fixed
FMT, 146, 43, CAM, QIHLLeeeccC, TimeUS,GPSTime,GPSWeek,Lat,Lng,Alt,RelAlt,GPSAlt,Roll,Pitch,Yaw
FMT, 232, 43, TRIG, QIHLLeeeccC, TimeUS,GPSTime,GPSWeek,Lat,Lng,Alt,RelAlt,GPSAlt,Roll,Pitch,Yaw
FMT, 162, 30, ARSP, QffcffB, TimeUS,Airspeed,DiffPress,Temp,RawPress,Offset,U
FMT, 164, 45, CURR, QfffcHHHHHHHHHH, TimeUS,Volt,Curr,CurrTot,Temp,V1,V2,V3,V4,V5,V6,V7,V8,V9,V10
FMT, 165, 45, CUR2, QfffcHHHHHHHHHH, TimeUS,Volt,Curr,CurrTot,Temp,V1,V2,V3,V4,V5,V6,V7,V8,V9,V10
FMT, 163, 27, ATT, QccccCCCC, TimeUS,DesRoll,Roll,DesPitch,Pitch,DesYaw,Yaw,ErrRP,ErrYaw
FMT, 166, 34, MAG, QhhhhhhhhhBI, TimeUS,MagX,MagY,MagZ,OfsX,OfsY,OfsZ,MOfsX,MOfsY,MOfsZ,Health,S
FMT, 169, 14, MODE, QMBB, TimeUS,Mode,ModeNum,Rsn
FMT, 196, 17, RFND, QCBCB, TimeUS,Dist1,Orient1,Dist2,Orient2
FMT, 223, 33, DMS, IIIIIBBBBBBBBBB, TimeMS,N,Dp,RT,RS,Er,Fa,Fmn,Fmx,Pa,Pmn,Pmx,Sa,Smn,Smx
FMT, 240, 41, BCN, QBBfffffff, TimeUS,Health,Cnt,D0,D1,D2,D3,PosX,PosY,PosZ
FMT, 138, 53, IMU2, QffffffIIfBBHH, TimeUS,GyrX,GyrY,GyrZ,AccX,AccY,AccZ,EG,EA,T,GH,AH,GHz,AHz
FMT, 147, 53, IMU3, QffffffIIfBBHH, TimeUS,GyrX,GyrY,GyrZ,AccX,AccY,AccZ,EG,EA,T,GH,AH,GHz,AHz
FMT, 141, 45, AHR2, QccCfLLffff, TimeUS,Roll,Pitch,Yaw,Alt,Lat,Lng,Q1,Q2,Q3,Q4
FMT, 180, 31, POS, QLLfff, TimeUS,Lat,Lng,Alt,RelHomeAlt,RelOriginAlt
FMT, 142, 45, SIM, QccCfLLffff, TimeUS,Roll,Pitch,Yaw,Alt,Lat,Lng,Q1,Q2,Q3,Q4
FMT, 198, 51, NKF1, QccCfffffffccc, TimeUS,Roll,Pitch,Yaw,VN,VE,VD,dPD,PN,PE,PD,GX,GY,GZ
FMT, 199, 35, NKF2, QbccccchhhhhhB, TimeUS,AZbias,GSX,GSY,GSZ,VWN,VWE,MN,ME,MD,MX,MY,MZ,MI
FMT, 200, 33, NKF3, Qcccccchhhcc, TimeUS,IVN,IVE,IVD,IPN,IPE,IPD,IMX,IMY,IMZ,IYAW,IVT
FMT, 201, 35, NKF4, QcccccfbbHBHHb, TimeUS,SV,SP,SH,SM,SVT,errRP,OFN,OFE,FS,TS,SS,GPS,PI
FMT, 202, 40, NKF5, QBhhhcccCCfff, TimeUS,NI,FIX,FIY,AFI,HAGL,offset,RI,rng,Herr,eAng,eVel,ePos
FMT, 203, 51, NKF6, QccCfffffffccc, TimeUS,Roll,Pitch,Yaw,VN,VE,VD,dPD,PN,PE,PD,GX,GY,GZ
FMT, 204, 35, NKF7, QbccccchhhhhhB, TimeUS,AZbias,GSX,GSY,GSZ,VWN,VWE,MN,ME,MD,MX,MY,MZ,MI
FMT, 205, 33, NKF8, Qcccccchhhcc, TimeUS,IVN,IVE,IVD,IPN,IPE,IPD,IMX,IMY,IMZ,IYAW,IVT
FMT, 206, 35, NKF9, QcccccfbbHBHHb, TimeUS,SV,SP,SH,SM,SVT,errRP,OFN,OFE,FS,TS,SS,GPS,PI
FMT, 207, 36, NKF0, QBccCCcccccccc, TimeUS,ID,rng,innov,SIV,TR,BPN,BPE,BPD,OFH,OFL,OFN,OFE,OFD
FMT, 208, 27, NKQ1, Qffff, TimeUS,Q1,Q2,Q3,Q4
FMT, 209, 27, NKQ2, Qffff, TimeUS,Q1,Q2,Q3,Q4
FMT, 210, 51, XKF1, QccCfffffffccc, TimeUS,Roll,Pitch,Yaw,VN,VE,VD,dPD,PN,PE,PD,GX,GY,GZ
FMT, 211, 34, XKF2, QccccchhhhhhB, TimeUS,AX,AY,AZ,VWN,VWE,MN,ME,MD,MX,MY,MZ,MI
FMT, 212, 33, XKF3, Qcccccchhhcc, TimeUS,IVN,IVE,IVD,IPN,IPE,IPD,IMX,IMY,IMZ,IYAW,IVT
FMT, 213, 35, XKF4, QcccccfbbHBHHb, TimeUS,SV,SP,SH,SM,SVT,errRP,OFN,OFE,FS,TS,SS,GPS,PI
FMT, 214, 40, XKF5, QBhhhcccCCfff, TimeUS,NI,FIX,FIY,AFI,HAGL,offset,RI,rng,Herr,eAng,eVel,ePos
FMT, 215, 51, XKF6, QccCfffffffccc, TimeUS,Roll,Pitch,Yaw,VN,VE,VD,dPD,PN,PE,PD,GX,GY,GZ
FMT, 216, 34, XKF7, QccccchhhhhhB, TimeUS,AX,AY,AZ,VWN,VWE,MN,ME,MD,MX,MY,MZ,MI
FMT, 217, 33, XKF8, Qcccccchhhcc, TimeUS,IVN,IVE,IVD,IPN,IPE,IPD,IMX,IMY,IMZ,IYAW,IVT
FMT, 218, 35, XKF9, QcccccfbbHBHHb, TimeUS,SV,SP,SH,SM,SVT,errRP,OFN,OFE,FS,TS,SS,GPS,PI
FMT, 219, 36, XKF0, QBccCCcccccccc, TimeUS,ID,rng,innov,SIV,TR,BPN,BPE,BPD,OFH,OFL,OFN,OFE,OFD
FMT, 220, 27, XKQ1, Qffff, TimeUS,Q1,Q2,Q3,Q4
FMT, 221, 27, XKQ2, Qffff, TimeUS,Q1,Q2,Q3,Q4
FMT, 222, 35, XKFD, Qffffff, TimeUS,IX,IY,IZ,IVX,IVY,IVZ
FMT, 148, 34, TERR, QBLLHffHH, TimeUS,Status,Lat,Lng,Spacing,TerrH,CHeight,Pending,Loaded
FMT, 149, 18, UBX1, QBHBBH, TimeUS,Instance,noisePerMS,jamInd,aPower,agcCnt
FMT, 150, 16, UBX2, QBbBbB, TimeUS,Instance,ofsI,magI,ofsQ,magQ
FMT, 151, 18, UBY1, QBHBBH, TimeUS,Instance,noisePerMS,jamInd,aPower,agcCnt
FMT, 152, 16, UBY2, QBbBbB, TimeUS,Instance,ofsI,magI,ofsQ,magQ
FMT, 170, 42, GRAW, QIHBBddfBbB, TimeUS,WkMS,Week,numSV,sv,cpMes,prMes,doMes,mesQI,cno,lli
FMT, 171, 24, GRXH, QdHbBB, TimeUS,rcvTime,week,leapS,numMeas,recStat
FMT, 172, 41, GRXS, QddfBBBHBBBBB, TimeUS,prMes,cpMes,doMes,gnss,sv,freq,lock,cno,prD,cpD,doD,trk
FMT, 173, 63, SBFE, QIHBBdddfffff, TimeUS,TOW,WN,Mode,Err,Lat,Lng,Height,Undul,Vn,Ve,Vu,COG
FMT, 153, 19, ESC1, Qcccc, TimeUS,RPM,Volt,Curr,Temp
FMT, 154, 19, ESC2, Qcccc, TimeUS,RPM,Volt,Curr,Temp
FMT, 155, 19, ESC3, Qcccc, TimeUS,RPM,Volt,Curr,Temp
FMT, 156, 19, ESC4, Qcccc, TimeUS,RPM,Volt,Curr,Temp
FMT, 157, 19, ESC5, Qcccc, TimeUS,RPM,Volt,Curr,Temp
FMT, 158, 19, ESC6, Qcccc, TimeUS,RPM,Volt,Curr,Temp
FMT, 159, 19, ESC7, Qcccc, TimeUS,RPM,Volt,Curr,Temp
FMT, 160, 19, ESC8, Qcccc, TimeUS,RPM,Volt,Curr,Temp
FMT, 167, 34, MAG2, QhhhhhhhhhBI, TimeUS,MagX,MagY,MagZ,OfsX,OfsY,OfsZ,MOfsX,MOfsY,MOfsZ,Health,S
FMT, 168, 34, MAG3, QhhhhhhhhhBI, TimeUS,MagX,MagY,MagZ,OfsX,OfsY,OfsZ,MOfsX,MOfsY,MOfsZ,Health,S
FMT, 174, 31, ACC1, QQfff, TimeUS,SampleUS,AccX,AccY,AccZ
FMT, 175, 31, ACC2, QQfff, TimeUS,SampleUS,AccX,AccY,AccZ
FMT, 176, 31, ACC3, QQfff, TimeUS,SampleUS,AccX,AccY,AccZ
FMT, 177, 31, GYR1, QQfff, TimeUS,SampleUS,GyrX,GyrY,GyrZ
FMT, 178, 31, GYR2, QQfff, TimeUS,SampleUS,GyrX,GyrY,GyrZ
FMT, 179, 31, GYR3, QQfff, TimeUS,SampleUS,GyrX,GyrY,GyrZ
FMT, 181, 35, PIDR, Qffffff, TimeUS,Des,P,I,D,FF,AFF
FMT, 182, 35, PIDP, Qffffff, TimeUS,Des,P,I,D,FF,AFF
FMT, 183, 35, PIDY, Qffffff, TimeUS,Des,P,I,D,FF,AFF
FMT, 184, 35, PIDA, Qffffff, TimeUS,Des,P,I,D,FF,AFF
FMT, 185, 35, PIDS, Qffffff, TimeUS,Des,P,I,D,FF,AFF
FMT, 186, 35, PIDL, Qffffff, TimeUS,Des,P,I,D,FF,AFF
FMT, 161, 37, BAR2, QffcfIff, TimeUS,Alt,Press,Temp,CRt,SMS,Offset,GndTemp
FMT, 197, 37, BAR3, QffcfIff, TimeUS,Alt,Press,Temp,CRt,SMS,Offset,GndTemp
FMT, 187, 35, VIBE, QfffIII, TimeUS,VibeX,VibeY,VibeZ,Clip0,Clip1,Clip2
FMT, 188, 47, IMT, Qfffffffff, TimeUS,DelT,DelvT,DelaT,DelAX,DelAY,DelAZ,DelVX,DelVY,DelVZ
FMT, 189, 47, IMT2, Qfffffffff, TimeUS,DelT,DelvT,DelaT,DelAX,DelAY,DelAZ,DelVX,DelVY,DelVZ
FMT, 190, 47, IMT3, Qfffffffff, TimeUS,DelT,DelvT,DelaT,DelAX,DelAY,DelAZ,DelVX,DelVY,DelVZ
FMT, 191, 24, ORGN, QBLLe, TimeUS,Type,Lat,Lng,Alt
FMT, 192, 19, RPM, Qff, TimeUS,rpm1,rpm2
FMT, 233, 47, GMB1, Iffffffffff, TimeMS,dt,dax,day,daz,dvx,dvy,dvz,jx,jy,jz
FMT, 234, 44, GMB2, IBfffffffff, TimeMS,es,ex,ey,ez,rx,ry,rz,tx,ty,tz
FMT, 235, 13, GMB3, Ihhh, TimeMS,rl_torque_cmd,el_torque_cmd,az_torque_cmd
FMT, 236, 59, RATE, Qffffffffffff, TimeUS,RDes,R,ROut,PDes,P,POut,YDes,Y,YOut,ADes,A,AOut
FMT, 237, 23, RALY, QBBLLh, TimeUS,Tot,Seq,Lat,Lng,Alt
FMT, 238, 43, VISO, Qffffffff, TimeUS,dt,AngDX,AngDY,AngDZ,PosDX,PosDY,PosDZ,conf
FMT, 224, 23, SBPH, QIII, TimeUS,CrcError,LastInject,IARhyp
FMT, 229, 80, SBR1, QHHBZ, TimeUS,msg_type,sender_id,msg_len,d1
FMT, 230, 205, SBR2, QHZZZ, TimeUS,msg_type,d2,d3,d4
FMT, 25, 41, ATUN, QBBfffffff, TimeUS,Axis,TuneStep,Targ,Min,Max,RP,RD,SP,ddt
FMT, 26, 19, ATDE, Qff, TimeUS,Angle,Rate
FMT, 31, 22, PTUN, QBfHHH, TimeUS,Param,TunVal,CtrlIn,TunLo,TunHi
FMT, 12, 28, OF, QBffff, TimeUS,Qual,flowX,flowY,bodyX,bodyY
FMT, 5, 51, NTUN, Qffffffffff, TimeUS,DPosX,DPosY,PosX,PosY,DVelX,DVelY,VelX,VelY,DAccX,DAccY
FMT, 4, 51, CTUN, Qffffffeccfhh, TimeUS,ThI,ABst,ThO,ThH,DAlt,Alt,BAlt,DSAlt,SAlt,TAlt,DCRt,CRt
FMT, 6, 32, PM, QHHIhBHII, TimeUS,NLon,NLoop,MaxT,PMT,I2CErr,INSErr,LogDrop,Mem
FMT, 30, 27, MOTB, Qffff, TimeUS,LiftMax,BatVolt,BatRes,ThLimit
FMT, 13, 12, EV, QB, TimeUS,Id
FMT, 20, 14, D16, QBh, TimeUS,Id,Value
FMT, 21, 14, DU16, QBH, TimeUS,Id,Value
FMT, 22, 16, D32, QBi, TimeUS,Id,Value
FMT, 23, 16, DU32, QBI, TimeUS,Id,Value
FMT, 24, 16, DFLT, QBf, TimeUS,Id,Value
FMT, 19, 13, ERR, QBB, TimeUS,Subsys,ECode
FMT, 32, 19, HELI, Qff, TimeUS,DRRPM,ERRPM
FMT, 33, 29, PL, QBBffff, TimeUS,Heal,TAcq,pX,pY,vX,vY
FMT, 34, 36, GUID, QBffffff, TimeUS,Type,pX,pY,pZ,vX,vY,vZ
FMT, 35, 32, THRO, QBffffbbbb, TimeUS,Stage,Vel,VelZ,Acc,AccEfZ,Throw,AttOk,HgtOk,PosOk
FMT, 36, 56, PRX, QBfffffffffff, TimeUS,Health,D0,D45,D90,D135,D180,D225,D270,D315,DUp,CAn,CDis
MODE, 54552711, 100, 100, 2
EV, 54570972, 15
FMT, 254, 47, NKT1, QIffffffff, TimeUS,Cnt,IMUMin,IMUMax,EKFMin,EKFMax,AngMin,AngMax,VelMin,VelM
FMT, 253, 31, CTRL, Qfffff, TimeUS,RMSRollP,RMSRollD,RMSPitchP,RMSPitchD,RMSYaw
IMU, 54673522, 0.001087242, 0.001333392, -0.001344654, 0.2530776, 0.0007097522, -9.804511, 0, 0, 36.76171, 1, 1, 1000, 1000
MSG, 54711744, APM:Copter V3.5.7 (38483450)
MSG, 54711749, New mission
MSG, 54711759, Frame: QUAD
MODE, 54711763, Autonomous, 100, 2
IMU, 54713804, 0.0005414644, -0.0006365725, -0.001023827, 0.2432748, 0.003314164, -9.789649, 0, 0, 36.76028, 1, 1, 1000, 1000
RFND, 54741258, 0.2, 25, 0, 0
IMU, 54753792, 0.0007004887, -0.0005168458, 0.00119905, 0.2516195, -0.00663999, -9.828674, 0, 0, 36.76003, 1, 1, 1000, 1000
MAG, 54791532, 355, 562, 385, 0, 0, 0, 0, 0, 0, 1, 54791525
RFND, 54791567, 0.2, 25, 0, 0
BARO, 54791605, -0.4619142, 993.6415, 34.8, -0.3718837, 54791, 0, 34
CTUN, 54791617, 0, 0, 0, 0.3090274, 0.07118891, 0.07118891, -0.46, 0, 0.19, 0, 0, 0
DU32, 54791655, 7, 50356728
ATT, 54791750, 0, -0.05, 0, 0, 57.84, 57.84, 0, 1
RATE, 54791757, 0.2197376, 0.04113521, -1.985749E-05, 0.009025022, 0.05376499, -0.0006920882, 0.00287538, -0.1690774, 0.0003918648, -137.4364, 0.5067825, 0
NKF1, 54791765, -0.05, 0, 57.84, 0.005493612, -0.01005933, -0.00339349, 0, 0, 0, -0.07118891, 0, 0, 0.15
NKF2, 54791765, 0, 0, 0, 0, 0, 0, 0, 0, 0, 0, 0, 0, 0
NKF3, 54791765, 0, 0, 0, 0, 0, 0, 0, 0, 0, 0, 0
NKF4, 54791765, 0, 0, 0, 0, 0, 1.863822E-05, 0, 0, 0, 19, 229, 0, 0
NKF5, 54791765, 0, 0, 0, 0, 0.2, 0.13, 0, 0.19, 0.5, 2.233322E-05, 0.001133975, 0.002273291
NKQ1, 54791765, -0.8751943, 0.006432288, -0.01138536, -0.4835948
AHR2, 54791808, 0.07, 0.12, 67.12, -0.46, 0, 0, 0.8332847, -7.952596E-05, 0.001308114, 0.5528426
MOTB, 54791815, 1, 1, 0, 1
RCIN, 54791819, 0, 0, 0, 0, 0, 0, 0, 0, 0, 0, 0, 0, 0, 0
RCOU, 54791824, 1101, 1101, 1101, 1101, 0, 0, 0, 0, 0, 0, 0, 0, 0, 0
VIBE, 54791833, 0.01820803, 0.01983953, 0.03429742, 0, 0, 0
CTRL, 54791838, 0.0005602044, 0.0001851369, 0.0001272134, 0.0002224834, 0.0004576643
PRX, 54791869, 2, 0.63, 0, 0.85, 0, 3.6, 0, 2.18, 0, 0, 0, 0.63
IMU, 54794116, 0.0008123438, 0.001056448, -0.0009073389, 0.2646952, 0.0002507481, -9.816505, 0, 0, 36.76169, 1, 1, 1000, 1000
IMU, 54834698, 0.0004006946, -0.001069909, -0.0001111796, 0.2469924, -0.0003762162, -9.819835, 0, 0, 36.7626, 1, 1, 1000, 1000
RFND, 54841473, 0.2, 25, 0, 0
IMU, 54874067, 0.0004383393, 0.0003651775, 0.0003682062, 0.255462, -0.0006834733, -9.811855, 0, 0, 36.76158, 1, 1, 1000, 1000
MAG, 54891867, 352, 574, 365, 0, 0, 0, 0, 0, 0, 1, 54891859
RFND, 54891896, 0.2, 25, 0, 0
BARO, 54891936, -0.4450149, 993.6399, 34.81, -0.3942466, 54891, 0, 34
CTUN, 54891949, 0, 0, 0, 0.3090274, 0.07150375, 0.07150375, -0.44, 0, 0.19, 0, 0, 0
ATT, 54892088, 0, -0.04, 0, 0, 57.83, 57.83, 0, 1
RATE, 54892095, 0.2198988, 0.002664955, 0.0004760884, 0.005008639, -0.04663725, 0.0002400394, 0.001092646, -0.1231765, 0.0003944556, -156.2641, 0.9677887, 0
NKF1, 54892102, -0.04, 0, 57.83, 0.005389426, -0.01018076, -0.003858373, 0, 0, 0, -0.07150375, 0, 0, 0.15
NKF2, 54892102, 0, 0, 0, 0, 0, 0, 0, 0, 0, 0, 0, 0, 0
NKF3, 54892102, 0, 0, 0, 0, -0.01, 0, 0, 0, 0, 0, 0
NKF4, 54892102, 0, 0, 0, 0, 0, 1.245072E-05, 0, 0, 0, 19, 229, 0, 0
NKF5, 54892102, 0, 0, 0, 0, 0.2, 0.13, 0, 0.19, 0.5, 1.622264E-05, 0.001362283, 0.002704489
NKQ1, 54892102, -0.8752452, 0.006429126, -0.01139648, -0.4835027
AHR2, 54892149, 0.07, 0.12, 67.12, -0.44, 0, 0, 0.8332667, -7.804899E-05, 0.001309662, 0.5528696
MOTB, 54892157, 1, 1, 0, 1
RCIN, 54892161, 0, 0, 0, 0, 0, 0, 0, 0, 0, 0, 0, 0, 0, 0
RCOU, 54892167, 1101, 1101, 1101, 1101, 0, 0, 0, 0, 0, 0, 0, 0, 0, 0
VIBE, 54892176, 0.01908557, 0.0199866, 0.03587331, 0, 0, 0
CTRL, 54892182, 0.0005374673, 0.0001611608, 0.0001422281, 0.0002624714, 0.0004474321
PRX, 54892212, 2, 0.63, 0, 0.85, 0, 0.64, 0, 2.19, 0, 0, 0, 0.63
IMU, 54913779, -0.0003114965, -0.0007098617, -0.0007031483, 0.2429927, -0.00481451, -9.803703, 0, 0, 36.76042, 1, 1, 1000, 1000
RFND, 54941485, 0.2, 25, 0, 0
IMU, 54953803, -6.268133E-06, -0.0004591506, 0.0003354169, 0.2451804, 0.006248953, -9.79452, 0, 0, 36.75906, 1, 1, 1000, 1000
MAG, 54991526, 351, 572, 369, 0, 0, 0, 0, 0, 0, 1, 54991518
RFND, 54991556, 0.2, 25, 0, 0
BARO, 54991596, -0.4337487, 993.6386, 34.81, -0.2561158, 54991, 0, 34
CTUN, 54991609, 0, 0, 0, 0.3090274, 0.07180618, 0.07180618, -0.43, 0, 0.19, 0, 0, 0
ATT, 54991682, 0, -0.05, 0, 0, 57.82, 57.81, 0, 1
RATE, 54991689, 0.2371394, -0.001634684, 0.0005504237, 0.0108268, 0.002384697, -0.0001299911, 0.001876505, -0.1425405, 0.0004258617, -140.6926, 0.1982689, 0
NKF1, 54991696, -0.05, 0, 57.81, 0.005467297, -0.01104198, -0.003473891, 0, 0, 0, -0.07180618, 0, 0, 0.15
NKF2, 54991696, 0, 0, 0, 0, 0, 0, 0, 0, 0, 0, 0, 0, 0
NKF3, 54991696, 0, 0, 0, 0, -0.01, 0, 0, 0, 0, 0, 0
NKF4, 54991696, 0, 0, 0, 0, 0, 8.369184E-06, 0, 0, 0, 19, 229, 0, 0
NKF5, 54991696, 0, 0, 0, 0, 0.2, 0.13, 0, 0.19, 0.5, 2.092156E-05, 0.001506117, 0.002991369
NKQ1, 54991696, -0.8753099, 0.006436247, -0.01138062, -0.4833855
AHR2, 54991739, 0.07, 0.12, 67.12, -0.43, 0, 0, 0.8332645, -8.424215E-05, 0.001284368, 0.552873
MOTB, 54991746, 1, 1, 0, 1
RCIN, 54991750, 0, 0, 0, 0, 0, 0, 0, 0, 0, 0, 0, 0, 0, 0
RCOU, 54991755, 1101, 1101, 1101, 1101, 0, 0, 0, 0, 0, 0, 0, 0, 0, 0
VIBE, 54991764, 0.0182048, 0.02090424, 0.03314571, 0, 0, 0
CTRL, 54991771, 0.0005504292, 0.0001445606, 0.000125777, 0.0002311064, 0.0004501338
PRX, 54991802, 2, 0.63, 0, 0.85, 0, 0.67, 0, 2.19, 0, 0, 0, 0.63
IMU, 54993811, -2.67913E-05, -0.0001965895, 0.0001950207, 0.2545601, -0.01106289, -9.807636, 0, 0, 36.75748, 1, 1, 1000, 1000
IMU, 55033916, 0.0004092721, -0.0006305509, -0.0002148149, 0.2673672, -0.006012317, -9.787645, 0, 0, 36.75595, 1, 1, 1000, 1000
RFND, 55041598, 0.2, 25, 0, 0
IMU, 55073800, 0.000787268, 0.0001409019, -7.415735E-05, 0.243574, -0.01426399, -9.804079, 0, 0, 36.75435, 1, 1, 1000, 1000
MAG, 55091851, 356, 572, 374, 0, 0, 0, 0, 0, 0, 1, 55091843
RFND, 55091880, 0.2, 25, 0, 0
BARO, 55091920, -0.5464106, 993.6511, 34.81, -0.1071877, 55091, 0, 34
CTUN, 55091933, 0, 0, 0, 0.3090274, 0.07201744, 0.07201744, -0.54, 0, 0.19, 0, 0, 0
ATT, 55092068, 0, -0.05, 0, 0, 57.8, 57.8, 0, 1
RATE, 55092075, 0.2194396, 0.02780642, 0.0003305226, 0.01393881, 0.01003154, 2.171257E-05, 0.001307882, -0.1794512, 0.0004760946, -129.5411, 0.7015228, 0
NKF1, 55092082, -0.05, 0, 57.8, 0.006263034, -0.01187021, -0.003198546, 0, 0, 0, -0.07201744, 0, 0, 0.15
NKF2, 55092082, 0, 0, 0, 0, 0, 0, 0, 0, 0, 0, 0, 0, 0
NKF3, 55092082, 0, 0, 0, 0, -0.01, 0, 0, 0, 0, 0, 0
NKF4, 55092082, 0, 0, 0, 0, 0, 5.580084E-06, 0, 0, 0, 19, 229, 0, 0
NKF5, 55092082, 0, 0, 0, 0, 0.2, 0.13, 0, 0.19, 0.5, 2.818936E-05, 0.001593019, 0.003195185
NKQ1, 55092082, -0.8753753, 0.006421241, -0.01138042, -0.4832673
AHR2, 55092126, 0.07, 0.12, 67.12, -0.54, 0, 0, 0.8332632, -6.868636E-05, 0.001276752, 0.5528751
MOTB, 55092133, 1, 1, 0, 1
RCIN, 55092137, 0, 0, 0, 0, 0, 0, 0, 0, 0, 0, 0, 0, 0, 0
RCOU, 55092142, 1101, 1101, 1101, 1101, 0, 0, 0, 0, 0, 0, 0, 0, 0, 0
VIBE, 55092151, 0.02033852, 0.01974444, 0.031135, 0, 0, 0
CTRL, 55092157, 0.0005420329, 0.0001307233, 0.0001346309, 0.0002398748, 0.000453174
PRX, 55092187, 2, 0.63, 0, 0.85, 0, 0.67, 0, 2.19, 0, 0, 0, 0.63
IMU, 55113821, 0.0004741806, 2.816557E-05, -1.32176E-06, 0.2529767, 0.002182486, -9.816526, 0, 0, 36.7538, 1, 1, 1000, 1000
RFND, 55141499, 0.2, 25, 0, 0
IMU, 55154207, 0.000411082, -0.001251057, -0.001045533, 0.2617102, -0.0009250905, -9.80805, 0, 0, 36.75482, 1, 1, 1000, 1000
MAG, 55191531, 355, 571, 370, 0, 0, 0, 0, 0, 0, 1, 55191522
RFND, 55191561, 0.2, 25, 0, 0
BARO, 55191600, -0.5295113, 993.6494, 34.81, -0.1284406, 55191, 0, 34
CTUN, 55191613, 0, 0, 0, 0.3090274, 0.07227226, 0.07227226, -0.52, 0, 0.19, 0, 0, 0
ATT, 55191690, 0, -0.04, 0, 0, 57.79, 57.78, 0, 1
RATE, 55191696, 0.2186068, 0.0376543, 0.0005706346, 0.02291194, -0.007994486, -5.243077E-05, 0.002721734, -0.09156641, 0.0004801204, -142.5594, -0.1263618, 0
NKF1, 55191703, -0.04, 0, 57.78, 0.006628354, -0.01224637, -0.003519985, 0, 0, 0, -0.07227226, 0, 0, 0.15
NKF2, 55191703, 0, 0, 0, 0, 0, 0, 0, 0, 0, 0, 0, 0, 0
NKF3, 55191703, 0, 0, 0, 0, -0.01, 0, 0, 0, 0, 0, 0
NKF4, 55191703, 0, 0, 0, 0, 0, 3.78698E-06, 0, 0, 0, 19, 229, 0, 0
NKF5, 55191703, 0, 0, 0, 0, 0.2, 0.13, 0, 0.19, 0.5, 3.382121E-05, 0.001632519, 0.003285778
NKQ1, 55191703, -0.8754372, 0.006396679, -0.01137539, -0.4831558
AHR2, 55191747, 0.07, 0.12, 67.13, -0.52, 0, 0, 0.8332577, -3.742615E-05, 0.001265726, 0.5528834
MOTB, 55191753, 1, 1, 0, 1
RCIN, 55191757, 0, 0, 0, 0, 0, 0, 0, 0, 0, 0, 0, 0, 0, 0
RCOU, 55191763, 1101, 1101, 1101, 1101, 0, 0, 0, 0, 0, 0, 0, 0, 0, 0
VIBE, 55191771, 0.01928991, 0.02029698, 0.02977416, 0, 0, 0
CTRL, 55191777, 0.0005142739, 0.0001236324, 0.0001319461, 0.000215509, 0.0004634087
PRX, 55191809, 2, 0.63, 0, 0.85, 0, 3.6, 0, 2.19, 0, 0, 0, 0.63
IMU, 55193801, 0.0006214956, -0.0003108033, 0.001094501, 0.2496513, -0.01091605, -9.804544, 0, 0, 36.75594, 1, 1, 1000, 1000
IMU, 55233812, -0.0002393007, 0.0001728711, -0.001639465, 0.2579125, -0.0008064555, -9.801806, 0, 0, 36.75642, 1, 1, 1000, 1000
RFND, 55241964, 0.2, 25, 0, 0
IMU, 55274005, 0.000590839, 0.001470248, -1.273934E-05, 0.2517617, 0.0005941791, -9.816876, 0, 0, 36.75609, 1, 1, 1000, 1000
MAG, 55291880, 353, 574, 370, 0, 0, 0, 0, 0, 0, 1, 55291871
RFND, 55291914, 0.2, 25, 0, 0
BARO, 55291951, -0.4562811, 993.6414, 34.82, -0.2482084, 55291, 0, 34
CTUN, 55291964, 0, 0, 0, 0.3090274, 0.07251823, 0.07251823, -0.45, 0, 0.19, 0, 0, 0
ATT, 55292038, 0, -0.04, 0, 0, 57.77, 57.77, 0, 1
RATE, 55292045, 0.2195108, 0.0715621, 0.0001590815, 0.01291681, 0.07541641, -0.0002914225, 0.0009697346, -0.1453322, 0.0004828017, -164.798, 0.7588387, 0
NKF1, 55292053, -0.04, 0, 57.77, 0.007040563, -0.01279712, -0.004069088, 0, 0, 0, -0.07251823, 0, 0, 0.15
NKF2, 55292053, 0, 0, 0, 0, 0, 0, 0, 0, 0, 0, 0, 0, 0
NKF3, 55292053, 0, 0, 0, 0, -0.01, 0, 0, 0, 0, 0, 0
NKF4, 55292053, 0, 0, 0, 0, 0, 2.601617E-06, 0, 0, 0, 19, 229, 0, 0
NKF5, 55292053, 0, 0, 0, 0, 0.2, 0.13, 0, 0.19, 0.5, 3.72793E-05, 0.001643875, 0.003341997
NKQ1, 55292053, -0.8755019, 0.006409011, -0.0113904, -0.483038
AHR2, 55292098, 0.07, 0.12, 67.13, -0.45, 0, 0, 0.8332556, -4.271453E-05, 0.001271821, 0.5528865
MOTB, 55292105, 1, 1, 0, 1
RCIN, 55292109, 0, 0, 0, 0, 0, 0, 0, 0, 0, 0, 0, 0, 0, 0
RCOU, 55292114, 1101, 1101, 1101, 1101, 0, 0, 0, 0, 0, 0, 0, 0, 0, 0
VIBE, 55292123, 0.01912818, 0.02309597, 0.03460324, 0, 0, 0
CTRL, 55292129, 0.0005250455, 0.0001516487, 0.0001279199, 0.000206217, 0.0004712148
PRX, 55292160, 2, 0.63, 0, 0.85, 0, 3.6, 0, 2.19, 0, 0, 0, 0.63
IMU, 55316897, 0.001850677, 0.0002070383, 0.0006413309, 0.2565037, -0.0003918232, -9.793553, 0, 0, 36.75705, 1, 1, 1000, 1000
RFND, 55343158, 0.2, 25, 0, 0
IMU, 55355627, 0.0004504964, -0.0002935189, -0.001650123, 0.2453084, -0.001435544, -9.80941, 0, 0, 36.75761, 1, 1, 1000, 1000
MAG, 55393031, 351, 571, 371, 0, 0, 0, 0, 0, 0, 1, 55393023
RFND, 55393065, 0.2, 25, 0, 0
BARO, 55393104, -0.3999501, 993.6345, 34.82, -0.1444125, 55393, 0, 34
CTUN, 55393117, 0, 0, 0, 0.3090274, 0.07280767, 0.07280767, -0.39, 0, 0.19, 0, 0, 0
ATT, 55393189, 0, -0.04, 0, 0, 57.75, 57.75, 0, 1
RATE, 55393195, 0.2009594, 0.1099764, -0.0002690808, 0.002476782, 0.02602129, -0.0001880641, -0.0007977557, -0.1252772, 0.0004981802, -171.7305, -0.2168655, 0
NKF1, 55393202, -0.04, 0, 57.75, 0.007224235, -0.01331341, -0.004240259, 0, 0, 0, -0.07280767, 0, 0, 0.15
NKF2, 55393202, 0, 0, 0, 0, 0, 0, 0, 0, 0, 0, 0, 0, 0
NKF3, 55393202, 0, 0, 0, 0, -0.01, 0, 0, 0, 0, 0, 0
NKF4, 55393202, 0, 0, 0, 0, 0, 1.813487E-06, 0, 0, 0, 19, 229, 0, 0
NKF5, 55393202, 0, 0, 0, 0, 0.2, 0.13, 0, 0.19, 0.5, 3.908826E-05, 0.001629743, 0.003317654
NKQ1, 55393202, -0.8755642, 0.006391571, -0.01142297, -0.4829247
AHR2, 55393245, 0.08, 0.12, 67.13, -0.39, 0, 0, 0.8332497, -2.256369E-05, 0.001300137, 0.5528954
MOTB, 55393252, 1, 1, 0, 1
RCIN, 55393256, 0, 0, 0, 0, 0, 0, 0, 0, 0, 0, 0, 0, 0, 0
RCOU, 55393261, 1101, 1101, 1101, 1101, 0, 0, 0, 0, 0, 0, 0, 0, 0, 0
VIBE, 55393270, 0.02025001, 0.01950604, 0.02979656, 0, 0, 0
CTRL, 55393276, 0.0005011561, 0.0002323783, 0.0001120406, 0.0001807411, 0.0004719016
PRX, 55393307, 2, 0.63, 0, 0.86, 0, 3.6, 0, 2.19, 0, 0, 0, 0.63
IMU, 55395552, 0.001817834, 0.0003073636, 0.0008296321, 0.2505684, 0.002953955, -9.804795, 0, 0, 36.75726, 1, 1, 1000, 1000
IMU, 55435284, -5.447861E-05, -0.0001295911, 0.001394015, 0.2529337, -0.00209242, -9.794041, 0, 0, 36.75804, 1, 1, 1000, 1000
RFND, 55443184, 0.2, 25, 0, 0
IMU, 55475696, -0.0003577832, 0.0006587235, 0.0008401665, 0.2525363, 0.002097656, -9.819086, 0, 0, 36.75868, 1, 1, 1000, 1000
MAG, 55493271, 352, 571, 370, 0, 0, 0, 0, 0, 0, 1, 55493263
RFND, 55493304, 0.2, 25, 0, 0
BARO, 55493414, -0.3041874, 993.6244, 34.82, 0.2267279, 55493, 0, 34
CTUN, 55493429, 0, 0, 0, 0.3090274, 0.07298928, 0.07298928, -0.3, 0, 0.19, 0, 0, 0
ATT, 55493505, 0, -0.04, 0, 0, 57.74, 57.74, 0, 1
RATE, 55493511, 0.2009164, 0.02309194, 0.0002000692, -0.007615755, -0.001083577, 0.0001150569, -0.001120542, -0.1186264, 0.0003803136, -147.0866, -0.1246452, 0
NKF1, 55493520, -0.04, 0, 57.74, 0.006883597, -0.01389411, -0.003631767, 0, 0, 0, -0.07298928, 0, 0, 0.15
NKF2, 55493520, 0, 0, 0, 0, 0, 0, 0, 0, 0, 0, 0, 0, 0
NKF3, 55493520, 0, 0, 0, 0, -0.01, 0, 0, 0, 0, 0, 0
NKF4, 55493520, 0, 0, 0, 0, 0, 1.309144E-06, 0, 0, 0, 19, 229, 0, 0
NKF5, 55493520, 0, 0, 0, 0, 0.2, 0.13, 0, 0.19, 0.5, 3.942501E-05, 0.001601235, 0.003288008
NKQ1, 55493520, -0.8756077, 0.006404886, -0.01143857, -0.4828451
AHR2, 55493570, 0.07, 0.12, 67.13, -0.3, 0, 0, 0.8332235, -3.209211E-05, 0.001310025, 0.5529348
MOTB, 55493577, 1, 1, 0, 1
RCIN, 55493582, 0, 0, 0, 0, 0, 0, 0, 0, 0, 0, 0, 0, 0, 0
RCOU, 55493587, 1101, 1101, 1101, 1101, 0, 0, 0, 0, 0, 0, 0, 0, 0, 0
VIBE, 55493596, 0.02006006, 0.01913741, 0.03070373, 0, 0, 0
CTRL, 55493603, 0.0004964492, 0.0002287403, 0.0001156139, 0.0001782472, 0.0004497183
PRX, 55493634, 2, 0.63, 0, 0.85, 0, 3.6, 0, 2.19, 0, 0, 0, 0.63
IMU, 55515443, 0.0003888817, 0.0009038555, 0.001210124, 0.2544343, -0.003876746, -9.805407, 0, 0, 36.75775, 1, 1, 1000, 1000
RFND, 55542749, 0.2, 25, 0, 0
IMU, 55555104, 0.001101217, -0.0003395597, 0.0002835442, 0.2485061, 0.0003376014, -9.809585, 0, 0, 36.75797, 1, 1, 1000, 1000
MAG, 55592782, 353, 575, 372, 0, 0, 0, 0, 0, 0, 1, 55592711
RFND, 55592816, 0.2, 25, 0, 0
BARO, 55592852, -0.3717846, 993.6316, 34.82, 0.5210395, 55592, 0, 34
CTUN, 55592865, 0, 0, 0, 0.3090274, 0.07319106, 0.07319106, -0.37, 0, 0.19, 0, 0, 0
ATT, 55592930, 0, -0.04, 0, 0, 57.73, 57.73, 0, 1
RATE, 55592936, 0.2002851, -0.07056589, 0.0008106439, -0.01861923, -0.01280946, 0.0001904441, 0.001737769, -0.1332929, 0.0004201008, -163.7108, 0.3302574, 0
NKF1, 55592944, -0.04, 0, 57.73, 0.006729805, -0.01455903, -0.004042242, 0, 0, 0, -0.07319106, 0, 0, 0.15
NKF2, 55592944, 0, 0, 0, 0, 0, 0, 0, 0, 0, 0, 0, 0, 0
NKF3, 55592944, 0, 0, 0, 0, -0.01, 0, 0, 0, 0, 0, 0
NKF4, 55592944, 0, 0, 0, 0, 0, 9.749515E-07, 0, 0, 0, 19, 229, 0, 0
NKF5, 55592944, 0, 0, 0, 0, 0.2, 0.13, 0, 0.19, 0.5, 3.912146E-05, 0.001563663, 0.003246585
NKQ1, 55592944, -0.8756658, 0.00640349, -0.01146352, -0.482739
AHR2, 55592988, 0.08, 0.12, 67.13, -0.37, 0, 0, 0.8332142, -2.894088E-05, 0.001325182, 0.5529488
MOTB, 55592995, 1, 1, 0, 1
RCIN, 55593000, 0, 0, 0, 0, 0, 0, 0, 0, 0, 0, 0, 0, 0, 0
RCOU, 55593005, 1101, 1101, 1101, 1101, 0, 0, 0, 0, 0, 0, 0, 0, 0, 0
VIBE, 55593014, 0.02073257, 0.01665915, 0.03401557, 0, 0, 0
CTRL, 55593020, 0.0004734048, 0.0002098754, 0.0001244429, 0.0001958357, 0.000432941
PRX, 55593052, 2, 0.63, 0, 0.85, 0, 3.6, 0, 2.19, 0, 0, 0, 0.63
IMU, 55595188, -0.001159851, -0.0003333903, 0.0003100022, 0.2452168, 0.003353092, -9.807881, 0, 0, 36.75772, 1, 1, 1000, 1000
IMU, 55635302, -0.001230952, -0.0004437543, 0.0007480915, 0.2588124, -0.01609701, -9.817245, 0, 0, 36.7572, 1, 1, 1000, 1000
RFND, 55642695, 0.2, 25, 0, 0
IMU, 55675187, 0.0001455363, -0.000244466, 0.001041896, 0.2485117, -0.003428448, -9.804605, 0, 0, 36.75619, 1, 1, 1000, 1000
MAG, 55692973, 356, 572, 374, 0, 0, 0, 0, 0, 0, 1, 55692965
RFND, 55693007, 0.2, 25, 0, 0
BARO, 55693044, -0.3717846, 993.6319, 34.82, 0.4863496, 55693, 0, 34
CTUN, 55693056, 0, 0, 0, 0.3090274, 0.07339469, 0.07339469, -0.37, 0, 0.19, 0, 0, 0
ATT, 55693129, 0, -0.04, 0, 0, 57.72, 57.71, 0, 1
RATE, 55693136, 0.1993355, 0.02913526, 0.0002988506, -0.02743802, 0.03508916, -0.0002127654, 0.001799207, -0.1904397, 0.0004490872, -163.2651, 0.3581047, 0
NKF1, 55693144, -0.04, 0, 57.71, 0.007097668, -0.01524854, -0.004031236, 0, 0, 0, -0.07339469, 0, 0, 0.15
NKF2, 55693144, 0, 0, 0, 0, 0, 0, 0, 0, 0, 0, 0, 0, 0
NKF3, 55693144, 0, 0, 0, 0, -0.01, 0, 0, 0, 0, 0, 0
NKF4, 55693144, 0, 0, 0, 0, 0, 7.817121E-07, 0, 0, 0, 19, 229, 0, 0
NKF5, 55693144, 0, 0, 0, 0, 0.2, 0.13, 0, 0.19, 0.5, 3.864562E-05, 0.001509554, 0.003118017
NKQ1, 55693144, -0.8757299, 0.006421196, -0.01147549, -0.4826223
AHR2, 55693189, 0.07, 0.12, 67.13, -0.37, 0, 0, 0.8332113, -4.42024E-05, 0.001324268, 0.5529532
MOTB, 55693196, 1, 1, 0, 1
RCIN, 55693200, 0, 0, 0, 0, 0, 0, 0, 0, 0, 0, 0, 0, 0, 0
RCOU, 55693205, 1101, 1101, 1101, 1101, 0, 0, 0, 0, 0, 0, 0, 0, 0, 0
VIBE, 55693214, 0.01968294, 0.01700791, 0.0350092, 0, 0, 0
CTRL, 55693220, 0.0004919454, 0.0001887893, 0.0001292851, 0.0001997458, 0.0004381665
PRX, 55693250, 2, 0.63, 0, 0.85, 0, 0.66, 0, 2.18, 0, 0, 0, 0.63
IMU, 55715191, 0.0002767297, -0.0001591723, 0.0008333852, 0.2529722, -0.01082258, -9.795712, 0, 0, 36.75563, 1, 1, 1000, 1000
RFND, 55742827, 0.2, 25, 0, 0
IMU, 55755140, 0.0002434343, -2.166548E-05, 0.0004295016, 0.2367903, -0.01601446, -9.792916, 0, 0, 36.75639, 1, 1, 1000, 1000
MAG, 55792873, 350, 572, 373, 0, 0, 0, 0, 0, 0, 1, 55792865
RFND, 55792906, 0.2, 25, 0, 0
BARO, 55792943, -0.3605184, 993.6305, 34.83, 0.2020473, 55792, 0, 34
CTUN, 55792955, 0, 0, 0, 0.3090274, 0.07354996, 0.07354996, -0.36, 0, 0.19, 0, 0, 0
DU32, 55792995, 7, 50356728
ATT, 55793088, 0, -0.04, 0, 0, 57.7, 57.7, 0, 1
RATE, 55793094, 0.2175472, -0.01060077, 0.000503587, -0.03435295, 0.046972, -0.000354787, 0.001937498, -0.2001895, 0.0004896236, -146.1154, 0.3728867, 0
NKF1, 55793103, -0.04, 0, 57.7, 0.007521507, -0.01689182, -0.003607787, 0, 0, 0, -0.07354996, 0, 0, 0.15
NKF2, 55793103, 0, 0, 0, 0, 0, 0, 0, 0, 0, 0, 0, 0, 0
NKF3, 55793103, 0, 0, 0, 0.01, -0.02, 0, 0, 0, 0, 0, 0
NKF4, 55793103, 0, 0, 0, 0, 0, 6.668893E-07, 0, 0, 0, 19, 229, 0, 0
NKF5, 55793103, 0, 0, 0, 0, 0.2, 0.13, 0, 0.19, 0.5, 3.779411E-05, 0.0014584, 0.00304304
NKQ1, 55793103, -0.8757912, 0.00642825, -0.01148203, -0.4825107
AHR2, 55793147, 0.07, 0.12, 67.14, -0.36, 0, 0, 0.8332061, -4.806054E-05, 0.001320995, 0.5529611
MOTB, 55793153, 1, 1, 0, 1
RCIN, 55793158, 0, 0, 0, 0, 0, 0, 0, 0, 0, 0, 0, 0, 0, 0
RCOU, 55793163, 1101, 1101, 1101, 1101, 0, 0, 0, 0, 0, 0, 0, 0, 0, 0
VIBE, 55793171, 0.02078683, 0.02098283, 0.03411462, 0, 0, 0
CTRL, 55793178, 0.0004968587, 0.000177539, 0.000118699, 0.0001803804, 0.0004418968
PRX, 55793209, 2, 0.63, 0, 0.85, 0, 0.66, 0, 2.19, 0, 0, 0, 0.63
PM, 55793220, 59, 4000, 4239, 10, 0, 0, 41, 262144
IMU, 55795331, 7.373131E-05, 0.0008249007, -0.0006204771, 0.2479167, 0.001171275, -9.808573, 0, 0, 36.75772, 1, 1, 1000, 1000
IMU, 55835260, 0.001302209, -0.001463097, -0.0004262858, 0.254624, 0.0002167998, -9.823107, 0, 0, 36.76086, 1, 1, 1000, 1000
RFND, 55842725, 0.2, 25, 0, 0
IMU, 55875148, -0.0005416598, -0.001008258, 0.0009319446, 0.243773, -0.006781212, -9.797233, 0, 0, 36.76315, 1, 1, 1000, 1000
MAG, 55892944, 350, 573, 373, 0, 0, 0, 0, 0, 0, 1, 55892936
RFND, 55892972, 0.2, 25, 0, 0
BARO, 55893010, -0.3774177, 993.6322, 34.83, -0.03160368, 55892, 0, 34
CTUN, 55893023, 0, 0, 0, 0.3090274, 0.0737551, 0.0737551, -0.37, 0, 0.19, 0, 0, 0
ATT, 55893092, 0, -0.04, 0, 0, 57.69, 57.68, 0, 1
RATE, 55893098, 0.2180563, -0.04966737, 0.0006510301, -0.03079019, -0.04530168, 0.0001353408, 0.003028713, -0.1156119, 0.0004537874, -183.3702, 0.5908966, 0
NKF1, 55893105, -0.04, 0, 57.68, 0.007654291, -0.01820311, -0.004527659, 0, 0, 0, -0.0737551, 0, 0, 0.15
NKF2, 55893105, 0, 0, 0, 0, 0, 0, 0, 0, 0, 0, 0, 0, 0
NKF3, 55893105, 0, 0, 0, 0.01, -0.02, 0, 0, 0, 0, 0, 0
NKF4, 55893105, 0, 0, 0, 0, 0, 6.121833E-07, 0, 0, 0, 19, 229, 0, 0
NKF5, 55893105, 0, 0, 0, 0, 0.2, 0.13, 0, 0.19, 0.5, 3.726979E-05, 0.001398366, 0.002893807
NKQ1, 55893105, -0.8758556, 0.006444499, -0.01146865, -0.4823939
AHR2, 55893151, 0.07, 0.12, 67.14, -0.37, 0, 0, 0.8332024, -5.927943E-05, 0.001297709, 0.5529666
MOTB, 55893158, 1, 1, 0, 1
RCIN, 55893162, 0, 0, 0, 0, 0, 0, 0, 0, 0, 0, 0, 0, 0, 0
RCOU, 55893167, 1101, 1101, 1101, 1101, 0, 0, 0, 0, 0, 0, 0, 0, 0, 0
VIBE, 55893176, 0.02184308, 0.0208368, 0.03897592, 0, 0, 0
CTRL, 55893182, 0.0005183305, 0.0001813266, 0.0001355204, 0.0002268463, 0.0004658222
PRX, 55893213, 2, 0.63, 0, 0.86, 0, 3.6, 0, 2.18, 0, 0, 0, 0.63
IMU, 55915113, 0.0007265207, -0.0004763909, 0.0002060273, 0.2539315, -0.0143314, -9.805423, 0, 0, 36.76611, 1, 1, 1000, 1000
RFND, 55942745, 0.2, 25, 0, 0
IMU, 55955598, 0.0002436413, -0.0003873188, 0.001132953, 0.2512057, -0.005459644, -9.804052, 0, 0, 36.76884, 1, 1, 1000, 1000
MAG, 55993056, 354, 571, 377, 0, 0, 0, 0, 0, 0, 1, 55993048
RFND, 55993085, 0.2, 25, 0, 0
BARO, 55993125, -0.3661515, 993.6309, 34.83, -0.06360178, 55993, 0, 34
CTUN, 55993139, 0, 0, 0, 0.3090274, 0.0739202, 0.0739202, -0.36, 0, 0.19, 0, 0, 0
ATT, 55993211, 0, -0.04, 0, 0, 57.67, 57.67, 0, 1
RATE, 55993216, 0.2189439, 0.01606883, 0.0002228719, -0.02318363, -0.1035466, 0.0005208425, 0.002490887, -0.1199613, 0.0004215122, -190.5677, 1.418304, 0
NKF1, 55993225, -0.04, 0, 57.67, 0.008115, -0.01916039, -0.004705376, 0, 0, 0, -0.0739202, 0, 0, 0.15
NKF2, 55993225, 0, 0, 0, 0, 0, 0, 0, 0, 0, 0, 0, 0, 0
NKF3, 55993225, 0, 0, 0, 0.01, -0.02, 0, 0, 0, 0, 0, 0
NKF4, 55993225, 0, 0, 0, 0, 0, 6.054251E-07, 0, 0, 0, 19, 229, 0, 0
NKF5, 55993225, 0, 0, 0, 0, 0.2, 0.13, 0, 0.19, 0.5, 3.617852E-05, 0.001341955, 0.00280226
NKQ1, 55993225, -0.8759113, 0.006433317, -0.01145723, -0.4822932
AHR2, 55993268, 0.07, 0.12, 67.14, -0.36, 0, 0, 0.8331897, -3.774547E-05, 0.001277308, 0.5529858
MOTB, 55993274, 1, 1, 0, 1
RCIN, 55993278, 0, 0, 0, 0, 0, 0, 0, 0, 0, 0, 0, 0, 0, 0
RCOU, 55993284, 1101, 1101, 1101, 1101, 0, 0, 0, 0, 0, 0, 0, 0, 0, 0
VIBE, 55993292, 0.01953098, 0.01967652, 0.03294878, 0, 0, 0
CTRL, 55993298, 0.0005190804, 0.0001766435, 0.0001301307, 0.000211757, 0.0004601384
PRX, 55993330, 2, 0.63, 0, 0.85, 0, 0.65, 0, 2.19, 0, 0, 0, 0.63
IMU, 55995217, 0.0003550678, -0.002091948, 0.0006421637, 0.2547576, -0.005733466, -9.818991, 0, 0, 36.77164, 1, 1, 1000, 1000
IMU, 56035259, 0.001314124, -0.0008126179, 0.001505789, 0.2507268, -0.004244218, -9.819503, 0, 0, 36.77618, 1, 1, 1000, 1000
RFND, 56042816, 0.2, 25, 0, 0
IMU, 56075180, 0.001267317, -0.0001034635, -0.0002395604, 0.2441874, -0.002143646, -9.802056, 0, 0, 36.78165, 1, 1, 1000, 1000
MAG, 56092801, 352, 571, 373, 0, 0, 0, 0, 0, 0, 1, 56092794
RFND, 56092829, 0.2, 25, 0, 0
BARO, 56092869, -0.4112163, 993.6359, 34.83, -0.03532446, 56092, 0, 34
CTUN, 56092882, 0, 0, 0, 0.3090274, 0.07420903, 0.07420903, -0.41, 0, 0.19, 0, 0, 0
ATT, 56092954, 0, -0.04, 0, 0, 57.66, 57.66, 0, 1
RATE, 56092960, 0.199969, 0.008485405, 0.0007580098, -0.02199057, 0.04179201, -0.0003593767, 0.003458961, -0.1217484, 0.0004419404, -216.9404, -0.1481056, 0
NKF1, 56092968, -0.04, 0, 57.66, 0.008414011, -0.02038027, -0.005356552, 0, 0, 0, -0.07420903, 0, 0, 0.15
NKF2, 56092968, 0, 0, 0, 0, 0, 0, 0, 0, 0, 0, 0, 0, 0
NKF3, 56092968, 0, 0, 0, 0.01, -0.02, 0, 0, 0, 0, 0, 0
NKF4, 56092968, 0, 0, 0, 0, 0, 6.167859E-07, 0, 0, 0, 19, 229, 0, 0
NKF5, 56092968, 0, 0, 0, 0, 0.2, 0.13, 0, 0.19, 0.5, 3.59905E-05, 0.001282658, 0.002649212
NKQ1, 56092968, -0.8759739, 0.006402462, -0.01147209, -0.4821796
AHR2, 56093013, 0.08, 0.12, 67.14, -0.41, 0, 0, 0.8331852, 3.068497E-06, 0.001284059, 0.5529926
MOTB, 56093019, 1, 1, 0, 1
RCIN, 56093024, 0, 0, 0, 0, 0, 0, 0, 0, 0, 0, 0, 0, 0, 0
RCOU, 56093029, 1101, 1101, 1101, 1101, 0, 0, 0, 0, 0, 0, 0, 0, 0, 0
VIBE, 56093038, 0.01917412, 0.01877406, 0.03381782, 0, 0, 0
CTRL, 56093044, 0.0004781593, 0.0001606285, 0.0001193095, 0.0001873931, 0.0004560123
PRX, 56093091, 2, 0.63, 0, 0.85, 0, 0.65, 0, 2.19, 0, 0, 0, 0.63
IMU, 56115121, -0.000649643, -0.0005031357, 0.001004922, 0.2505459, -0.008433511, -9.803793, 0, 0, 36.78682, 1, 1, 1000, 1000
RFND, 56142710, 0.2, 25, 0, 0
IMU, 56155165, 3.822439E-05, 0.001123971, 0.001208844, 0.2478274, -0.01042788, -9.801987, 0, 0, 36.7915, 1, 1, 1000, 1000
MAG, 56192852, 353, 574, 374, 0, 0, 0, 0, 0, 0, 1, 56192844
RFND, 56192880, 0.2, 25, 0, 0
BARO, 56192918, -0.3830508, 993.633, 34.83, -0.06169174, 56192, 0, 34
CTUN, 56192931, 0, 0, 0, 0.3090274, 0.07439929, 0.07439929, -0.38, 0, 0.19, 0, 0, 0
ATT, 56192998, 0, -0.04, 0, 0, 57.65, 57.64, 0, 1
RATE, 56193004, 0.2167796, 0.01639165, 0.0003449507, -0.03907375, 0.0477772, -0.0003337632, 0.003366691, -0.1105681, 0.0003907609, -184.4449, -1.487732, 0
NKF1, 56193012, -0.04, 0, 57.64, 0.009004166, -0.02174599, -0.004554195, 0, 0, 0, -0.07439929, 0, 0, 0.15
NKF2, 56193012, 0, 0, 0, 0, 0, 0, 0, 0, 0, 0, 0, 0, 0
NKF3, 56193012, 0, 0, 0, 0.01, -0.02, 0, 0, 0, 0, 0, 0
NKF4, 56193012, 0, 0, 0, 0, 0, 6.718758E-07, 0, 0, 0, 19, 229, 0, 0
NKF5, 56193012, 0, 0, 0, 0, 0.2, 0.13, 0, 0.19, 0.5, 3.517892E-05, 0.001225403, 0.002551193
NKQ1, 56193012, -0.8760222, 0.006430755, -0.01149166, -0.4820909
AHR2, 56193056, 0.08, 0.12, 67.14, -0.38, 0, 0, 0.8331643, -1.770212E-05, 0.001292804, 0.553024
MOTB, 56193063, 1, 1, 0, 1
RCIN, 56193068, 0, 0, 0, 0, 0, 0, 0, 0, 0, 0, 0, 0, 0, 0
RCOU, 56193073, 1101, 1101, 1101, 1101, 0, 0, 0, 0, 0, 0, 0, 0, 0, 0
VIBE, 56193082, 0.01941562, 0.01759137, 0.03076767, 0, 0, 0
CTRL, 56193088, 0.0005030883, 0.0001540686, 0.0001492747, 0.0002062733, 0.0004395428
PRX, 56193119, 2, 0.63, 0, 0.85, 0, 0.69, 0, 2.19, 0, 0, 0, 0.63
IMU, 56195197, 0.0003739863, 0.0005672598, 0.000500994, 0.2559351, -0.005049833, -9.796294, 0, 0, 36.79708, 1, 1, 1000, 1000
IMU, 56235099, 0.0008421232, -0.0002729098, 0.0005829076, 0.2612948, -0.003328119, -9.828501, 0, 0, 36.80304, 1, 1, 1000, 1000
RFND, 56242807, 0.2, 25, 0, 0
IMU, 56275238, 0.0008883043, -0.0004085071, 0.0004575945, 0.2410546, -0.001309665, -9.809696, 0, 0, 36.80757, 1, 1, 1000, 1000
MAG, 56292942, 354, 570, 371, 0, 0, 0, 0, 0, 0, 1, 56292933
RFND, 56292974, 0.2, 25, 0, 0
BARO, 56293011, -0.3999501, 993.6347, 34.83, -0.08979223, 56292, 0, 34
CTUN, 56293023, 0, 0, 0, 0.3090274, 0.07461217, 0.07461217, -0.39, 0, 0.19, 0, 0, 0
ATT, 56293093, 0, -0.04, 0, 0, 57.63, 57.63, 0, 1
RATE, 56293099, 0.1972864, 0.04989342, 0.0003594903, -0.04001082, 0.0456532, -0.0004061995, 0.002521382, -0.1296946, 0.0004339477, -206.0117, 1.713562, 0
NKF1, 56293106, -0.04, 0, 57.63, 0.008862147, -0.02251276, -0.005086708, 0, 0, 0, -0.07461217, 0, 0, 0.15
NKF2, 56293106, 0, 0, 0, 0, 0, 0, 0, 0, 0, 0, 0, 0, 0
NKF3, 56293106, 0, 0, 0, 0.01, -0.03, 0, 0, 0, 0, 0, 0
NKF4, 56293106, 0, 0, 0, 0, 0, 7.184281E-07, 0, 0, 0, 19, 229, 0, 0
NKF5, 56293106, 0, 0, 0, 0, 0.2, 0.13, 0, 0.19, 0.5, 3.43898E-05, 0.00117324, 0.002482272
NKQ1, 56293106, -0.8760818, 0.006420073, -0.01150472, -0.4819826
AHR2, 56293149, 0.08, 0.12, 67.15, -0.39, 0, 0, 0.8331571, -4.361607E-07, 0.001298911, 0.5530349
MOTB, 56293155, 1, 1, 0, 1
RCIN, 56293159, 0, 0, 0, 0, 0, 0, 0, 0, 0, 0, 0, 0, 0, 0
RCOU, 56293165, 1101, 1101, 1101, 1101, 0, 0, 0, 0, 0, 0, 0, 0, 0, 0
VIBE, 56293173, 0.02159585, 0.02142886, 0.03312226, 0, 0, 0
CTRL, 56293180, 0.0004907427, 0.0001610726, 0.0001430268, 0.000188273, 0.0004339892
PRX, 56293211, 2, 0.63, 0, 0.85, 0, 0.71, 0, 2.19, 0, 0, 0, 0.63
IMU, 56315453, 0.0006070285, -0.0002749415, 0.0009896957, 0.2509666, 0.001892858, -9.806006, 0, 0, 36.81113, 1, 1, 1000, 1000
RFND, 56343491, 0.2, 25, 0, 0
IMU, 56355246, -2.032541E-05, -0.0006219227, 0.002065278, 0.2438616, 0.002506713, -9.795841, 0, 0, 36.81441, 1, 1, 1000, 1000
MAG, 56393284, 354, 568, 364, 0, 0, 0, 0, 0, 0, 1, 56393276
RFND, 56393317, 0.2, 25, 0, 0
BARO, 56393441, -0.4957128, 993.6451, 34.84, -0.09688132, 56393, 0, 34
CTUN, 56393454, 0, 0, 0, 0.3090274, 0.07476062, 0.07476062, -0.49, 0, 0.19, 0, 0, 0
ATT, 56393815, 0, -0.04, 0, 0, 57.62, 57.62, 0, 1
RATE, 56393825, 0.2164169, -0.05325824, 0.0007047789, -0.04110311, -0.01669674, -7.642742E-05, 0.0001086983, -0.1597287, 0.0004560961, -203.7221, 1.073933, 0
NKF1, 56393833, -0.04, 0, 57.62, 0.008503173, -0.02312367, -0.005030176, 0, 0, 0, -0.07476062, 0, 0, 0.15
NKF2, 56393833, 0, 0, 0, 0, 0, 0, 0, 0, 0, 0, 0, 0, 0
NKF3, 56393833, 0, 0, 0, 0.01, -0.03, 0, 0, 0, 0, 0, 0
NKF4, 56393833, 0, 0, 0, 0, 0, 8.187786E-07, 0, 0, 0, 19, 229, 0, 0
NKF5, 56393833, 0, 0, 0, 0, 0.2, 0.13, 0, 0.19, 0.5, 3.455576E-05, 0.00111375, 0.002300446
NKQ1, 56393833, -0.876139, 0.006438058, -0.01149406, -0.4818785
AHR2, 56393881, 0.07, 0.12, 67.15, -0.49, 0, 0, 0.8331468, -1.21242E-05, 0.001277675, 0.5530505
MOTB, 56393888, 1, 1, 0, 1
RCIN, 56393892, 0, 0, 0, 0, 0, 0, 0, 0, 0, 0, 0, 0, 0, 0
RCOU, 56393898, 1101, 1101, 1101, 1101, 0, 0, 0, 0, 0, 0, 0, 0, 0, 0
VIBE, 56393907, 0.02266589, 0.01974434, 0.03407285, 0, 0, 0
CTRL, 56393913, 0.0005056441, 0.000161315, 0.0001445479, 0.0001971449, 0.0004336124
PRX, 56393945, 2, 0.63, 0, 0.85, 0, 0.71, 0, 2.2, 0, 0, 0, 0.63
IMU, 56395184, -0.0007964887, -0.000160489, 0.0003433755, 0.256506, -0.00916905, -9.819467, 0, 0, 36.8172, 1, 1, 1000, 1000
IMU, 56435150, -0.0004820589, -0.0004357362, 0.0013169, 0.2515893, -0.007416172, -9.817846, 0, 0, 36.81978, 1, 1, 1000, 1000
RFND, 56442683, 0.2, 25, 0, 0
IMU, 56475247, 1.394051E-05, -0.0008020758, 0.0001319105, 0.2658636, -0.0004466029, -9.811388, 0, 0, 36.82229, 1, 1, 1000, 1000
MAG, 56493050, 351, 575, 370, 0, 0, 0, 0, 0, 0, 1, 56493042
RFND, 56493084, 0.2, 25, 0, 0
BARO, 56493122, -0.4957128, 993.6454, 34.84, -0.1812539, 56493, 0, 34
CTUN, 56493134, 0, 0, 0, 0.3090274, 0.07502286, 0.07502286, -0.49, 0, 0.19, 0, 0, 0
ATT, 56493209, 0, -0.04, 0, 0, 57.61, 57.61, 0, 1
RATE, 56493215, 0.2167628, 0.05366953, 0.0002803656, -0.03917043, -0.03294247, 6.029737E-05, 0.003105441, -0.1234377, 0.0003671074, -238.9545, 0.8217812, 0
NKF1, 56493222, -0.04, 0, 57.61, 0.009111974, -0.02376876, -0.005900112, 0, 0, 0, -0.07502286, 0, 0, 0.15
NKF2, 56493222, 0, 0, 0, 0, 0, 0, 0, 0, 0, 0, 0, 0, 0
NKF3, 56493222, 0, 0, 0, 0.01, -0.03, 0, 0, 0, 0, 0, 0
NKF4, 56493222, 0, 0, 0, 0, 0, 9.054027E-07, 0, 0, 0, 19, 229, 0, 0
NKF5, 56493222, 0, 0, 0, 0, 0.2, 0.13, 0, 0.19, 0.5, 3.36498E-05, 0.001062564, 0.002234579
NKQ1, 56493222, -0.876187, 0.00642873, -0.01149342, -0.4817915
AHR2, 56493267, 0.08, 0.12, 67.15, -0.49, 0, 0, 0.8331228, 2.374599E-06, 0.001268202, 0.5530865
MOTB, 56493274, 1, 1, 0, 1
RCIN, 56493278, 0, 0, 0, 0, 0, 0, 0, 0, 0, 0, 0, 0, 0, 0
RCOU, 56493283, 1101, 1101, 1101, 1101, 0, 0, 0, 0, 0, 0, 0, 0, 0, 0
VIBE, 56493292, 0.01992858, 0.01860634, 0.03249785, 0, 0, 0
CTRL, 56493298, 0.00050548, 0.0001573849, 0.0001328005, 0.0001776112, 0.0004202515
PRX, 56493329, 2, 0.63, 0, 0.85, 0, 3.6, 0, 2.18, 0, 0, 0, 0.63
IMU, 56515215, -0.000508451, -0.0001019574, -0.0004999528, 0.2544731, -0.01305698, -9.811777, 0, 0, 36.82512, 1, 1, 1000, 1000
RFND, 56542841, 0.2, 25, 0, 0
EV, 56554909, 57
IMU, 56555264, -0.0001353566, -0.0008817175, -0.000132985, 0.2544704, -0.002672094, -9.810808, 0, 0, 36.82743, 1, 1, 1000, 1000
MAG, 56593069, 351, 569, 373, 0, 0, 0, 0, 0, 0, 1, 56593061
RFND, 56593102, 0.2, 25, 0, 0
BARO, 56593140, -0.4844466, 993.6442, 34.84, -0.317483, 56593, 0, 34
CTUN, 56593153, 0, 0, 0, 0.3090274, 0.07524711, 0.07524711, -0.48, 0, 0.19, 0, 0, 0
ATT, 56593230, 0, -0.04, 0, 0, 57.59, 57.59, 0, 1
RATE, 56593237, 0.2158951, 0.05320473, 0.0002854616, -0.04384624, -0.02420476, 0.00022283, -4.499445E-05, -0.1919084, 0.0004608991, -235.2121, -0.04854202, 0
NKF1, 56593246, -0.04, 0, 57.59, 0.009036482, -0.02496991, -0.005807706, 0, 0, 0, -0.07524711, 0, 0, 0.15
NKF2, 56593246, 0, 0, 0, 0, 0, 0, 0, 0, 0, 0, 0, 0, 0
NKF3, 56593246, 0, 0, 0, 0.01, -0.03, 0, 0, 0, 0, 0, 0
NKF4, 56593246, 0, 0, 0, 0, 0, 1.027352E-06, 0, 0, 0, 19, 229, 0, 0
NKF5, 56593246, 0, 0, 0, 0, 0.2, 0.13, 0, 0.19, 0.5, 3.403058E-05, 0.001009556, 0.002062288
NKQ1, 56593246, -0.8762534, 0.006440983, -0.01149952, -0.4816705
AHR2, 56593292, 0.07, 0.12, 67.15, -0.48, 0, 0, 0.8331232, -6.828991E-06, 0.001267481, 0.553086
MOTB, 56593298, 1, 1, 0, 1
RCIN, 56593303, 0, 0, 0, 0, 0, 0, 0, 0, 0, 0, 0, 0, 0, 0
RCOU, 56593308, 1109, 1109, 1109, 1109, 0, 0, 0, 0, 0, 0, 0, 0, 0, 0
VIBE, 56593317, 0.01925379, 0.01848266, 0.03215792, 0, 0, 0
CTRL, 56593323, 0.0005148429, 0.0001822709, 0.0001394048, 0.0001787339, 0.0004236133
PRX, 56593434, 2, 0.63, 0, 0.85, 0, 3.6, 0, 2.19, 0, 0, 0, 0.63
IMU, 56595552, 0.0009437547, -0.00117936, -0.0006641339, 0.2415449, 0.003470607, -9.807693, 0, 0, 36.82966, 1, 1, 1000, 1000
IMU, 56635296, 0.0005758776, 0.001082261, 0.001566777, 0.2588651, -0.006251623, -9.811859, 0, 0, 36.83211, 1, 1, 1000, 1000
RFND, 56642796, 0.2, 25, 0, 0
IMU, 56675250, -0.0002341395, 0.0005157823, -0.0003053931, 0.2467589, -0.00224428, -9.797383, 0, 0, 36.83451, 1, 1, 1000, 1000
MAG, 56692972, 351, 572, 373, 0, 0, 0, 0, 0, 0, 1, 56692963
RFND, 56693000, 0.2, 25, 0, 0
BARO, 56693041, -0.4844466, 993.6442, 34.84, -0.2981598, 56693, 0, 34
CTUN, 56693053, 0, 0, 0, 0.3090274, 0.07548169, 0.07548169, -0.48, 0, 0.19, 0, 0, 0
ATT, 56693129, 0, -0.04, 0, 0.01, 57.58, 57.58, 0, 1
RATE, 56693136, 0.2137672, -0.07095458, 0.0008488345, -0.05349473, 0.02068192, -1.87089E-05, 1.009313E-06, -0.1871441, 0.0004592837, -240.9565, 0.3893852, 0
NKF1, 56693143, -0.04, 0.01, 57.58, 0.009163006, -0.02588386, -0.005949542, 0, 0, 0, -0.07548169, 0, 0, 0.15
NKF2, 56693143, 0, 0, 0, 0, 0, 0, 0, 0, 0, 0, 0, 0, 0
NKF3, 56693143, 0, 0, 0, 0.01, -0.03, 0, 0, 0, 0, 0, 0
NKF4, 56693143, 0, 0, 0, 0, 0, 1.155003E-06, 0, 0, 0, 19, 229, 0, 0
NKF5, 56693143, 0, 0, 0, 0, 0.2, 0.13, 0, 0.19, 0.5, 3.308294E-05, 0.0009577086, 0.001996483
NKQ1, 56693143, -0.87631, 0.006440169, -0.01152012, -0.4815668
AHR2, 56693188, 0.08, 0.12, 67.16, -0.48, 0, 0, 0.8331119, -4.154407E-06, 0.001283893, 0.5531029
MOTB, 56693195, 1, 1, 0, 1
RCIN, 56693199, 0, 0, 0, 0, 0, 0, 0, 0, 0, 0, 0, 0, 0, 0
RCOU, 56693205, 1133, 1133, 1133, 1133, 0, 0, 0, 0, 0, 0, 0, 0, 0, 0
VIBE, 56693214, 0.02183998, 0.01995564, 0.03107013, 0, 0, 0
CTRL, 56693220, 0.0004980891, 0.0001855505, 0.0001565091, 0.0001936508, 0.0004274654
PRX, 56693252, 2, 0.63, 0, 0.86, 0, 3.6, 0, 2.2, 0, 0, 0, 0.63
IMU, 56715547, 0.000867343, -0.0008937115, -0.0007712417, 0.2569476, -0.01710877, -9.807531, 0, 0, 36.83662, 1, 1, 1000, 1000
RFND, 56743235, 0.2, 25, 0, 0
IMU, 56755221, -6.202562E-05, 1.026754E-06, 0.0008331161, 0.2600046, -0.01021476, -9.828726, 0, 0, 36.83842, 1, 1, 1000, 1000
MAG, 56792938, 355, 573, 372, 0, 0, 0, 0, 0, 0, 1, 56792930
RFND, 56792966, 0.2, 25, 0, 0
BARO, 56793007, -0.5013459, 993.6462, 34.85, -0.124721, 56792, 0, 34
CTUN, 56793020, 0, 0, 0, 0.3090274, 0.07576875, 0.07576875, -0.5, 0, 0.19, 0, 0, 0
DU32, 56793058, 7, 33579512
ATT, 56793154, 0, -0.04, 0, 0.01, 57.56, 57.56, 0, 1
RATE, 56793161, 0.2155935, -0.02182013, 0.0004569125, -0.04534974, 0.03925275, -0.0001917451, -7.573801E-05, -0.1853563, 0.0004777364, -274.7713, -0.2943993, 0
NKF1, 56793169, -0.04, 0.01, 57.56, 0.009781351, -0.0268873, -0.006784475, 0, 0, 0, -0.07576875, 0, 0, 0.15
NKF2, 56793169, 0, 0, 0, 0, 0, 0, 0, 0, 0, 0, 0, 0, 0
NKF3, 56793169, 0, 0, 0, 0.01, -0.03, 0, 0, 0, 0, 0, 0
NKF4, 56793169, 0, 0, 0, 0, 0, 1.29246E-06, 0, 0, 0, 19, 229, 0, 0
NKF5, 56793169, 0, 0, 0, 0, 0.2, 0.13, 0, 0.19, 0.5, 3.357249E-05, 0.000911838, 0.001831966
NKQ1, 56793169, -0.8763785, 0.006440997, -0.01150339, -0.4814427
AHR2, 56793214, 0.07, 0.12, 67.16, -0.5, 0, 0, 0.8331137, 1.244377E-06, 0.001259437, 0.5531003
MOTB, 56793221, 1, 1, 0, 1
RCIN, 56793225, 0, 0, 0, 0, 0, 0, 0, 0, 0, 0, 0, 0, 0, 0
RCOU, 56793231, 1157, 1157, 1157, 1157, 0, 0, 0, 0, 0, 0, 0, 0, 0, 0
VIBE, 56793239, 0.01965504, 0.01835563, 0.0306845, 0, 0, 0
CTRL, 56793245, 0.0005145004, 0.0001849787, 0.0001461883, 0.0001971223, 0.0004534665
PRX, 56793275, 2, 0.63, 0, 0.86, 0, 3.6, 0, 2.18, 0, 0, 0, 0.63
IMU, 56795811, -0.0002723181, 0.0003828119, -0.0004332088, 0.2509286, -0.001598091, -9.803158, 0, 0, 36.83939, 1, 1, 1000, 1000
IMU, 56836404, 0.0007490704, -0.0005351011, 0.0005566358, 0.2521802, -0.002932885, -9.802698, 0, 0, 36.84088, 1, 1, 1000, 1000
RFND, 56842950, 0.2, 25, 0, 0
IMU, 56875215, -0.000434956, -0.001632294, 0.000858014, 0.2605428, -0.001732563, -9.811491, 0, 0, 36.84258, 1, 1, 1000, 1000
MAG, 56892939, 354, 566, 374, 0, 0, 0, 0, 0, 0, 1, 56892931
RFND, 56892968, 0.2, 25, 0, 0
BARO, 56893007, -0.5182452, 993.6482, 34.85, -0.02642282, 56892, 0, 34
CTUN, 56893019, 0, 0, 0, 0.3090274, 0.07605687, 0.07605687, -0.51, 0, 0.19, 0, 0, 0
ATT, 56893094, 0, -0.04, 0, 0.01, 57.55, 57.54, 0, 1
RATE, 56893100, 0.2154989, -0.05400474, 0.0007184679, -0.04581081, 0.04845907, -0.0004779468, 1.087186E-06, -0.2802426, 0.0004832818, -298.5387, 1.66111, 0
NKF1, 56893108, -0.04, 0.01, 57.54, 0.009934029, -0.02766308, -0.007371326, 0, 0, 0, -0.07605687, 0, 0, 0.15
NKF2, 56893108, 0, 0, 0, 0, 0, 0, 0, 0, 0, 0, 0, 0, 0
NKF3, 56893108, 0, 0, 0, 0.02, -0.04, 0, 0, 0, 0, 0, 0
NKF4, 56893108, 0, 0, 0, 0, 0, 1.458314E-06, 0, 0, 0, 19, 229, 0, 0
NKF5, 56893108, 0, 0, 0, 0, 0.2, 0.13, 0, 0.19, 0.5, 3.242416E-05, 0.0008600684, 0.00176782
NKQ1, 56893108, -0.8764451, 0.00643619, -0.01150641, -0.4813213
AHR2, 56893151, 0.08, 0.11, 67.16, -0.51, 0, 0, 0.8331137, 1.119014E-05, 0.001253874, 0.5531003
MOTB, 56893158, 1, 1, 0, 1
RCIN, 56893162, 0, 0, 0, 0, 0, 0, 0, 0, 0, 0, 0, 0, 0, 0
RCOU, 56893167, 1181, 1181, 1181, 1181, 0, 0, 0, 0, 0, 0, 0, 0, 0, 0
VIBE, 56893176, 0.02551659, 0.02746497, 0.03419805, 0, 0, 0
CTRL, 56893182, 0.0005047424, 0.0001816742, 0.0001503523, 0.0002278879, 0.0004526481
PRX, 56893213, 2, 0.63, 0, 0.85, 0, 3.6, 0, 2.2, 0, 0, 0, 0.63
IMU, 56915649, -2.613471E-05, -0.001866885, 0.0004107312, 0.2480633, -0.008408451, -9.826029, 0, 0, 36.84333, 1, 1, 1000, 1000
RFND, 56943280, 0.2, 25, 0, 0
IMU, 56955216, -0.002286243, 0.0008756989, 0.02238889, 0.2408913, -0.01499674, -9.799958, 0, 0, 36.84336, 1, 1, 1000, 1000
MAG, 56992900, 353, 565, 375, 0, 0, 0, 0, 0, 0, 1, 56992892
RFND, 56992928, 0.2, 25, 0, 0
BARO, 56992966, -0.5069789, 993.6469, 34.85, -0.05830052, 56992, 0, 34
CTUN, 56992979, 0, 0, 0, 0.3090274, 0.07649434, 0.07649434, -0.5, 0, 0.19, 0, 0, 0
ATT, 56993052, 0, -0.04, 0, 0, 57.56, 57.55, 0, 1
RATE, 56993058, 0.218038, -0.1251848, 0.001850316, -0.03093919, -0.005873595, -0.0002693341, 1.204122E-06, 1.005511, 0.0004551859, -357.3454, 1.934147, 0
NKF1, 56993065, -0.04, 0, 57.55, 0.009675441, -0.0285106, -0.008823342, 0, 0, 0, -0.07649434, 0, 0, 0.15
NKF2, 56993065, 0, 0, 0, 0, 0, 0, 0, 0, 0, 0, 0, 0, 0
NKF3, 56993065, 0, 0, 0, 0.02, -0.04, 0, 0, 0, 0, 0, 0
NKF4, 56993065, 0, 0, 0, 0, 0, 1.609525E-06, 0, 0, 0, 19, 229, 0, 0
NKF5, 56993065, 0, 0, 0, 0, 0.2, 0.13, 0, 0.19, 0.5, 3.303435E-05, 0.0008218762, 0.001618257
NKQ1, 56993065, -0.8764008, 0.006419796, -0.01147882, -0.4814029
AHR2, 56993109, 0.08, 0.11, 67.18, -0.5, 0, 0, 0.832985, 3.659861E-05, 0.001222688, 0.5532943
MOTB, 56993116, 1, 1, 0, 1
RCIN, 56993120, 0, 0, 0, 0, 0, 0, 0, 0, 0, 0, 0, 0, 0, 0
RCOU, 56993126, 1205, 1205, 1205, 1205, 0, 0, 0, 0, 0, 0, 0, 0, 0, 0
VIBE, 56993134, 0.1040115, 0.191314, 0.1142668, 0, 0, 0
CTRL, 56993141, 0.000520253, 0.0003225174, 0.0001448198, 0.0002480331, 0.0004687854
PRX, 56993172, 2, 0.63, 0, 0.85, 0, 3.6, 0, 2.18, 0, 0, 0, 0.63
IMU, 56995171, -0.001338363, 0.0002831048, 0.02296665, 0.2331203, 0.006406083, -9.839722, 0, 0, 36.84296, 1, 1, 1000, 1000
IMU, 57035914, 0.001349933, 0.001759294, 0.00455037, 0.2946355, 0.04074021, -9.826859, 0, 0, 36.84391, 1, 1, 1000, 1000
RFND, 57042871, 0.2, 25, 0, 0
IMU, 57075204, -0.001939314, 0.001402152, 0.0009630069, 0.1948173, 0.02371732, -9.779766, 0, 0, 36.8451, 1, 1, 1000, 1000
MAG, 57092706, 346, 565, 370, 0, 0, 0, 0, 0, 0, 1, 57092698
RFND, 57092793, 0.2, 25, 0, 0
BARO, 57092834, -0.450648, 993.6401, 34.85, -0.0672055, 57092, 0, 34
CTUN, 57092846, 0, 0, 0, 0.3090274, 0.07686066, 0.07686066, -0.45, 0, 0.19, 0, 0, 0
ATT, 57092915, 0, -0.05, 0, 0.01, 57.54, 57.54, 0, 1
RATE, 57092922, 0.2443602, 0.0388396, 0.000326792, -0.06979071, 0.1209726, -0.0003362257, -2.962069E-05, 0.1022059, 4.412253E-05, -366.1143, 1.11742, 0
NKF1, 57092930, -0.05, 0.01, 57.54, 0.01352353, -0.03023006, -0.009039858, 0, 0, 0, -0.07686066, 0, 0, 0.15
NKF2, 57092930, 0, 0, 0, 0, 0, 0, 0, 0, 0, 0, 0, 0, 0
NKF3, 57092930, 0, 0, 0, 0.02, -0.04, 0, 0, 0, 0, 0, 0
NKF4, 57092930, 0, 0, 0, 0, 0, 1.820771E-06, 0, 0, 0, 19, 229, 0, 0
NKF5, 57092930, 0, 0, 0, 0, 0.2, 0.13, 0, 0.19, 0.5, 3.158307E-05, 0.0007686321, 0.001557097
NKQ1, 57092930, -0.876457, 0.00651326, -0.01151847, -0.4812983
AHR2, 57092975, 0.07, 0.12, 67.18, -0.45, 0, 0, 0.8329735, -5.663674E-05, 0.001248982, 0.5533116
MOTB, 57092982, 1, 1, 0, 1
RCIN, 57092986, 0, 0, 0, 0, 0, 0, 0, 0, 0, 0, 0, 0, 0, 0
RCOU, 57092992, 1221, 1222, 1221, 1221, 0, 0, 0, 0, 0, 0, 0, 0, 0, 0
VIBE, 57093000, 0.4310981, 0.5452369, 0.2846743, 0, 0, 0
CTRL, 57093006, 0.0006083963, 0.0005254711, 0.0002395523, 0.0004049684, 0.0004258812
PRX, 57093037, 2, 0.63, 0, 0.85, 0, 3.6, 0, 2.18, 0, 0, 0, 0.63
IMU, 57115259, -0.001425204, -0.0007374641, 0.004013465, 0.2015562, -0.07742839, -9.818974, 0, 0, 36.84657, 1, 1, 1000, 1000
RFND, 57142826, 0.2, 25, 0, 0
IMU, 57155193, -0.003416613, 0.00258083, 0.03178592, 0.185242, 0.04481801, -9.799603, 0, 0, 36.84801, 1, 1, 1000, 1000
MAG, 57193060, 350, 566, 371, 0, 0, 0, 0, 0, 0, 1, 57193052
RFND, 57193089, 0.2, 25, 0, 0
BARO, 57193128, -0.512612, 993.6472, 34.85, 0.02475078, 57193, 0, 34
CTUN, 57193140, 0, 0, 0, 0.3090274, 0.07735129, 0.07735129, -0.51, 0, 0.19, 0, 0, 0
ATT, 57193210, 0, -0.05, 0, 0.01, 57.5, 57.5, 0, 1
RATE, 57193216, 0.2551659, 0.4565456, -0.001793829, -0.08662704, 0.09401856, -0.0003994261, -9.121391E-05, -2.470426, 0.0004943125, -404.5447, 5.886555, 0
NKF1, 57193224, -0.05, 0.01, 57.5, 0.0118737, -0.03026008, -0.009988757, 0, 0, 0, -0.07735129, 0, 0, 0.15
NKF2, 57193224, 0, 0, 0, 0, 0, 0, 0, 0, 0, 0, 0, 0, 0
NKF3, 57193224, 0, 0, 0, 0.02, -0.05, 0, 0, 0, 0, 0, 0
NKF4, 57193224, 0, 0, 0, 0, 0, 1.984541E-06, 0, 0, 0, 19, 229, 0, 0
NKF5, 57193224, 0, 0, 0, 0, 0.2, 0.13, 0, 0.19, 0.5, 3.00504E-05, 0.0007436533, 0.001626391
NKQ1, 57193224, -0.8766374, 0.006524354, -0.01154836, -0.480969
AHR2, 57193268, 0.07, 0.12, 67.16, -0.51, 0, 0, 0.8331053, -5.986897E-05, 0.001269115, 0.553113
MOTB, 57193275, 1, 1, 0, 1
RCIN, 57193279, 0, 0, 0, 0, 0, 0, 0, 0, 0, 0, 0, 0, 0, 0
RCOU, 57193284, 1225, 1222, 1221, 1224, 0, 0, 0, 0, 0, 0, 0, 0, 0, 0
VIBE, 57193293, 0.5469099, 0.5929113, 0.5443966, 0, 0, 0
CTRL, 57193299, 0.0007218079, 0.0008164668, 0.0003027901, 0.000528929, 0.0005457871
PRX, 57193414, 2, 0.63, 0, 0.85, 0, 3.6, 0, 2.18, 0, 0, 0, 0.63
IMU, 57195144, 0.007983427, 0.001953477, -0.04072824, 0.2964677, -0.01363651, -9.859935, 0, 0, 36.84921, 1, 1, 1000, 1000
IMU, 57235132, 0.001166443, -0.0001851114, -0.008282987, 0.2983303, -0.06911494, -9.831537, 0, 0, 36.8504, 1, 1, 1000, 1000
RFND, 57242775, 0.2, 25, 0, 0
IMU, 57275171, -0.002784268, -0.004469851, 0.008644667, 0.2684323, -0.01826182, -9.793056, 0, 0, 36.85152, 1, 1, 1000, 1000
MAG, 57292684, 348, 572, 370, 0, 0, 0, 0, 0, 0, 1, 57292676
RFND, 57292711, 0.2, 25, 0, 0
BARO, 57292808, -0.512612, 993.647, 34.86, 0.08275663, 57292, 0, 34
CTUN, 57292821, 0, 0, 0, 0.3090274, 0.07779787, 0.07779787, -0.51, 0, 0.19, 0, 0, 0
ATT, 57292891, 0, -0.06, 0, 0.03, 57.47, 57.47, 0, 1
RATE, 57292898, 0.2799376, -0.4061518, 0.00149924, -0.1352042, 0.03987002, -0.001319179, -0.000122106, -0.3904472, 0.00120996, -359.4683, -0.6192207, 0
NKF1, 57292906, -0.06, 0.03, 57.47, 0.01145584, -0.03093932, -0.008875761, 0, 0, 0, -0.07779787, 0, 0, 0.15
NKF2, 57292906, 0, 0, 0, 0, 0, 0, 0, 0, 0, 0, 0, 0, 0
NKF3, 57292906, 0, 0, 0, 0.02, -0.05, 0, 0, 0, 0, 0, 0
NKF4, 57292906, 0, 0, 0, 0, 0, 2.248204E-06, 0, 0, 0, 19, 229, 0, 0
NKF5, 57292906, 0, 0, 0, 0, 0.2, 0.13, 0, 0.19, 0.5, 3.075893E-05, 0.0006856292, 0.001343996
NKQ1, 57292906, -0.8767425, 0.006622001, -0.01160324, -0.4807743
AHR2, 57292949, 0.06, 0.13, 67.15, -0.51, 0, 0, 0.8331499, -0.0001444816, 0.001306979, 0.5530458
MOTB, 57292956, 1, 1, 0, 1
RCIN, 57292960, 0, 0, 0, 0, 0, 0, 0, 0, 0, 0, 0, 0, 0, 0
RCOU, 57292966, 1221, 1226, 1221, 1221, 0, 0, 0, 0, 0, 0, 0, 0, 0, 0
VIBE, 57292975, 0.4382864, 0.4834517, 0.4072816, 0, 0, 0
CTRL, 57292981, 0.0008615433, 0.001127078, 0.0004327026, 0.000669183, 0.0008334795
PRX, 57293011, 2, 0.63, 0, 0.85, 0, 3.6, 0, 2.18, 0, 0, 0, 0.63
IMU, 57315450, 0.01340245, 0.0007408559, 0.004850253, 0.1833342, -0.05500308, -9.797007, 0, 0, 36.85233, 1, 1, 1000, 1000
RFND, 57342849, 0.2, 25, 0, 0
IMU, 57355265, 0.01043817, 0.006797037, 0.0135754, 0.2728727, 0.007954995, -9.797658, 0, 0, 36.85308, 1, 1, 1000, 1000
MAG, 57392978, 350, 572, 371, 0, 0, 0, 0, 0, 0, 1, 57392970
RFND, 57393008, 0.2, 25, 0, 0
BARO, 57393047, -0.4055832, 993.6351, 34.86, 0.02815949, 57393, 0, 34
CTUN, 57393060, 0, 0, 0, 0.3090274, 0.07822306, 0.07822306, -0.4, 0, 0.19, 0, 0, 0
ATT, 57393133, 0, -0.05, 0, 0.02, 57.46, 57.46, 0, 1
RATE, 57393139, 0.2512149, -0.1789339, 0.0007394357, -0.09757548, -0.1464708, -0.0007319017, -1.44221E-05, -0.4688815, 0.0004235643, -372.2352, 3.888035, 0
NKF1, 57393147, -0.05, 0.02, 57.46, 0.01317663, -0.03171355, -0.009190993, 0, 0, 0, -0.07822306, 0, 0, 0.15
NKF2, 57393147, 0, 0, 0, 0, 0, 0, 0, 0, 0, 0, 0, 0, 0
NKF3, 57393147, 0, 0, 0, 0.02, -0.05, 0, 0, 0, 0, 0, 0
NKF4, 57393147, 0, 0, 0, 0, 0, 2.463001E-06, 0, 0, 0, 19, 229, 0, 0
NKF5, 57393147, 0, 0, 0, 0, 0.2, 0.13, 0, 0.19, 0.5, 2.892942E-05, 0.000669688, 0.001464432
NKQ1, 57393147, -0.8768011, 0.006545086, -0.01156559, -0.4806697
AHR2, 57393192, 0.07, 0.12, 67.15, -0.4, 0, 0, 0.8331407, -5.633208E-05, 0.001265472, 0.5530596
MOTB, 57393198, 1, 1, 0, 1
RCIN, 57393203, 0, 0, 0, 0, 0, 0, 0, 0, 0, 0, 0, 0, 0, 0
RCOU, 57393208, 1221, 1223, 1221, 1221, 0, 0, 0, 0, 0, 0, 0, 0, 0, 0
VIBE, 57393217, 0.3811061, 0.3983446, 0.4309556, 0, 0, 0
CTRL, 57393224, 0.001099989, 0.001992314, 0.0005772904, 0.001096147, 0.0008025374
PRX, 57393255, 2, 0.63, 0, 0.85, 0, 3.6, 0, 2.19, 0, 0, 0, 0.63
IMU, 57395237, -0.002153055, -0.001665543, -0.0066257, 0.3400427, -0.01390994, -9.844038, 0, 0, 36.85305, 1, 1, 1000, 1000
IMU, 57435256, 0.004942916, 0.0008413087, -0.01254751, 0.4415234, -0.05670144, -9.830774, 0, 0, 36.85312, 1, 1, 1000, 1000
RFND, 57442852, 0.2, 25, 0, 0
IMU, 57475148, 0.00669041, 0.0005406531, -0.01584957, 0.2846641, 0.04639865, -9.802273, 0, 0, 36.85249, 1, 1, 1000, 1000
MAG, 57492819, 348, 574, 373, 0, 0, 0, 0, 0, 0, 1, 57492811
RFND, 57492847, 0.2, 25, 0, 0
BARO, 57492888, -0.450648, 993.6406, 34.86, 0.05073386, 57492, 0, 34
CTUN, 57492900, 0, 0, 0, 0.3090274, 0.07859765, 0.07859765, -0.45, 0, 0.19, 0, 0, 0
ATT, 57492974, 0, -0.05, 0, 0.02, 57.47, 57.46, 0, 1
RATE, 57492980, 0.2366056, -0.00467731, 0.001434568, -0.09300778, -0.2824504, 0.001248387, -4.521605E-05, 0.5833746, 0.0003377864, -354.5024, -1.61829, 0
NKF1, 57492989, -0.05, 0.02, 57.46, 0.01379773, -0.03175029, -0.008753145, 0, 0, 0, -0.07859765, 0, 0, 0.15
NKF2, 57492989, 0, 0, 0, 0, 0, 0, 0, 0, 0, 0, 0, 0, 0
NKF3, 57492989, 0, 0, 0, 0.02, -0.05, 0, 0, 0, 0, 0, 0
NKF4, 57492989, 0, 0, 0, 0, 0, 2.739818E-06, 0, 0, 0, 19, 229, 0, 0
NKF5, 57492989, 0, 0, 0, 0, 0.2, 0.13, 0, 0.19, 0.5, 3.001737E-05, 0.0006106184, 0.001202467
NKQ1, 57492989, -0.8767773, 0.006513508, -0.01156946, -0.4807135
AHR2, 57493033, 0.07, 0.12, 67.17, -0.45, 0, 0, 0.833036, -2.01524E-05, 0.001261167, 0.5532174
MOTB, 57493041, 1, 1, 0, 1
RCIN, 57493045, 0, 0, 0, 0, 0, 0, 0, 0, 0, 0, 0, 0, 0, 0
RCOU, 57493050, 1223, 1224, 1225, 1221, 0, 0, 0, 0, 0, 0, 0, 0, 0, 0
VIBE, 57493059, 0.442057, 0.4331956, 0.4137511, 0, 0, 0
CTRL, 57493065, 0.0009912445, 0.001840168, 0.0005939353, 0.001180999, 0.0007029992
PRX, 57493113, 2, 0.63, 0, 0.85, 0, 0.65, 0, 2.19, 0, 0, 0, 0.63
IMU, 57515133, -0.003150453, -0.001269655, 0.0009237966, 0.07211849, -0.02003635, -9.81879, 0, 0, 36.85131, 1, 1, 1000, 1000
RFND, 57542751, 0.2, 25, 0, 0
IMU, 57555174, 0.0003139376, -0.007010122, 0.006877156, 0.1172708, -0.04152419, -9.874961, 0, 0, 36.84975, 1, 1, 1000, 1000
MAG, 57592911, 351, 569, 373, 0, 0, 0, 0, 0, 0, 1, 57592902
RFND, 57592940, 0.2, 25, 0, 0
BARO, 57592977, -0.4393817, 993.6389, 34.86, 0.1883567, 57592, 0, 34
CTUN, 57592991, 0, 0, 0, 0.3090274, 0.07890834, 0.07890834, -0.43, 0, 0.19, 0, 0, 0
ATT, 57593059, 0, -0.05, 0, 0.02, 57.45, 57.45, 0, 1
RATE, 57593065, 0.2285142, 0.1867711, -0.0007302252, -0.1115616, 0.1597376, -0.001601801, -3.00524E-05, 0.2416214, 0.0004425386, -300.2802, 0.3993034, 0
NKF1, 57593091, -0.05, 0.02, 57.45, 0.01245421, -0.03218175, -0.007414327, 0, 0, 0, -0.07890834, 0, 0, 0.15
NKF2, 57593091, 0, 0, 0, 0, 0, 0, 0, 0, 0, 0, 0, 0, 0
NKF3, 57593091, 0, 0, 0, 0.02, -0.06, 0, 0, 0, 0, 0, 0
NKF4, 57593091, 0, 0, 0, 0, 0, 3.013546E-06, 0, 0, 0, 19, 229, 0, 0
NKF5, 57593091, 0, 0, 0, 0, 0.2, 0.13, 0, 0.19, 0.5, 2.793385E-05, 0.0006049001, 0.001373435
NKQ1, 57593091, -0.8768403, 0.006512906, -0.01161081, -0.4805975
AHR2, 57593136, 0.08, 0.12, 67.17, -0.43, 0, 0, 0.8330325, -2.404882E-05, 0.001302779, 0.5532226
MOTB, 57593143, 1, 1, 0, 1
RCIN, 57593148, 0, 0, 0, 0, 0, 0, 0, 0, 0, 0, 0, 0, 0, 0
RCOU, 57593153, 1223, 1224, 1221, 1225, 0, 0, 0, 0, 0, 0, 0, 0, 0, 0
VIBE, 57593162, 0.4557203, 0.4403417, 0.5389562, 0, 0, 0
CTRL, 57593168, 0.0008973645, 0.001593475, 0.0005986506, 0.001240916, 0.0006186911
PRX, 57593198, 2, 0.63, 0, 0.85, 0, 0.64, 0, 2.18, 0, 0, 0, 0.63
IMU, 57595162, 0.001778801, 0.00354033, 0.006013126, 0.3485165, 0.04789154, -9.779937, 0, 0, 36.84662, 1, 1, 1000, 1000
IMU, 57635122, -0.0006558942, 0.003149827, -1.407425E-05, 0.4120547, 0.05461451, -9.729432, 0, 0, 36.84106, 1, 1, 1000, 1000
RFND, 57642708, 0.2, 25, 0, 0
IMU, 57675149, -0.007074338, -0.002889951, -0.005944783, 0.1139835, -0.06994527, -9.783561, 0, 0, 36.83183, 1, 1, 1000, 1000
MAG, 57693006, 351, 571, 370, 0, 0, 0, 0, 0, 0, 1, 57692997
RFND, 57693035, 0.2, 25, 0, 0
BARO, 57693075, -0.4337487, 993.6384, 34.85, 0.1938584, 57693, 0, 34
CTUN, 57693088, 0, 0, 0, 0.3090274, 0.07911851, 0.07911851, -0.43, 0, 0.19, 0, 0, 0
ATT, 57693162, 0, -0.05, 0, 0.01, 57.43, 57.43, 0, 1
RATE, 57693167, 0.2565958, 0.1060749, 0.0008413261, -0.08219646, 0.1394228, -0.002058143, -2.966093E-05, 0.06602814, 0.0004613817, -267.239, 3.471184, 0
NKF1, 57693176, -0.05, 0.01, 57.43, 0.01536173, -0.03345722, -0.006598494, 0, 0, 0, -0.07911851, 0, 0, 0.15
NKF2, 57693176, 0, 0, 0, 0, 0, 0, 0, 0, 0, 0, 0, 0, 0
NKF3, 57693176, 0, 0, 0, 0.02, -0.06, 0, 0, 0, 0, 0, 0
NKF4, 57693176, 0, 0, 0, 0, 0, 3.305448E-06, 0, 0, 0, 19, 229, 0, 0
NKF5, 57693176, 0, 0, 0, 0, 0.2, 0.13, 0, 0.19, 0.5, 2.915084E-05, 0.0005419946, 0.001053649
NKQ1, 57693176, -0.8769113, 0.006522412, -0.01153709, -0.4804697
AHR2, 57693219, 0.07, 0.11, 67.17, -0.43, 0, 0, 0.8330364, -3.069827E-05, 0.00123615, 0.5532168
MOTB, 57693226, 1, 1, 0, 1
