FMT, 128, 89, FMT, BBnNZ, Type,Length,Name,Format,Columns
FMT, 129, 31, PARM, QNf, TimeUS,Name,Value
FMT, 130, 46, GPS, QBIHBcLLefffB, TimeUS,Status,GMS,GWk,NSats,HDop,Lat,Lng,Alt,Spd,GCrs,VZ,U
FMT, 131, 46, GPS2, QBIHBcLLefffB, TimeUS,Status,GMS,GWk,NSats,HDop,Lat,Lng,Alt,Spd,GCrs,VZ,U
FMT, 132, 46, GPSB, QBIHBcLLefffB, TimeUS,Status,GMS,GWk,NSats,HDop,Lat,Lng,Alt,Spd,GCrs,VZ,U
FMT, 193, 24, GPA, QCCCCBI, TimeUS,VDop,HAcc,VAcc,SAcc,VV,SMS
FMT, 194, 24, GPA2, QCCCCBI, TimeUS,VDop,HAcc,VAcc,SAcc,VV,SMS
FMT, 195, 24, GPAB, QCCCCBI, TimeUS,VDop,HAcc,VAcc,SAcc,VV,SMS
FMT, 133, 53, IMU, QffffffIIfBBHH, TimeUS,GyrX,GyrY,GyrZ,AccX,AccY,AccZ,EG,EA,T,GH,AH,GHz,AHz
FMT, 134, 75, MSG, QZ, TimeUS,Message
FMT, 135, 39, RCIN, QHHHHHHHHHHHHHH, TimeUS,C1,C2,C3,C4,C5,C6,C7,C8,C9,C10,C11,C12,C13,C14
FMT, 136, 39, RCOU, QHHHHHHHHHHHHHH, TimeUS,C1,C2,C3,C4,C5,C6,C7,C8,C9,C10,C11,C12,C13,C14
FMT, 137, 15, RSSI, Qf, TimeUS,RXRSSI
FMT, 139, 37, BARO, QffcfIff, TimeUS,Alt,Press,Temp,CRt,SMS,Offset,GndTemp
FMT, 140, 22, POWR, QffHB, TimeUS,Vcc,VServo,Flags,Safety
FMT, 143, 45, CMD, QHHHfffffff, TimeUS,CTot,CNum,CId,Prm1,Prm2,Prm3,Prm4,Lat,Lng,Alt
FMT, 144, 20, RAD, QBBBBBHH, TimeUS,RSSI,RemRSSI,TxBuf,Noise,RemNoise,RxErrors,Fixed
FMT, 146, 43, CAM, QIHLLeeeccC, TimeUS,GPSTime,GPSWeek,Lat,Lng,Alt,RelAlt,GPSAlt,Roll,Pitch,Yaw
FMT, 232, 43, TRIG, QIHLLeeeccC, TimeUS,GPSTime,GPSWeek,Lat,Lng,Alt,RelAlt,GPSAlt,Roll,Pitch,Yaw
FMT, 162, 30, ARSP, QffcffB, TimeUS,Airspeed,DiffPress,Temp,RawPress,Offset,U
FMT, 164, 45, CURR, QfffcHHHHHHHHHH, TimeUS,Volt,Curr,CurrTot,Temp,V1,V2,V3,V4,V5,V6,V7,V8,V9,V10
FMT, 165, 45, CUR2, QfffcHHHHHHHHHH, TimeUS,Volt,Curr,CurrTot,Temp,V1,V2,V3,V4,V5,V6,V7,V8,V9,V10
FMT, 163, 27, ATT, QccccCCCC, TimeUS,DesRoll,Roll,DesPitch,Pitch,DesYaw,Yaw,ErrRP,ErrYaw
FMT, 166, 34, MAG, QhhhhhhhhhBI, TimeUS,MagX,MagY,MagZ,OfsX,OfsY,OfsZ,MOfsX,MOfsY,MOfsZ,Health,S
FMT, 169, 14, MODE, QMBB, TimeUS,Mode,ModeNum,Rsn
FMT, 196, 17, RFND, QCBCB, TimeUS,Dist1,Orient1,Dist2,Orient2
FMT, 223, 33, DMS, IIIIIBBBBBBBBBB, TimeMS,N,Dp,RT,RS,Er,Fa,Fmn,Fmx,Pa,Pmn,Pmx,Sa,Smn,Smx
FMT, 240, 41, BCN, QBBfffffff, TimeUS,Health,Cnt,D0,D1,D2,D3,PosX,PosY,PosZ
FMT, 138, 53, IMU2, QffffffIIfBBHH, TimeUS,GyrX,GyrY,GyrZ,AccX,AccY,AccZ,EG,EA,T,GH,AH,GHz,AHz
FMT, 147, 53, IMU3, QffffffIIfBBHH, TimeUS,GyrX,GyrY,GyrZ,AccX,AccY,AccZ,EG,EA,T,GH,AH,GHz,AHz
FMT, 141, 45, AHR2, QccCfLLffff, TimeUS,Roll,Pitch,Yaw,Alt,Lat,Lng,Q1,Q2,Q3,Q4
FMT, 180, 31, POS, QLLfff, TimeUS,Lat,Lng,Alt,RelHomeAlt,RelOriginAlt
FMT, 142, 45, SIM, QccCfLLffff, TimeUS,Roll,Pitch,Yaw,Alt,Lat,Lng,Q1,Q2,Q3,Q4
FMT, 198, 51, NKF1, QccCfffffffccc, TimeUS,Roll,Pitch,Yaw,VN,VE,VD,dPD,PN,PE,PD,GX,GY,GZ
FMT, 199, 35, NKF2, QbccccchhhhhhB, TimeUS,AZbias,GSX,GSY,GSZ,VWN,VWE,MN,ME,MD,MX,MY,MZ,MI
FMT, 200, 33, NKF3, Qcccccchhhcc, TimeUS,IVN,IVE,IVD,IPN,IPE,IPD,IMX,IMY,IMZ,IYAW,IVT
FMT, 201, 35, NKF4, QcccccfbbHBHHb, TimeUS,SV,SP,SH,SM,SVT,errRP,OFN,OFE,FS,TS,SS,GPS,PI
FMT, 202, 40, NKF5, QBhhhcccCCfff, TimeUS,NI,FIX,FIY,AFI,HAGL,offset,RI,rng,Herr,eAng,eVel,ePos
FMT, 203, 51, NKF6, QccCfffffffccc, TimeUS,Roll,Pitch,Yaw,VN,VE,VD,dPD,PN,PE,PD,GX,GY,GZ
FMT, 204, 35, NKF7, QbccccchhhhhhB, TimeUS,AZbias,GSX,GSY,GSZ,VWN,VWE,MN,ME,MD,MX,MY,MZ,MI
FMT, 205, 33, NKF8, Qcccccchhhcc, TimeUS,IVN,IVE,IVD,IPN,IPE,IPD,IMX,IMY,IMZ,IYAW,IVT
FMT, 206, 35, NKF9, QcccccfbbHBHHb, TimeUS,SV,SP,SH,SM,SVT,errRP,OFN,OFE,FS,TS,SS,GPS,PI
FMT, 207, 36, NKF0, QBccCCcccccccc, TimeUS,ID,rng,innov,SIV,TR,BPN,BPE,BPD,OFH,OFL,OFN,OFE,OFD
FMT, 208, 27, NKQ1, Qffff, TimeUS,Q1,Q2,Q3,Q4
FMT, 209, 27, NKQ2, Qffff, TimeUS,Q1,Q2,Q3,Q4
FMT, 210, 51, XKF1, QccCfffffffccc, TimeUS,Roll,Pitch,Yaw,VN,VE,VD,dPD,PN,PE,PD,GX,GY,GZ
FMT, 211, 34, XKF2, QccccchhhhhhB, TimeUS,AX,AY,AZ,VWN,VWE,MN,ME,MD,MX,MY,MZ,MI
FMT, 212, 33, XKF3, Qcccccchhhcc, TimeUS,IVN,IVE,IVD,IPN,IPE,IPD,IMX,IMY,IMZ,IYAW,IVT
FMT, 213, 35, XKF4, QcccccfbbHBHHb, TimeUS,SV,SP,SH,SM,SVT,errRP,OFN,OFE,FS,TS,SS,GPS,PI
FMT, 214, 40, XKF5, QBhhhcccCCfff, TimeUS,NI,FIX,FIY,AFI,HAGL,offset,RI,rng,Herr,eAng,eVel,ePos
FMT, 215, 51, XKF6, QccCfffffffccc, TimeUS,Roll,Pitch,Yaw,VN,VE,VD,dPD,PN,PE,PD,GX,GY,GZ
FMT, 216, 34, XKF7, QccccchhhhhhB, TimeUS,AX,AY,AZ,VWN,VWE,MN,ME,MD,MX,MY,MZ,MI
FMT, 217, 33, XKF8, Qcccccchhhcc, TimeUS,IVN,IVE,IVD,IPN,IPE,IPD,IMX,IMY,IMZ,IYAW,IVT
FMT, 218, 35, XKF9, QcccccfbbHBHHb, TimeUS,SV,SP,SH,SM,SVT,errRP,OFN,OFE,FS,TS,SS,GPS,PI
FMT, 219, 36, XKF0, QBccCCcccccccc, TimeUS,ID,rng,innov,SIV,TR,BPN,BPE,BPD,OFH,OFL,OFN,OFE,OFD
FMT, 220, 27, XKQ1, Qffff, TimeUS,Q1,Q2,Q3,Q4
FMT, 221, 27, XKQ2, Qffff, TimeUS,Q1,Q2,Q3,Q4
FMT, 222, 35, XKFD, Qffffff, TimeUS,IX,IY,IZ,IVX,IVY,IVZ
FMT, 148, 34, TERR, QBLLHffHH, TimeUS,Status,Lat,Lng,Spacing,TerrH,CHeight,Pending,Loaded
FMT, 149, 18, UBX1, QBHBBH, TimeUS,Instance,noisePerMS,jamInd,aPower,agcCnt
FMT, 150, 16, UBX2, QBbBbB, TimeUS,Instance,ofsI,magI,ofsQ,magQ
FMT, 151, 18, UBY1, QBHBBH, TimeUS,Instance,noisePerMS,jamInd,aPower,agcCnt
FMT, 152, 16, UBY2, QBbBbB, TimeUS,Instance,ofsI,magI,ofsQ,magQ
FMT, 170, 42, GRAW, QIHBBddfBbB, TimeUS,WkMS,Week,numSV,sv,cpMes,prMes,doMes,mesQI,cno,lli
FMT, 171, 24, GRXH, QdHbBB, TimeUS,rcvTime,week,leapS,numMeas,recStat
FMT, 172, 41, GRXS, QddfBBBHBBBBB, TimeUS,prMes,cpMes,doMes,gnss,sv,freq,lock,cno,prD,cpD,doD,trk
FMT, 173, 63, SBFE, QIHBBdddfffff, TimeUS,TOW,WN,Mode,Err,Lat,Lng,Height,Undul,Vn,Ve,Vu,COG
FMT, 153, 19, ESC1, Qcccc, TimeUS,RPM,Volt,Curr,Temp
FMT, 154, 19, ESC2, Qcccc, TimeUS,RPM,Volt,Curr,Temp
FMT, 155, 19, ESC3, Qcccc, TimeUS,RPM,Volt,Curr,Temp
FMT, 156, 19, ESC4, Qcccc, TimeUS,RPM,Volt,Curr,Temp
FMT, 157, 19, ESC5, Qcccc, TimeUS,RPM,Volt,Curr,Temp
FMT, 158, 19, ESC6, Qcccc, TimeUS,RPM,Volt,Curr,Temp
FMT, 159, 19, ESC7, Qcccc, TimeUS,RPM,Volt,Curr,Temp
FMT, 160, 19, ESC8, Qcccc, TimeUS,RPM,Volt,Curr,Temp
FMT, 167, 34, MAG2, QhhhhhhhhhBI, TimeUS,MagX,MagY,MagZ,OfsX,OfsY,OfsZ,MOfsX,MOfsY,MOfsZ,Health,S
FMT, 168, 34, MAG3, QhhhhhhhhhBI, TimeUS,MagX,MagY,MagZ,OfsX,OfsY,OfsZ,MOfsX,MOfsY,MOfsZ,Health,S
FMT, 174, 31, ACC1, QQfff, TimeUS,SampleUS,AccX,AccY,AccZ
FMT, 175, 31, ACC2, QQfff, TimeUS,SampleUS,AccX,AccY,AccZ
FMT, 176, 31, ACC3, QQfff, TimeUS,SampleUS,AccX,AccY,AccZ
FMT, 177, 31, GYR1, QQfff, TimeUS,SampleUS,GyrX,GyrY,GyrZ
FMT, 178, 31, GYR2, QQfff, TimeUS,SampleUS,GyrX,GyrY,GyrZ
FMT, 179, 31, GYR3, QQfff, TimeUS,SampleUS,GyrX,GyrY,GyrZ
FMT, 181, 35, PIDR, Qffffff, TimeUS,Des,P,I,D,FF,AFF
FMT, 182, 35, PIDP, Qffffff, TimeUS,Des,P,I,D,FF,AFF
FMT, 183, 35, PIDY, Qffffff, TimeUS,Des,P,I,D,FF,AFF
FMT, 184, 35, PIDA, Qffffff, TimeUS,Des,P,I,D,FF,AFF
FMT, 185, 35, PIDS, Qffffff, TimeUS,Des,P,I,D,FF,AFF
FMT, 186, 35, PIDL, Qffffff, TimeUS,Des,P,I,D,FF,AFF
FMT, 161, 37, BAR2, QffcfIff, TimeUS,Alt,Press,Temp,CRt,SMS,Offset,GndTemp
FMT, 197, 37, BAR3, QffcfIff, TimeUS,Alt,Press,Temp,CRt,SMS,Offset,GndTemp
FMT, 187, 35, VIBE, QfffIII, TimeUS,VibeX,VibeY,VibeZ,Clip0,Clip1,Clip2
FMT, 188, 47, IMT, Qfffffffff, TimeUS,DelT,DelvT,DelaT,DelAX,DelAY,DelAZ,DelVX,DelVY,DelVZ
FMT, 189, 47, IMT2, Qfffffffff, TimeUS,DelT,DelvT,DelaT,DelAX,DelAY,DelAZ,DelVX,DelVY,DelVZ
FMT, 190, 47, IMT3, Qfffffffff, TimeUS,DelT,DelvT,DelaT,DelAX,DelAY,DelAZ,DelVX,DelVY,DelVZ
FMT, 191, 24, ORGN, QBLLe, TimeUS,Type,Lat,Lng,Alt
FMT, 192, 19, RPM, Qff, TimeUS,rpm1,rpm2
FMT, 233, 47, GMB1, Iffffffffff, TimeMS,dt,dax,day,daz,dvx,dvy,dvz,jx,jy,jz
FMT, 234, 44, GMB2, IBfffffffff, TimeMS,es,ex,ey,ez,rx,ry,rz,tx,ty,tz
FMT, 235, 13, GMB3, Ihhh, TimeMS,rl_torque_cmd,el_torque_cmd,az_torque_cmd
FMT, 236, 59, RATE, Qffffffffffff, TimeUS,RDes,R,ROut,PDes,P,POut,YDes,Y,YOut,ADes,A,AOut
FMT, 237, 23, RALY, QBBLLh, TimeUS,Tot,Seq,Lat,Lng,Alt
FMT, 238, 43, VISO, Qffffffff, TimeUS,dt,AngDX,AngDY,AngDZ,PosDX,PosDY,PosDZ,conf
FMT, 224, 23, SBPH, QIII, TimeUS,CrcError,LastInject,IARhyp
FMT, 229, 80, SBR1, QHHBZ, TimeUS,msg_type,sender_id,msg_len,d1
FMT, 230, 205, SBR2, QHZZZ, TimeUS,msg_type,d2,d3,d4
FMT, 25, 41, ATUN, QBBfffffff, TimeUS,Axis,TuneStep,Targ,Min,Max,RP,RD,SP,ddt
FMT, 26, 19, ATDE, Qff, TimeUS,Angle,Rate
FMT, 31, 22, PTUN, QBfHHH, TimeUS,Param,TunVal,CtrlIn,TunLo,TunHi
FMT, 12, 28, OF, QBffff, TimeUS,Qual,flowX,flowY,bodyX,bodyY
FMT, 5, 51, NTUN, Qffffffffff, TimeUS,DPosX,DPosY,PosX,PosY,DVelX,DVelY,VelX,VelY,DAccX,DAccY
FMT, 4, 51, CTUN, Qffffffeccfhh, TimeUS,ThI,ABst,ThO,ThH,DAlt,Alt,BAlt,DSAlt,SAlt,TAlt,DCRt,CRt
FMT, 6, 32, PM, QHHIhBHII, TimeUS,NLon,NLoop,MaxT,PMT,I2CErr,INSErr,LogDrop,Mem
FMT, 30, 27, MOTB, Qffff, TimeUS,LiftMax,BatVolt,BatRes,ThLimit
FMT, 13, 12, EV, QB, TimeUS,Id
FMT, 20, 14, D16, QBh, TimeUS,Id,Value
FMT, 21, 14, DU16, QBH, TimeUS,Id,Value
FMT, 22, 16, D32, QBi, TimeUS,Id,Value
FMT, 23, 16, DU32, QBI, TimeUS,Id,Value
FMT, 24, 16, DFLT, QBf, TimeUS,Id,Value
FMT, 19, 13, ERR, QBB, TimeUS,Subsys,ECode
FMT, 32, 19, HELI, Qff, TimeUS,DRRPM,ERRPM
FMT, 33, 29, PL, QBBffff, TimeUS,Heal,TAcq,pX,pY,vX,vY
FMT, 34, 36, GUID, QBffffff, TimeUS,Type,pX,pY,pZ,vX,vY,vZ
FMT, 35, 32, THRO, QBffffbbbb, TimeUS,Stage,Vel,VelZ,Acc,AccEfZ,Throw,AttOk,HgtOk,PosOk
FMT, 36, 56, PRX, QBfffffffffff, TimeUS,Health,D0,D45,D90,D135,D180,D225,D270,D315,DUp,CAn,CDis
MODE, 223208318, 100, 100, 2
FMT, 254, 47, NKT1, QIffffffff, TimeUS,Cnt,IMUMin,IMUMax,EKFMin,EKFMax,AngMin,AngMax,VelMin,VelM
FMT, 253, 31, CTRL, Qfffff, TimeUS,RMSRollP,RMSRollD,RMSPitchP,RMSPitchD,RMSYaw
IMU, 223303842, 0.000689266, 0.001205247, -0.0008612045, 0.2585398, -0.03942702, -9.797239, 0, 0, 37.83101, 1, 1, 1000, 1000
MSG, 223362114, APM:Copter V3.5.7 (38483450)
MSG, 223362119, New mission
MSG, 223362130, Frame: QUAD
MODE, 223362134, Autonomous, 100, 2
MAG, 223376727, 407, 539, 352, 0, 0, 0, 0, 0, 0, 1, 223376719
BARO, 223376780, 0.6209725, 993.5747, 35.9, -0.08731283, 223376, 0, 34.66
CTUN, 223376793, 0, 0, 0, 0.3107165, 0.0553369, 0.0553369, 0.62, 0, 0.19, 0, 0, 0
ATT, 223376911, 0, 0.18, 0, -0.03, 88.96, 88.97, 0, 1
RATE, 223376918, -0.8354019, 0.01935796, -0.00199606, 0.1384129, -0.01665443, 0.0004563, 0.0003189317, 0.01645498, 0.0001301648, 336.8315, 1.475239, 0
NKF1, 223376928, 0.18, -0.03, 88.97, 0.001886369, 0.006308358, 0.008316826, 0, 0, 0, -0.05533689, 0, 0, 0.01
NKF2, 223376928, 0, 0, 0, 0, 0, 0, 0, 0, 0, 0, 0, 0, 0
NKF3, 223376928, 0, 0, 0, 0, 0, 0.01, 0, 0, 0, 0, 0
NKF4, 223376928, 0, 0, 0, 0, 0, 6.334825E-06, 0, 0, 0, 19, 229, 0, 0
NKF5, 223376928, 0, 0, 0, 0, 0.18, 0.13, 0, 0.19, 0.5, 4.379952E-05, 0.0005182988, 0.001175509
NKQ1, 223376928, 0.7133816, -0.007603489, 0.01050922, 0.7006558
AHR2, 223376975, 0.2, -0.05, 90.88, 0.62, 0, 0, 0.701642, 0.001544333, 0.0009403692, 0.7125274
MOTB, 223376982, 1, 1, 0, 1
RCIN, 223376987, 0, 0, 0, 0, 0, 0, 0, 0, 0, 0, 0, 0, 0, 0
RCOU, 223376993, 1101, 1101, 1101, 1101, 0, 0, 0, 0, 0, 0, 0, 0, 0, 0
VIBE, 223377002, 0.01867758, 0.02318816, 0.03090026, 0, 0, 0
CTRL, 223377009, 0.001964422, 0.0001431539, 0.0003499451, 0.0001893839, 8.481927E-05
PRX, 223377090, 1, 0.57, 0, 0.6, 0, 3.6, 0, 2.42, 0, 0, 0, 0.57
RFND, 223384157, 0.2, 25, 0, 0
IMU, 223384217, -0.000335265, 0.0001407173, 7.986565E-05, 0.2445251, -0.03266005, -9.806797, 0, 0, 37.82953, 1, 1, 1000, 1000
IMU, 223424339, 0.0007966307, 0.000145101, 0.0001289616, 0.2473603, -0.03231147, -9.800655, 0, 0, 37.82864, 1, 1, 1000, 1000
RFND, 223434119, 0.2, 25, 0, 0
IMU, 223464211, -0.00082494, -0.0008810032, -0.001035607, 0.2577021, -0.044176, -9.804018, 0, 0, 37.82825, 1, 1, 1000, 1000
MAG, 223476700, 409, 539, 350, 0, 0, 0, 0, 0, 0, 1, 223476691
BARO, 223476754, 0.6209725, 993.5747, 35.9, -0.05369709, 223476, 0, 34.66
CTUN, 223476768, 0, 0, 0, 0.3107165, 0.05539139, 0.05539139, 0.62, 0, 0.19, 0, 0, 0
ATT, 223476829, 0, 0.18, 0, -0.03, 88.96, 88.96, 0, 1
RATE, 223476834, -0.8340876, -0.05373614, -0.001798517, 0.1460627, -0.06894237, 0.000654693, -0.000372543, -0.1140424, 0.0001029973, 325.1647, 1.12648, 0
NKF1, 223476842, 0.18, -0.03, 88.96, 0.001575125, 0.006219657, 0.008028757, 0, 0, 0, -0.05539139, 0, 0, 0.01
NKF2, 223476842, 0, 0, 0, 0, 0, 0, 0, 0, 0, 0, 0, 0, 0
NKF3, 223476842, 0, 0, 0, 0, 0, 0.01, 0, 0, 0, 0, 0
NKF4, 223476842, 0, 0, 0, 0, 0, 4.145119E-06, 0, 0, 0, 19, 229, 0, 0
NKF5, 223476842, 0, 0, 0, 0, 0.18, 0.13, 0, 0.19, 0.5, 4.133831E-05, 0.0005139133, 0.001088778
NKQ1, 223476842, 0.7133986, -0.007595961, 0.01049511, 0.7006387
AHR2, 223476886, 0.2, -0.05, 90.88, 0.62, 0, 0, 0.7016529, 0.00154653, 0.0009268561, 0.7125167
MOTB, 223476894, 1, 1, 0, 1
RCIN, 223476898, 0, 0, 0, 0, 0, 0, 0, 0, 0, 0, 0, 0, 0, 0
RCOU, 223476904, 1101, 1101, 1101, 1101, 0, 0, 0, 0, 0, 0, 0, 0, 0, 0
VIBE, 223476913, 0.02024994, 0.02211862, 0.03337597, 0, 0, 0
CTRL, 223476919, 0.001959766, 0.0001456032, 0.0003608952, 0.0002065261, 8.086649E-05
PRX, 223476951, 2, 0.57, 0, 0.6, 0, 3.6, 0, 2.42, 0, 0, 0, 0.57
RFND, 223484170, 0.2, 25, 0, 0
IMU, 223504206, 0.001156571, -0.0001637706, -0.001319684, 0.2672122, -0.03797969, -9.794751, 0, 0, 37.82895, 1, 1, 1000, 1000
RFND, 223534203, 0.2, 25, 0, 0
IMU, 223544233, 0.0005168697, -0.003254148, 0.0004481702, 0.2581649, -0.03926146, -9.80806, 0, 0, 37.82888, 1, 1, 1000, 1000
DU32, 223572176, 7, 50389208
MAG, 223576720, 408, 539, 349, 0, 0, 0, 0, 0, 0, 1, 223576711
BARO, 223576774, 0.5447622, 993.5831, 35.9, -0.1181779, 223576, 0, 34.66
CTUN, 223576786, 0, 0, 0, 0.3107165, 0.05543854, 0.05543854, 0.54, 0, 0.19, 0, 0, 0
ATT, 223576849, 0, 0.18, 0, -0.03, 88.96, 88.96, 0, 1
RATE, 223576855, -0.8490722, 0.0467561, -0.002169945, 0.1663845, -0.009721209, 0.0003592299, -0.0004185771, 0.01425781, 4.205549E-05, 304.9631, 0.2735138, 0
NKF1, 223576863, 0.18, -0.03, 88.96, 0.001450485, 0.006956601, 0.007529952, 0, 0, 0, -0.05543854, 0, 0, 0.01
NKF2, 223576863, 0, 0, 0, 0, 0, 0, 0, 0, 0, 0, 0, 0, 0
NKF3, 223576863, 0, 0, 0, 0, 0, 0.01, 0, 0, 0, 0, 0
NKF4, 223576863, 0, 0, 0, 0, 0, 2.753975E-06, 0, 0, 0, 19, 229, 0, 0
NKF5, 223576863, 0, 0, 0, 0, 0.18, 0.13, 0, 0.19, 0.5, 3.996857E-05, 0.0006325508, 0.001442699
NKQ1, 223576863, 0.7134095, -0.00754401, 0.01049072, 0.7006283
AHR2, 223576960, 0.2, -0.05, 90.87, 0.54, 0, 0, 0.7016577, 0.00159341, 0.0009219972, 0.7125118
MOTB, 223576968, 1, 1, 0, 1
RCIN, 223576973, 0, 0, 0, 0, 0, 0, 0, 0, 0, 0, 0, 0, 0, 0
RCOU, 223576978, 1101, 1101, 1101, 1101, 0, 0, 0, 0, 0, 0, 0, 0, 0, 0
VIBE, 223576987, 0.02203232, 0.02311624, 0.03884949, 0, 0, 0
CTRL, 223576994, 0.001993818, 0.0001514991, 0.0004191196, 0.0002281007, 9.669842E-05
PRX, 223577027, 2, 0.57, 0, 0.6, 0, 3.6, 0, 2.42, 0, 0, 0, 0.57
RFND, 223584167, 0.2, 25, 0, 0
IMU, 223584227, 0.0006453847, -0.0009498055, -3.84467E-05, 0.2514783, -0.03296746, -9.799873, 0, 0, 37.82767, 1, 1, 1000, 1000
IMU, 223624187, -4.976205E-05, 0.0005856951, -0.0001165999, 0.2570421, -0.05237626, -9.803394, 0, 0, 37.82665, 1, 1, 1000, 1000
RFND, 223634132, 0.2, 25, 0, 0
IMU, 223664194, 0.0004440994, -0.0004902899, -0.0003683679, 0.2515329, -0.03696926, -9.803895, 0, 0, 37.82587, 1, 1, 1000, 1000
MAG, 223676706, 405, 536, 350, 0, 0, 0, 0, 0, 0, 1, 223676697
BARO, 223676758, 0.6350855, 993.573, 35.9, -0.1824413, 223676, 0, 34.66
CTUN, 223676771, 0, 0, 0, 0.3107165, 0.05572559, 0.05572559, 0.63, 0, 0.19, 0, 0, 0
ATT, 223676831, 0, 0.18, 0, -0.03, 88.96, 88.96, 0, 1
RATE, 223676836, -0.8477862, -0.02008815, -0.001808568, 0.172777, 0.008341253, 0.0003694615, 0.0004420879, 0.08358427, 7.16971E-05, 267.2924, 1.087856, 0
NKF1, 223676844, 0.18, -0.03, 88.96, 0.001555949, 0.007191997, 0.006599814, 0, 0, 0, -0.05572558, 0, 0, 0.01
NKF2, 223676844, 0, 0, 0, 0, 0, 0, 0, 0, 0, 0, 0, 0, 0
NKF3, 223676844, 0, 0, 0, 0, 0, 0.01, 0, 0, 0, 0, 0
NKF4, 223676844, 0, 0, 0, 0, 0, 1.860994E-06, 0, 0, 0, 19, 229, 0, 0
NKF5, 223676844, 0, 0, 0, 0, 0.18, 0.13, 0, 0.19, 0.5, 3.907109E-05, 0.0005860957, 0.00127745
NKQ1, 223676844, 0.7134236, -0.007537742, 0.01048023, 0.7006142
AHR2, 223676887, 0.2, -0.05, 90.87, 0.63, 0, 0, 0.7016655, 0.001595552, 0.0009136868, 0.7125043
MOTB, 223676895, 1, 1, 0, 1
RCIN, 223676899, 0, 0, 0, 0, 0, 0, 0, 0, 0, 0, 0, 0, 0, 0
RCOU, 223676905, 1101, 1101, 1101, 1101, 0, 0, 0, 0, 0, 0, 0, 0, 0, 0
VIBE, 223676913, 0.01964235, 0.01957753, 0.03320489, 0, 0, 0
CTRL, 223676921, 0.002001363, 0.0001451792, 0.0004339994, 0.000241252, 9.211589E-05
PRX, 223676952, 1, 0.57, 0, 0.6, 0, 3.6, 0, 2.42, 0, 0, 0, 0.57
RFND, 223684195, 0.2, 25, 0, 0
IMU, 223704535, -0.0006582363, -0.001880501, -0.0003390691, 0.2579991, -0.04114099, -9.802776, 0, 0, 37.82464, 1, 1, 1000, 1000
RFND, 223734602, 0.2, 25, 0, 0
IMU, 223745652, 0.0006448317, -0.001245467, -0.001327093, 0.2510058, -0.03833736, -9.807623, 0, 0, 37.82344, 1, 1, 1000, 1000
MAG, 223776742, 406, 537, 348, 0, 0, 0, 0, 0, 0, 1, 223776733
BARO, 223776797, 0.6830696, 993.5679, 35.9, -0.1190785, 223776, 0, 34.66
CTUN, 223776810, 0, 0, 0, 0.3107165, 0.05586766, 0.05586766, 0.68, 0, 0.19, 0, 0, 0
ATT, 223776873, 0, 0.18, 0, -0.03, 88.95, 88.95, 0, 1
RATE, 223776879, -0.842984, 0.01954154, -0.002126859, 0.1733959, 0.05078128, -9.640286E-05, 0.001072205, -0.04017303, 0.0001404607, 242.228, 1.131725, 0
NKF1, 223776887, 0.18, -0.03, 88.95, 0.001551882, 0.007785548, 0.005980939, 0, 0, 0, -0.05586766, 0, 0, 0.01
NKF2, 223776887, 0, 0, 0, 0, 0, 0, 0, 0, 0, 0, 0, 0, 0
NKF3, 223776887, 0, 0, 0, 0, 0, 0.01, 0, 0, 0, 0, 0
NKF4, 223776887, 0, 0, 0, 0, 0, 1.264647E-06, 0, 0, 0, 19, 229, 0, 0
NKF5, 223776887, 0, 0, 0, 0, 0.18, 0.13, 0, 0.19, 0.5, 3.843705E-05, 0.0006120381, 0.00135044
NKQ1, 223776887, 0.7134564, -0.007540483, 0.01047389, 0.7005808
AHR2, 223776933, 0.2, -0.05, 90.87, 0.68, 0, 0, 0.7016925, 0.001589022, 0.0009122139, 0.7124775
MOTB, 223776940, 1, 1, 0, 1
RCIN, 223776945, 0, 0, 0, 0, 0, 0, 0, 0, 0, 0, 0, 0, 0, 0
RCOU, 223776951, 1101, 1101, 1101, 1101, 0, 0, 0, 0, 0, 0, 0, 0, 0, 0
VIBE, 223776959, 0.0198145, 0.02076435, 0.03160145, 0, 0, 0
CTRL, 223776966, 0.001987313, 0.0001412283, 0.0004524495, 0.0003218551, 9.606304E-05
PRX, 223776999, 1, 0.57, 0, 0.6, 0, 3.6, 0, 2.42, 0, 0, 0, 0.57
RFND, 223784117, 0.2, 25, 0, 0
IMU, 223784177, -0.00027979, 0.00133181, -0.0001880287, 0.2578262, -0.02693054, -9.815862, 0, 0, 37.82157, 1, 1, 1000, 1000
IMU, 223824071, 0.0006922199, 0.0006340523, 0.0003707191, 0.2476783, -0.03598561, -9.788157, 0, 0, 37.82041, 1, 1, 1000, 1000
RFND, 223834036, 0.2, 25, 0, 0
IMU, 223864063, 0.001099983, -0.0002514331, -0.0001317222, 0.2648577, -0.03883188, -9.801191, 0, 0, 37.8187, 1, 1, 1000, 1000
MAG, 223876548, 400, 541, 348, 0, 0, 0, 0, 0, 0, 1, 223876540
BARO, 223876649, 0.6520211, 993.5712, 35.9, 0.1049654, 223876, 0, 34.66
CTUN, 223876663, 0, 0, 0, 0.3107165, 0.0562327, 0.0562327, 0.65, 0, 0.19, 0, 0, 0
ATT, 223876718, 0, 0.19, 0, -0.03, 88.95, 88.95, 0, 1
RATE, 223876724, -0.861479, 0.04016709, -0.002053286, 0.1736629, -0.03166624, 0.0005905541, 0.001471671, 0.009083971, 3.860744E-05, 242.7186, -0.03232956, 0
NKF1, 223876731, 0.19, -0.03, 88.95, 0.001440862, 0.008144229, 0.005993052, 0, 0, 0, -0.0562327, 0, 0, 0.01
NKF2, 223876731, 0, 0, 0, 0, 0, 0, 0, 0, 0, 0, 0, 0, 0
NKF3, 223876731, 0, 0, 0, 0, 0, 0.01, 0, 0, 0, 0, 0
NKF4, 223876731, 0, 0, 0, 0, 0, 8.728343E-07, 0, 0, 0, 19, 229, 0, 0
NKF5, 223876731, 0, 0, 0, 0, 0.18, 0.13, 0, 0.19, 0.5, 3.78583E-05, 0.0006123551, 0.001366945
NKQ1, 223876731, 0.713455, -0.007518457, 0.01049651, 0.7005822
AHR2, 223876775, 0.2, -0.05, 90.87, 0.65, 0, 0, 0.7016852, 0.001608583, 0.0009379916, 0.7124847
MOTB, 223876782, 1, 1, 0, 1
RCIN, 223876786, 0, 0, 0, 0, 0, 0, 0, 0, 0, 0, 0, 0, 0, 0
RCOU, 223876792, 1101, 1101, 1101, 1101, 0, 0, 0, 0, 0, 0, 0, 0, 0, 0
VIBE, 223876801, 0.02023537, 0.02085217, 0.02988261, 0, 0, 0
CTRL, 223876807, 0.002026294, 0.0001395166, 0.0004366766, 0.0002857418, 8.883819E-05
PRX, 223876839, 1, 0.57, 0, 0.6, 0, 3.6, 0, 2.42, 0, 0, 0, 0.57
RFND, 223884058, 0.2, 25, 0, 0
IMU, 223904122, 0.0001571109, -0.0003223382, -6.714743E-05, 0.2552377, -0.04214004, -9.801208, 0, 0, 37.81819, 1, 1, 1000, 1000
RFND, 223934302, 0.2, 25, 0, 0
IMU, 223944082, -0.0003386848, 0.001504091, 8.094814E-05, 0.2652823, -0.04099532, -9.803545, 0, 0, 37.81771, 1, 1, 1000, 1000
MAG, 223976669, 406, 537, 347, 0, 0, 0, 0, 0, 0, 1, 223976661
BARO, 223976781, 0.6689566, 993.5695, 35.9, 0.2699112, 223976, 0, 34.66
CTUN, 223976796, 0, 0, 0, 0.3107165, 0.05644947, 0.05644947, 0.66, 0, 0.19, 0, 0, 0
ATT, 223976857, 0, 0.19, 0, -0.03, 88.95, 88.95, 0, 1
RATE, 223976863, -0.8607448, 0.07650288, -0.002534695, 0.1772441, 0.0009673793, 0.0004922478, 0.000411315, -0.03387414, 6.536214E-05, 247.0806, -0.5869865, 0
NKF1, 223976871, 0.19, -0.03, 88.95, 0.001515422, 0.008945102, 0.006100756, 0, 0, 0, -0.05644947, 0, 0, 0.01
NKF2, 223976871, 0, 0, 0, 0, 0, 0, 0, 0, 0, 0, 0, 0, 0
NKF3, 223976871, 0, 0, 0, 0, 0, 0.01, 0, 0, 0, 0, 0
NKF4, 223976871, 0, 0, 0, 0, 0, 6.122517E-07, 0, 0, 0, 19, 229, 0, 0
NKF5, 223976871, 0, 0, 0, 0, 0.19, 0.13, 0, 0.19, 0.5, 3.737245E-05, 0.0005826326, 0.001285047
NKQ1, 223976871, 0.7134715, -0.007511787, 0.01049204, 0.7005655
AHR2, 223976982, 0.2, -0.05, 90.87, 0.66, 0, 0, 0.7016957, 0.001614284, 0.000933615, 0.7124743
MOTB, 223976990, 1, 1, 0, 1
RCIN, 223976995, 0, 0, 0, 0, 0, 0, 0, 0, 0, 0, 0, 0, 0, 0
RCOU, 223977001, 1101, 1101, 1101, 1101, 0, 0, 0, 0, 0, 0, 0, 0, 0, 0
VIBE, 223977009, 0.01824174, 0.01884108, 0.02922374, 0, 0, 0
CTRL, 223977016, 0.00202225, 0.000171163, 0.000453244, 0.0002846842, 8.068333E-05
PRX, 223977049, 2, 0.57, 0, 0.6, 0, 3.6, 0, 2.42, 0, 0, 0, 0.57
RFND, 223984318, 0.2, 25, 0, 0
IMU, 223984380, 0.0007432051, -0.0004558683, -0.0002708864, 0.250297, -0.03957515, -9.821848, 0, 0, 37.81715, 1, 1, 1000, 1000
IMU, 224024230, -0.001187295, 0.0002184408, 0.0001253138, 0.25929, -0.0349923, -9.799197, 0, 0, 37.81742, 1, 1, 1000, 1000
RFND, 224034145, 0.2, 25, 0, 0
IMU, 224064548, 0.0002487579, -0.00105226, -0.0004358441, 0.2530502, -0.03013718, -9.808901, 0, 0, 37.81583, 1, 1, 1000, 1000
MAG, 224076551, 404, 541, 345, 0, 0, 0, 0, 0, 0, 1, 224076543
BARO, 224076655, 0.7282313, 993.5628, 35.9, 0.2152233, 224076, 0, 34.66
CTUN, 224076669, 0, 0, 0, 0.3107165, 0.05681497, 0.05681497, 0.72, 0, 0.19, 0, 0, 0
ATT, 224076725, 0, 0.19, 0, -0.03, 88.94, 88.95, 0, 1
RATE, 224076731, -0.8603747, 0.0139189, -0.001992719, 0.1790212, -0.04635748, 0.0005668242, -0.000695147, -0.01420117, 0.000100289, 197.7358, -1.153469, 0
NKF1, 224076738, 0.19, -0.03, 88.95, 0.001284178, 0.009420319, 0.004882365, 0, 0, 0, -0.05681497, 0, 0, 0.01
NKF2, 224076738, 0, 0, 0, 0, 0, 0, 0, 0, 0, 0, 0, 0, 0
NKF3, 224076738, 0, 0, 0, 0, 0, 0.01, 0, 0, 0, 0, 0
NKF4, 224076738, 0, 0, 0, 0, 0, 4.443805E-07, 0, 0, 0, 19, 229, 0, 0
NKF5, 224076738, 0, 0, 0, 0, 0.18, 0.13, 0, 0.19, 0.5, 3.700968E-05, 0.0006139769, 0.001402463
NKQ1, 224076738, 0.7134899, -0.007514452, 0.01048632, 0.7005467
AHR2, 224076782, 0.2, -0.05, 90.87, 0.72, 0, 0, 0.701708, 0.001609056, 0.0009291156, 0.7124623
MOTB, 224076789, 1, 1, 0, 1
RCIN, 224076794, 0, 0, 0, 0, 0, 0, 0, 0, 0, 0, 0, 0, 0, 0
RCOU, 224076800, 1101, 1101, 1101, 1101, 0, 0, 0, 0, 0, 0, 0, 0, 0, 0
VIBE, 224076808, 0.0211878, 0.01993921, 0.03184443, 0, 0, 0
CTRL, 224076815, 0.002025559, 0.000166555, 0.0004458879, 0.000262266, 8.257914E-05
PRX, 224076906, 2, 0.57, 0, 0.6, 0, 3.6, 0, 2.42, 0, 0, 0, 0.57
RFND, 224084072, 0.2, 25, 0, 0
IMU, 224104130, -0.001727283, 0.0008661422, 0.0004844656, 0.2558584, -0.04286597, -9.809708, 0, 0, 37.8142, 1, 1, 1000, 1000
RFND, 224134058, 0.2, 25, 0, 0
IMU, 224144077, 0.0005597016, -0.0007125094, -0.0005336048, 0.2488059, -0.03214077, -9.791946, 0, 0, 37.81326, 1, 1, 1000, 1000
MAG, 224176548, 408, 534, 346, 0, 0, 0, 0, 0, 0, 1, 224176540
BARO, 224176598, 0.6520211, 993.5712, 35.9, 0.1278991, 224176, 0, 34.66
CTUN, 224176610, 0, 0, 0, 0.3107165, 0.05719104, 0.05719104, 0.65, 0, 0.19, 0, 0, 0
ATT, 224176664, 0, 0.19, 0, -0.03, 88.94, 88.95, 0, 1
RATE, 224176669, -0.8618747, 0.06591642, -0.002180895, 0.1717012, 0.02063749, 0.0002734041, -9.588162E-05, 0.02078772, 4.238367E-06, 195.4477, -0.9753227, 0
NKF1, 224176677, 0.19, -0.03, 88.95, 0.001100561, 0.009420032, 0.004825868, 0, 0, 0, -0.05719104, 0, 0, 0.01
NKF2, 224176677, 0, 0, 0, 0, 0, 0, 0, 0, 0, 0, 0, 0, 0
NKF3, 224176677, 0, 0, 0, 0, 0, 0.01, 0, 0, 0, 0, 0
NKF4, 224176677, 0, 0, 0, 0, 0, 3.384517E-07, 0, 0, 0, 19, 229, 0, 0
NKF5, 224176677, 0, 0, 0, 0, 0.19, 0.13, 0, 0.19, 0.5, 3.673713E-05, 0.0005475819, 0.001214012
NKQ1, 224176677, 0.7134911, -0.007517928, 0.01050162, 0.7005453
AHR2, 224176722, 0.2, -0.05, 90.87, 0.65, 0, 0, 0.7017028, 0.00160094, 0.0009472744, 0.7124674
MOTB, 224176729, 1, 1, 0, 1
RCIN, 224176733, 0, 0, 0, 0, 0, 0, 0, 0, 0, 0, 0, 0, 0, 0
RCOU, 224176739, 1101, 1101, 1101, 1101, 0, 0, 0, 0, 0, 0, 0, 0, 0, 0
VIBE, 224176748, 0.0197691, 0.02174433, 0.03206149, 0, 0, 0
CTRL, 224176754, 0.002030016, 0.0001768602, 0.0004349397, 0.0002361361, 7.34348E-05
PRX, 224176787, 1, 0.57, 0, 0.6, 0, 3.6, 0, 2.42, 0, 0, 0, 0.57
RFND, 224187721, 0.2, 25, 0, 0
IMU, 224187775, 0.001167822, 0.001119396, 6.12172E-05, 0.2478155, -0.02920487, -9.797661, 0, 0, 37.81358, 1, 1, 1000, 1000
IMU, 224225519, -0.000610228, 0.0003090193, -0.0003852044, 0.2508697, -0.04662991, -9.794087, 0, 0, 37.8157, 1, 1, 1000, 1000
RFND, 224235516, 0.2, 25, 0, 0
IMU, 224265581, 0.001303651, 0.001027915, 0.001140909, 0.2563856, -0.03637718, -9.789372, 0, 0, 37.81799, 1, 1, 1000, 1000
MAG, 224278270, 405, 533, 347, 0, 0, 0, 0, 0, 0, 1, 224278261
BARO, 224278339, 0.6209725, 993.5747, 35.9, 0.07587213, 224278, 0, 34.66
CTUN, 224278351, 0, 0, 0, 0.3107165, 0.0574605, 0.0574605, 0.62, 0, 0.19, 0, 0, 0
ATT, 224278519, 0, 0.19, 0, -0.03, 88.95, 88.95, 0, 1
RATE, 224278525, -0.8658625, -0.01052653, -0.00177871, 0.150461, 0.03109498, 0.0002880921, -0.001048902, 0.07870264, -4.277688E-05, 206.6763, 1.126957, 0
NKF1, 224278534, 0.19, -0.03, 88.95, 0.001462569, 0.009631094, 0.00510312, 0, 0, 0, -0.05746051, 0, 0, 0.01
NKF2, 224278534, 0, 0, 0, 0, 0, 0, 0, 0, 0, 0, 0, 0, 0
NKF3, 224278534, 0, 0, 0, 0, 0, 0.01, 0, 0, 0, 0, 0
NKF4, 224278534, 0, 0, 0, 0, 0, 2.732188E-07, 0, 0, 0, 19, 229, 0, 0
NKF5, 224278534, 0, 0, 0, 0, 0.18, 0.13, 0, 0.19, 0.5, 3.652366E-05, 0.0006081616, 0.001423163
NKQ1, 224278534, 0.7134816, -0.007540802, 0.01053734, 0.7005542
AHR2, 224278579, 0.2, -0.04, 90.87, 0.62, 0, 0, 0.7016873, 0.001574853, 0.0009853523, 0.7124827
MOTB, 224278586, 1, 1, 0, 1
RCIN, 224278591, 0, 0, 0, 0, 0, 0, 0, 0, 0, 0, 0, 0, 0, 0
RCOU, 224278597, 1101, 1101, 1101, 1101, 0, 0, 0, 0, 0, 0, 0, 0, 0, 0
VIBE, 224278605, 0.01872477, 0.01962328, 0.03489116, 0, 0, 0
CTRL, 224278611, 0.002046073, 0.000186712, 0.0003942536, 0.0002359528, 6.177824E-05
PRX, 224278643, 1, 0.57, 0, 0.6, 0, 3.6, 0, 2.42, 0, 0, 0, 0.57
RFND, 224285577, 0.2, 25, 0, 0
IMU, 224305670, -9.892079E-05, 0.002274957, -0.0005869407, 0.2611047, -0.04241828, -9.801878, 0, 0, 37.81975, 1, 1, 1000, 1000
RFND, 224335670, 0.2, 25, 0, 0
IMU, 224345766, -0.000279272, -0.0001362152, 0.0004427285, 0.2587169, -0.04524054, -9.802856, 0, 0, 37.8214, 1, 1, 1000, 1000
MAG, 224378177, 406, 539, 349, 0, 0, 0, 0, 0, 0, 1, 224378169
BARO, 224378231, 0.6209725, 993.5747, 35.9, -0.08442042, 224378, 0, 34.66
CTUN, 224378409, 0, 0, 0, 0.3107165, 0.05781278, 0.05781278, 0.62, 0, 0.19, 0, 0, 0
ATT, 224378475, 0, 0.19, 0, -0.03, 88.95, 88.95, 0, 1
RATE, 224378481, -0.8620489, -0.06514527, -0.001792464, 0.1460601, -0.07266293, 0.0006853539, 0.0004264037, 0.02117023, -1.697895E-05, 191.6513, 0.2940178, 0
NKF1, 224378490, 0.19, -0.03, 88.95, 0.001765799, 0.01052287, 0.004732131, 0, 0, 0, -0.05781278, 0, 0, 0.01
NKF2, 224378490, 0, 0, 0, 0, 0, 0, 0, 0, 0, 0, 0, 0, 0
NKF3, 224378490, 0, 0, 0, 0, 0, 0.01, 0, 0, 0, 0, 0
NKF4, 224378490, 0, 0, 0, 0, 0, 2.401606E-07, 0, 0, 0, 19, 229, 0, 0
NKF5, 224378490, 0, 0, 0, 0, 0.19, 0.13, 0, 0.19, 0.5, 3.663618E-05, 0.0005181831, 0.001162893
NKQ1, 224378490, 0.7134798, -0.007551115, 0.01053846, 0.7005559
AHR2, 224378537, 0.2, -0.04, 90.87, 0.62, 0, 0, 0.701679, 0.001564025, 0.0009883656, 0.7124909
MOTB, 224378544, 1, 1, 0, 1
RCIN, 224378549, 0, 0, 0, 0, 0, 0, 0, 0, 0, 0, 0, 0, 0, 0
RCOU, 224378555, 1101, 1101, 1101, 1101, 0, 0, 0, 0, 0, 0, 0, 0, 0, 0
VIBE, 224378564, 0.01883771, 0.01838673, 0.03123729, 0, 0, 0
CTRL, 224378571, 0.002041748, 0.0001783285, 0.0003755393, 0.0002387899, 5.579079E-05
PRX, 224378604, 1, 0.57, 0, 0.6, 0, 3.6, 0, 2.42, 0, 0, 0, 0.57
RFND, 224386659, 0.2, 25, 0, 0
IMU, 224386717, -0.0005666869, -0.001048549, -9.391973E-05, 0.2588216, -0.03488955, -9.806734, 0, 0, 37.82323, 1, 1, 1000, 1000
IMU, 224425579, -0.0002836657, -0.0006600937, -0.0003304039, 0.2627904, -0.03842805, -9.802106, 0, 0, 37.82532, 1, 1, 1000, 1000
RFND, 224435541, 0.2, 25, 0, 0
IMU, 224465534, -0.0009026945, -0.001138859, -0.0008136067, 0.2489196, -0.04377504, -9.820173, 0, 0, 37.82728, 1, 1, 1000, 1000
MAG, 224478113, 401, 536, 347, 0, 0, 0, 0, 0, 0, 1, 224478105
BARO, 224478163, 0.6661341, 993.5696, 35.9, -0.2212188, 224478, 0, 34.66
CTUN, 224478176, 0, 0, 0, 0.3107165, 0.0580585, 0.0580585, 0.66, 0, 0.19, 0, 0, 0
ATT, 224478231, 0, 0.19, 0, -0.03, 88.94, 88.95, 0, 1
RATE, 224478237, -0.8576863, 0.01242632, -0.002234858, 0.1696559, -0.02321066, 0.0003145606, 0.0007032687, -0.04531658, 3.874899E-05, 181.973, -0.05903244, 0
NKF1, 224478361, 0.19, -0.03, 88.95, 0.001787034, 0.01128938, 0.00449316, 0, 0, 0, -0.0580585, 0, 0, 0.01
NKF2, 224478361, 0, 0, 0, 0, 0, 0, 0, 0, 0, 0, 0, 0, 0
NKF3, 224478361, 0, 0, 0, 0, 0, 0.01, 0, 0, 0, 0, 0
NKF4, 224478361, 0, 0, 0, 0, 0, 2.224311E-07, 0, 0, 0, 19, 229, 0, 0
NKF5, 224478361, 0, 0, 0, 0, 0.19, 0.13, 0, 0.19, 0.5, 3.663703E-05, 0.0006026088, 0.001442754
NKQ1, 224478361, 0.7134882, -0.007529752, 0.01049612, 0.7005482
AHR2, 224478409, 0.2, -0.05, 90.87, 0.66, 0, 0, 0.7016805, 0.001584177, 0.0009500597, 0.7124894
MOTB, 224478417, 1, 1, 0, 1
RCIN, 224478421, 0, 0, 0, 0, 0, 0, 0, 0, 0, 0, 0, 0, 0, 0
RCOU, 224478427, 1101, 1101, 1101, 1101, 0, 0, 0, 0, 0, 0, 0, 0, 0, 0
VIBE, 224478436, 0.01912109, 0.01920059, 0.03137101, 0, 0, 0
CTRL, 224478442, 0.002022504, 0.0001682296, 0.0004358817, 0.0002360992, 4.732509E-05
PRX, 224478475, 2, 0.57, 0, 0.6, 0, 3.6, 0, 2.41, 0, 0, 0, 0.57
RFND, 224485537, 0.2, 25, 0, 0
IMU, 224505550, 0.0001440188, 0.0004458742, -0.0006519588, 0.255217, -0.03067833, -9.802837, 0, 0, 37.82688, 1, 1, 1000, 1000
RFND, 224535534, 0.2, 25, 0, 0
IMU, 224545595, 0.0005540314, 0.0008859014, 0.001458871, 0.2569619, -0.03603966, -9.807289, 0, 0, 37.82521, 1, 1, 1000, 1000
DU32, 224573092, 7, 50389208
MAG, 224580826, 403, 538, 346, 0, 0, 0, 0, 0, 0, 1, 224580818
BARO, 224580876, 0.6830696, 993.568, 35.9, -0.1208874, 224580, 0, 34.66
CTUN, 224580888, 0, 0, 0, 0.3107165, 0.05853308, 0.05853308, 0.68, 0, 0.19, 0, 0, 0
ATT, 224580948, 0, 0.19, 0, -0.03, 88.94, 88.95, 0, 1
RATE, 224580954, -0.8605672, -0.05628018, -0.001507329, 0.1544896, 0.0536661, -9.915102E-05, -0.00229362, -0.001178662, 4.082236E-05, 157.3442, -0.9204865, 0
NKF1, 224580962, 0.19, -0.03, 88.95, 0.001474325, 0.01135567, 0.003885042, 0, 0, 0, -0.05853308, 0, 0, 0.01
NKF2, 224580962, 0, 0, 0, 0, 0, 0, 0, 0, 0, 0, 0, 0, 0
NKF3, 224580962, 0, 0, 0, 0, 0.01, 0, 0, 0, 0, 0, 0
NKF4, 224580962, 0, 0, 0, 0, 0, 2.278238E-07, 0, 0, 0, 19, 229, 0, 0
NKF5, 224580962, 0, 0, 0, 0, 0.19, 0.13, 0, 0.19, 0.5, 3.68107E-05, 0.0005066803, 0.001165728
NKQ1, 224580962, 0.7134926, -0.007547691, 0.01052048, 0.7005431
AHR2, 224581006, 0.2, -0.04, 90.87, 0.68, 0, 0, 0.7016789, 0.001562421, 0.0009799225, 0.712491
MOTB, 224581013, 1, 1, 0, 1
RCIN, 224581017, 0, 0, 0, 0, 0, 0, 0, 0, 0, 0, 0, 0, 0, 0
RCOU, 224581023, 1101, 1101, 1101, 1101, 0, 0, 0, 0, 0, 0, 0, 0, 0, 0
VIBE, 224581031, 0.02115038, 0.02156526, 0.03363473, 0, 0, 0
CTRL, 224581038, 0.002033665, 0.0001527093, 0.000408101, 0.0002336086, 5.056394E-05
PRX, 224581071, 2, 0.57, 0, 0.6, 0, 3.6, 0, 2.41, 0, 0, 0, 0.57
RFND, 224586351, 0.2, 25, 0, 0
IMU, 224586398, -0.001135208, 0.0009900004, -5.629207E-05, 0.2485765, -0.03967254, -9.792946, 0, 0, 37.82421, 1, 1, 1000, 1000
IMU, 224626570, 0.0006150269, -0.001073635, -0.0001176485, 0.2627649, -0.04545062, -9.800506, 0, 0, 37.82388, 1, 1, 1000, 1000
RFND, 224636584, 0.2, 25, 0, 0
IMU, 224666545, 0.0001981739, 0.001138453, 0.001124295, 0.2571397, -0.03565869, -9.817083, 0, 0, 37.82428, 1, 1, 1000, 1000
MAG, 224679127, 407, 540, 351, 0, 0, 0, 0, 0, 0, 1, 224679119
BARO, 224679374, 0.8044416, 993.5543, 35.9, 0.1326887, 224679, 0, 34.66
CTUN, 224679390, 0, 0, 0, 0.3107165, 0.05890359, 0.05890359, 0.8, 0, 0.19, 0, 0, 0
ATT, 224679454, 0, 0.19, 0, -0.03, 88.94, 88.95, 0, 1
RATE, 224679459, -0.8684863, -0.02983061, -0.001785691, 0.1346311, 0.04141079, 0.0003792386, -0.0005879982, 0.02242493, -2.250157E-05, 125.002, 0.9433746, 0
NKF1, 224679468, 0.19, -0.03, 88.95, 0.001260447, 0.01184357, 0.003086469, 0, 0, 0, -0.05890359, 0, 0, 0.01
NKF2, 224679468, 0, 0, 0, 0, 0, 0, 0, 0, 0, 0, 0, 0, 0
NKF3, 224679468, 0, 0, 0, 0, 0.01, 0, 0, 0, 0, 0, 0
NKF4, 224679468, 0, 0, 0, 0, 0, 2.382921E-07, 0, 0, 0, 19, 229, 0, 0
NKF5, 224679468, 0, 0, 0, 0, 0.19, 0.13, 0, 0.19, 0.5, 3.714823E-05, 0.0004477123, 0.0009891215
NKQ1, 224679468, 0.7134925, -0.007563406, 0.01055908, 0.7005426
AHR2, 224679516, 0.2, -0.04, 90.87, 0.8, 0, 0, 0.7016729, 0.001543857, 0.001021079, 0.7124969
MOTB, 224679523, 1, 1, 0, 1
RCIN, 224679527, 0, 0, 0, 0, 0, 0, 0, 0, 0, 0, 0, 0, 0, 0
RCOU, 224679533, 1101, 1101, 1101, 1101, 0, 0, 0, 0, 0, 0, 0, 0, 0, 0
VIBE, 224679542, 0.01895664, 0.02181508, 0.03333749, 0, 0, 0
CTRL, 224679550, 0.002044795, 0.0001571313, 0.0003637129, 0.0002418741, 4.578316E-05
PRX, 224679583, 1, 0.57, 0, 0.6, 0, 3.6, 0, 2.41, 0, 0, 0, 0.57
RFND, 224686528, 0.2, 25, 0, 0
IMU, 224706570, -0.0001032194, -0.00207962, -0.0002807411, 0.2592084, -0.03282147, -9.795179, 0, 0, 37.82475, 1, 1, 1000, 1000
RFND, 224736550, 0.2, 25, 0, 0
IMU, 224746492, -0.0006374904, 3.832596E-05, 0.0004119843, 0.2467555, -0.04028569, -9.799535, 0, 0, 37.8243, 1, 1, 1000, 1000
MAG, 224778965, 403, 538, 344, 0, 0, 0, 0, 0, 0, 1, 224778957
BARO, 224779020, 0.7451669, 993.5611, 35.9, 0.3537939, 224779, 0, 34.66
CTUN, 224779032, 0, 0, 0, 0.3107165, 0.05937584, 0.05937584, 0.74, 0, 0.19, 0, 0, 0
ATT, 224779093, 0, 0.19, 0, -0.03, 88.94, 88.95, 0, 1
RATE, 224779099, -0.8590629, 0.01638657, -0.001991835, 0.1363499, -0.0002960485, 0.0006741591, 0.0008412762, 0.08581831, -3.907915E-05, 118.6334, -1.038647, 0
NKF1, 224779107, 0.19, -0.03, 88.95, 0.0007314784, 0.01236723, 0.002929219, 0, 0, 0, -0.05937584, 0, 0, 0.01
NKF2, 224779107, 0, 0, 0, 0, 0, 0, 0, 0, 0, 0, 0, 0, 0
NKF3, 224779107, 0, 0, 0, 0, 0.01, 0, 0, 0, 0, 0, 0
NKF4, 224779107, 0, 0, 0, 0, 0, 2.599806E-07, 0, 0, 0, 19, 229, 0, 0
NKF5, 224779107, 0, 0, 0, 0, 0.19, 0.13, 0, 0.19, 0.5, 3.713011E-05, 0.0005128769, 0.001218433
NKQ1, 224779107, 0.7134891, -0.007570555, 0.01054694, 0.700546
AHR2, 224779152, 0.2, -0.04, 90.87, 0.74, 0, 0, 0.7016628, 0.001535595, 0.001008837, 0.7125068
MOTB, 224779232, 1, 1, 0, 1
RCIN, 224779238, 0, 0, 0, 0, 0, 0, 0, 0, 0, 0, 0, 0, 0, 0
RCOU, 224779244, 1101, 1101, 1101, 1101, 0, 0, 0, 0, 0, 0, 0, 0, 0, 0
VIBE, 224779253, 0.01906666, 0.01789396, 0.03034843, 0, 0, 0
CTRL, 224779260, 0.002030538, 0.0001493239, 0.0003652403, 0.0002724119, 3.89153E-05
PRX, 224779369, 1, 0.57, 0, 0.6, 0, 3.6, 0, 2.41, 0, 0, 0, 0.57
RFND, 224786601, 0.2, 25, 0, 0
IMU, 224786661, 0.0002067443, -0.0003419429, 0.00113547, 0.2559719, -0.03666874, -9.798575, 0, 0, 37.82489, 1, 1, 1000, 1000
IMU, 224826536, -0.0001535406, 0.0002128538, -9.44596E-05, 0.2637345, -0.03474565, -9.776992, 0, 0, 37.82656, 1, 1, 1000, 1000
RFND, 224836588, 0.2, 25, 0, 0
IMU, 224866547, -0.0008311786, 0.001363352, 0.0003764433, 0.2540264, -0.03366876, -9.800837, 0, 0, 37.82846, 1, 1, 1000, 1000
MAG, 224878934, 405, 534, 349, 0, 0, 0, 0, 0, 0, 1, 224878926
BARO, 224878987, 0.7592799, 993.5594, 35.9, 0.4131073, 224878, 0, 34.66
CTUN, 224878999, 0, 0, 0, 0.3107165, 0.05981011, 0.05981011, 0.75, 0, 0.19, 0, 0, 0
ATT, 224879058, 0, 0.19, 0, -0.02, 88.95, 88.95, 0, 1
RATE, 224879063, -0.8580432, -0.002690189, -0.0022098, 0.1117892, 0.07035404, 0.0001299553, 0.0002417226, 0.006945647, -6.407691E-05, 130.5065, 0.148201, 0
NKF1, 224879071, 0.19, -0.02, 88.95, -1.428662E-06, 0.0132391, 0.003222383, 0, 0, 0, -0.05981011, 0, 0, 0.01
NKF2, 224879071, 0, 0, 0, 0, 0, 0, 0, 0, 0, 0, 0, 0, 0
NKF3, 224879071, 0, 0, 0, 0, 0.01, 0, 0, 0, 0, 0, 0
NKF4, 224879071, 0, 0, 0, 0, 0, 2.908788E-07, 0, 0, 0, 19, 229, 0, 0
NKF5, 224879071, 0, 0, 0, 0, 0.19, 0.13, 0, 0.19, 0.5, 3.749488E-05, 0.0004269016, 0.0009652027
NKQ1, 224879071, 0.7134769, -0.007603987, 0.01058005, 0.7005577
AHR2, 224879115, 0.2, -0.03, 90.88, 0.75, 0, 0, 0.7016444, 0.001497388, 0.001041158, 0.712525
MOTB, 224879122, 1, 1, 0, 1
RCIN, 224879126, 0, 0, 0, 0, 0, 0, 0, 0, 0, 0, 0, 0, 0, 0
RCOU, 224879132, 1101, 1101, 1101, 1101, 0, 0, 0, 0, 0, 0, 0, 0, 0, 0
VIBE, 224879140, 0.02057659, 0.02163766, 0.03030903, 0, 0, 0
CTRL, 224879147, 0.002026219, 0.0001462416, 0.0003317877, 0.0002490255, 5.209305E-05
PRX, 224879262, 1, 0.57, 0, 0.6, 0, 3.6, 0, 2.41, 0, 0, 0, 0.57
RFND, 224886487, 0.2, 25, 0, 0
IMU, 224906512, 0.0005792058, -1.535878E-05, -0.0008670735, 0.2472789, -0.0245973, -9.79627, 0, 0, 37.83047, 1, 1, 1000, 1000
RFND, 224936573, 0.2, 25, 0, 0
IMU, 224946567, 0.0002371181, -0.001052849, -0.0002637469, 0.2558541, -0.03832179, -9.81024, 0, 0, 37.83249, 1, 1, 1000, 1000
MAG, 224978933, 408, 536, 345, 0, 0, 0, 0, 0, 0, 1, 224978924
BARO, 224978987, 0.7141183, 993.5645, 35.9, 0.2430549, 224978, 0, 34.66
CTUN, 224978999, 0, 0, 0, 0.3107165, 0.06009379, 0.06009379, 0.71, 0, 0.19, 0, 0, 0
ATT, 224979062, 0, 0.18, 0, -0.02, 88.94, 88.95, 0, 1
RATE, 224979067, -0.852237, -0.0478062, -0.001928094, 0.1204227, -0.1015197, 0.0006679869, -0.0004804505, -0.05565138, 4.582843E-05, 140.6682, -0.8481979, 0
NKF1, 224979075, 0.18, -0.02, 88.95, -0.0006894622, 0.01359363, 0.003473287, 0, 0, 0, -0.06009379, 0, 0, 0.01
NKF2, 224979075, 0, 0, 0, 0, 0, 0, 0, 0, 0, 0, 0, 0, 0
NKF3, 224979075, 0, 0, 0, 0, 0.01, 0, 0, 0, 0, 0, 0
NKF4, 224979075, 0, 0, 0, 0, 0, 3.211229E-07, 0, 0, 0, 19, 229, 0, 0
NKF5, 224979075, 0, 0, 0, 0, 0.19, 0.13, 0, 0.19, 0.5, 3.740311E-05, 0.000529951, 0.001297613
NKQ1, 224979075, 0.7135014, -0.007602721, 0.01055784, 0.7005331
AHR2, 224979120, 0.2, -0.03, 90.87, 0.71, 0, 0, 0.7016626, 0.001491002, 0.001017823, 0.7125071
MOTB, 224979127, 1, 1, 0, 1
RCIN, 224979131, 0, 0, 0, 0, 0, 0, 0, 0, 0, 0, 0, 0, 0, 0
RCOU, 224979137, 1101, 1101, 1101, 1101, 0, 0, 0, 0, 0, 0, 0, 0, 0, 0
VIBE, 224979146, 0.01857564, 0.02205565, 0.0335099, 0, 0, 0
CTRL, 224979152, 0.002012641, 0.0001419805, 0.000330721, 0.0002467519, 5.121435E-05
PRX, 224979185, 2, 0.57, 0, 0.6, 0, 3.6, 0, 2.41, 0, 0, 0, 0.57
RFND, 224986467, 0.2, 25, 0, 0
IMU, 224986595, -0.0003431531, -0.001582747, -0.0008138864, 0.2610812, -0.03957733, -9.801077, 0, 0, 37.83404, 1, 1, 1000, 1000
IMU, 225026572, -0.0006603548, -0.0009186434, 0.0005558301, 0.2616546, -0.03632678, -9.803967, 0, 0, 37.8348, 1, 1, 1000, 1000
RFND, 225036550, 0.2, 25, 0, 0
IMU, 225066698, 0.0007547384, 0.001638027, 0.001181667, 0.2675439, -0.0351864, -9.807883, 0, 0, 37.83524, 1, 1, 1000, 1000
MAG, 225079018, 401, 539, 348, 0, 0, 0, 0, 0, 0, 1, 225079009
BARO, 225079070, 0.6209725, 993.5747, 35.9, -0.04600337, 225079, 0, 34.66
CTUN, 225079082, 0, 0, 0, 0.3107165, 0.0604503, 0.0604503, 0.62, 0, 0.19, 0, 0, 0
ATT, 225079142, 0, 0.18, 0, -0.02, 88.94, 88.95, 0, 1
RATE, 225079148, -0.8440185, -0.003860831, -0.00187618, 0.1124859, 0.0759937, 0.0002517604, -0.00218632, 0.03182026, -4.539568E-05, 152.5052, -1.3381, 0
NKF1, 225079155, 0.18, -0.02, 88.95, -0.001033928, 0.01445359, 0.003765562, 0, 0, 0, -0.0604503, 0, 0, 0.01
NKF2, 225079155, 0, 0, 0, 0, 0, 0, 0, 0, 0, 0, 0, 0, 0
NKF3, 225079155, 0, 0, 0, 0, 0.01, 0, 0, 0, 0, 0, 0
NKF4, 225079155, 0, 0, 0, 0, 0, 3.675433E-07, 0, 0, 0, 19, 229, 0, 0
NKF5, 225079155, 0, 0, 0, 0, 0.19, 0.13, 0, 0.19, 0.5, 3.773451E-05, 0.0004299921, 0.00101051
NKQ1, 225079155, 0.7134865, -0.007622576, 0.01056011, 0.7005481
AHR2, 225079199, 0.2, -0.03, 90.88, 0.62, 0, 0, 0.7016411, 0.001462637, 0.001018446, 0.7125283
MOTB, 225079207, 1, 1, 0, 1
RCIN, 225079211, 0, 0, 0, 0, 0, 0, 0, 0, 0, 0, 0, 0, 0, 0
RCOU, 225079217, 1101, 1101, 1101, 1101, 0, 0, 0, 0, 0, 0, 0, 0, 0, 0
VIBE, 225079226, 0.01981976, 0.01899436, 0.03134091, 0, 0, 0
CTRL, 225079232, 0.001995778, 0.0001586272, 0.0003227576, 0.0002299288, 4.769147E-05
PRX, 225079265, 2, 0.57, 0, 0.6, 0, 3.6, 0, 2.41, 0, 0, 0, 0.57
RFND, 225086556, 0.2, 25, 0, 0
IMU, 225106586, 0.0004991175, -0.001534571, 0.0005493423, 0.2603344, -0.04394338, -9.811422, 0, 0, 37.83487, 1, 1, 1000, 1000
RFND, 225136557, 0.2, 25, 0, 0
IMU, 225146582, -0.001066787, -0.001910408, -0.0002268706, 0.2528254, -0.0392781, -9.801189, 0, 0, 37.83491, 1, 1, 1000, 1000
MAG, 225178936, 410, 535, 348, 0, 0, 0, 0, 0, 0, 1, 225178928
BARO, 225178990, 0.496778, 993.5883, 35.9, -0.3365045, 225178, 0, 34.66
CTUN, 225179003, 0, 0, 0, 0.3107165, 0.060645, 0.060645, 0.49, 0, 0.19, 0, 0, 0
ATT, 225179063, 0, 0.18, 0, -0.03, 88.95, 88.95, 0, 1
RATE, 225179068, -0.8360944, -0.0188397, -0.001858009, 0.1342017, 0.01351404, 0.0002028611, 0.0004571975, -0.01369284, -3.021046E-05, 147.4164, -1.624966, 0
NKF1, 225179076, 0.18, -0.03, 88.95, -0.001127053, 0.01507092, 0.003639911, 0, 0, 0, -0.060645, 0, 0, 0.01
NKF2, 225179076, 0, 0, 0, 0, 0, 0, 0, 0, 0, 0, 0, 0, 0
NKF3, 225179076, 0, 0, 0, 0, 0.01, 0, 0, 0, 0, 0, 0
NKF4, 225179076, 0, 0, 0, 0, 0, 4.047833E-07, 0, 0, 0, 19, 229, 0, 0
NKF5, 225179076, 0, 0, 0, 0, 0.19, 0.13, 0, 0.19, 0.5, 3.753836E-05, 0.0005447863, 0.001375229
NKQ1, 225179076, 0.7134799, -0.007604401, 0.01051851, 0.7005556
AHR2, 225179120, 0.19, -0.04, 90.88, 0.49, 0, 0, 0.7016277, 0.001471908, 0.000974934, 0.7125416
MOTB, 225179127, 1, 1, 0, 1
RCIN, 225179132, 0, 0, 0, 0, 0, 0, 0, 0, 0, 0, 0, 0, 0, 0
RCOU, 225179137, 1101, 1101, 1101, 1101, 0, 0, 0, 0, 0, 0, 0, 0, 0, 0
VIBE, 225179146, 0.01931618, 0.0186752, 0.03310283, 0, 0, 0
CTRL, 225179152, 0.00197866, 0.0001793215, 0.0003640512, 0.0002411105, 5.377139E-05
PRX, 225179184, 1, 0.57, 0, 0.6, 0, 3.6, 0, 2.41, 0, 0, 0, 0.57
RFND, 225186684, 0.2, 25, 0, 0
IMU, 225186744, -7.652041E-05, 0.0004104904, -0.0004716129, 0.2507983, -0.03762037, -9.801781, 0, 0, 37.83495, 1, 1, 1000, 1000
EV, 225211207, 57
IMU, 225226430, 0.0004852513, -9.915743E-05, 0.0003090129, 0.2531483, -0.03910367, -9.796961, 0, 0, 37.83495, 1, 1, 1000, 1000
RFND, 225236368, 0.2, 25, 0, 0
IMU, 225266333, -0.0002542478, 0.0007614885, 0.0003429174, 0.2584743, -0.03509036, -9.823747, 0, 0, 37.83511, 1, 1, 1000, 1000
MAG, 225278878, 403, 538, 346, 0, 0, 0, 0, 0, 0, 1, 225278870
BARO, 225278925, 0.5447622, 993.5831, 35.9, -0.6075798, 225278, 0, 34.66
CTUN, 225278937, 0, 0, 0, 0.3107165, 0.0609579, 0.0609579, 0.54, 0, 0.19, 0, 0, 0
ATT, 225278993, 0, 0.18, 0, -0.02, 88.94, 88.95, 0, 1
RATE, 225278998, -0.8430977, 0.02266238, -0.002176684, 0.1191234, -0.0001329173, 0.0003469206, -0.0001576775, -0.01710972, 1.494275E-06, 139.2016, 0.8156776, 0
NKF1, 225279006, 0.18, -0.02, 88.95, -0.001147131, 0.01548754, 0.003437077, 0, 0, 0, -0.0609579, 0, 0, 0.01
NKF2, 225279006, 0, 0, 0, 0, 0, 0, 0, 0, 0, 0, 0, 0, 0
NKF3, 225279006, 0, 0, 0, 0, 0.01, 0, 0, 0, 0, 0, 0
NKF4, 225279006, 0, 0, 0, 0, 0, 4.670375E-07, 0, 0, 0, 19, 229, 0, 0
NKF5, 225279006, 0, 0, 0, 0, 0.19, 0.13, 0, 0.19, 0.5, 3.787958E-05, 0.0004431896, 0.001085015
NKQ1, 225279006, 0.7134859, -0.007619085, 0.0105461, 0.7005488
AHR2, 225279049, 0.19, -0.03, 90.88, 0.54, 0, 0, 0.701628, 0.00144927, 0.001002822, 0.7125412
MOTB, 225279056, 1, 1, 0, 1
RCIN, 225279061, 0, 0, 0, 0, 0, 0, 0, 0, 0, 0, 0, 0, 0, 0
RCOU, 225279066, 1116, 1116, 1116, 1116, 0, 0, 0, 0, 0, 0, 0, 0, 0, 0
VIBE, 225279075, 0.01935528, 0.01974734, 0.03222522, 0, 0, 0
CTRL, 225279081, 0.00198323, 0.0001648395, 0.0003356127, 0.0002563496, 4.857946E-05
PRX, 225279113, 1, 0.57, 0, 0.6, 0, 3.6, 0, 2.41, 0, 0, 0, 0.57
RFND, 225286321, 0.2, 25, 0, 0
IMU, 225306601, 0.0004182563, 0.000197697, 0.002254739, 0.2553238, -0.03795081, -9.786187, 0, 0, 37.83527, 1, 1, 1000, 1000
RFND, 225336559, 0.2, 25, 0, 0
IMU, 225346564, -0.0004461237, -0.001657092, 0.0007237346, 0.2651275, -0.02594912, -9.804162, 0, 0, 37.83508, 1, 1, 1000, 1000
MAG, 225378904, 408, 534, 347, 0, 0, 0, 0, 0, 0, 1, 225378896
BARO, 225378957, 0.5729882, 993.5801, 35.91, -0.6616371, 225378, 0, 34.66
CTUN, 225378969, 0, 0, 0, 0.3107165, 0.06107539, 0.06107539, 0.57, 0, 0.19, 0, 0, 0
ATT, 225379030, 0, 0.18, 0, -0.03, 88.95, 88.95, 0, 1
RATE, 225379036, -0.8448164, -0.02223948, -0.001542821, 0.1383742, -0.01705891, 0.0001659542, -0.0002343716, -0.0006905086, -0.0001132049, 171.85, -0.5594254, 0
NKF1, 225379044, 0.18, -0.03, 88.95, -0.001403512, 0.01605594, 0.004243209, 0, 0, 0, -0.06107539, 0, 0, 0.01
NKF2, 225379044, 0, 0, 0, 0, 0, 0, 0, 0, 0, 0, 0, 0, 0
NKF3, 225379044, 0, 0, 0, 0, 0.02, 0, 0, 0, 0, 0, 0
NKF4, 225379044, 0, 0, 0, 0, 0, 5.186357E-07, 0, 0, 0, 19, 229, 0, 0
NKF5, 225379044, 0, 0, 0, 0, 0.19, 0.13, 0, 0.19, 0.5, 3.832996E-05, 0.000346832, 0.0007850559
NKQ1, 225379044, 0.7134593, -0.007588411, 0.01052343, 0.7005765
AHR2, 225379087, 0.19, -0.04, 90.88, 0.57, 0, 0, 0.7015943, 0.001476388, 0.0009856616, 0.7125745
MOTB, 225379095, 1, 1, 0, 1
RCIN, 225379099, 0, 0, 0, 0, 0, 0, 0, 0, 0, 0, 0, 0, 0, 0
RCOU, 225379105, 1140, 1140, 1140, 1140, 0, 0, 0, 0, 0, 0, 0, 0, 0, 0
VIBE, 225379114, 0.01985995, 0.01969416, 0.03113686, 0, 0, 0
CTRL, 225379120, 0.002000783, 0.0001782762, 0.0003686507, 0.0002376437, 7.201696E-05
PRX, 225379151, 1, 0.57, 0, 0.6, 0, 3.6, 0, 2.41, 0, 0, 0, 0.57
RFND, 225386632, 0.2, 25, 0, 0
IMU, 225386692, -0.001126771, 0.0003366737, -0.0004602539, 0.2456873, -0.04302998, -9.803873, 0, 0, 37.83503, 1, 1, 1000, 1000
IMU, 225426795, -0.001379931, 0.001086543, 0.0005245731, 0.2740972, -0.03927432, -9.812508, 0, 0, 37.83487, 1, 1, 1000, 1000
RFND, 225436618, 0.2, 25, 0, 0
IMU, 225466379, -0.000198557, -0.001597699, -0.0004730862, 0.2547381, -0.03262955, -9.802155, 0, 0, 37.83521, 1, 1, 1000, 1000
MAG, 225478864, 410, 536, 357, 0, 0, 0, 0, 0, 0, 1, 225478856
BARO, 225478912, 0.7254087, 993.5631, 35.91, -0.3066743, 225478, 0, 34.66
CTUN, 225478925, 0, 0, 0, 0.3107165, 0.0612643, 0.0612643, 0.72, 0, 0.19, 0, 0, 0
ATT, 225478983, 0, 0.18, 0, -0.02, 88.95, 88.95, 0, 1
RATE, 225478988, -0.8279499, -0.02336001, -0.001853912, 0.1256005, -0.0356, 0.0001958078, -0.0002036445, 0.01221056, -3.378364E-05, 156.0566, -1.317406, 0
NKF1, 225478996, 0.18, -0.02, 88.95, -0.001480032, 0.01639944, 0.003853249, 0, 0, 0, -0.0612643, 0, 0, 0.01
NKF2, 225478996, 0, 0, 0, 0, 0, 0, 0, 0, 0, 0, 0, 0, 0
NKF3, 225478996, 0, 0, 0, 0, 0.02, 0, 0, 0, 0, 0, 0
NKF4, 225478996, 0, 0, 0, 0, 0, 5.882364E-07, 0, 0, 0, 19, 229, 0, 0
NKF5, 225478996, 0, 0, 0, 0, 0.19, 0.13, 0, 0.19, 0.5, 3.79962E-05, 0.000456513, 0.001152706
NKQ1, 225478996, 0.7134534, -0.007629378, 0.01051814, 0.7005822
AHR2, 225479038, 0.19, -0.03, 90.89, 0.72, 0, 0, 0.701582, 0.001430984, 0.0009831337, 0.7125868
MOTB, 225479045, 1, 1, 0, 1
RCIN, 225479050, 0, 0, 0, 0, 0, 0, 0, 0, 0, 0, 0, 0, 0, 0
RCOU, 225479056, 1164, 1164, 1164, 1164, 0, 0, 0, 0, 0, 0, 0, 0, 0, 0
VIBE, 225479064, 0.0199068, 0.01961623, 0.02839727, 0, 0, 0
CTRL, 225479071, 0.001958747, 0.0001730411, 0.0003487174, 0.0002353296, 6.568302E-05
PRX, 225479102, 2, 0.57, 0, 0.6, 0, 3.6, 0, 2.4, 0, 0, 0, 0.57
RFND, 225486337, 0.2, 25, 0, 0
IMU, 225506449, -0.0002001532, -0.002012468, -0.0002011074, 0.2428733, -0.04036655, -9.791459, 0, 0, 37.83585, 1, 1, 1000, 1000
RFND, 225536316, 0.2, 25, 0, 0
IMU, 225546714, 0.0007951759, 0.001086003, -0.00125231, 0.2607844, -0.04420998, -9.798529, 0, 0, 37.83706, 1, 1, 1000, 1000
DU32, 225573873, 7, 33611992
MAG, 225580116, 405, 539, 350, 0, 0, 0, 0, 0, 0, 1, 225580108
BARO, 225580168, 0.7423443, 993.5615, 35.91, 0.2587423, 225580, 0, 34.66
CTUN, 225580181, 0, 0, 0, 0.3107165, 0.06136997, 0.06136997, 0.74, 0, 0.19, 0, 0, 0
ATT, 225580242, 0, 0.18, 0, -0.02, 88.95, 88.96, 0, 1
RATE, 225580248, -0.8266113, -0.03078095, -0.001453219, 0.134055, -0.06237667, 0.0007522793, -0.0002035707, 0.1357947, -3.409804E-06, 166.0395, 0.0415802, 0
NKF1, 225580255, 0.18, -0.02, 88.96, -0.00140606, 0.01626349, 0.004099741, 0, 0, 0, -0.06136997, 0, 0, 0.01
NKF2, 225580255, 0, 0, 0, 0, 0, 0, 0, 0, 0, 0, 0, 0, 0
NKF3, 225580255, 0, 0, 0, 0, 0.02, 0, 0, 0, 0, 0, 0
NKF4, 225580255, 0, 0, 0, 0, 0, 6.574049E-07, 0, 0, 0, 19, 229, 0, 0
NKF5, 225580255, 0, 0, 0, 0, 0.19, 0.13, 0, 0.19, 0.5, 3.864219E-05, 0.0003513937, 0.0008384322
NKQ1, 225580255, 0.7134415, -0.007619539, 0.01050568, 0.7005946
AHR2, 225580363, 0.19, -0.03, 90.89, 0.74, 0, 0, 0.7015632, 0.001436095, 0.0009727547, 0.7126052
MOTB, 225580372, 1, 1, 0, 1
RCIN, 225580376, 0, 0, 0, 0, 0, 0, 0, 0, 0, 0, 0, 0, 0, 0
RCOU, 225580382, 1188, 1188, 1188, 1188, 0, 0, 0, 0, 0, 0, 0, 0, 0, 0
VIBE, 225580390, 0.0683514, 0.08217023, 0.04970635, 0, 0, 0
CTRL, 225580397, 0.001966747, 0.0001632408, 0.0003501042, 0.0002312627, 5.570371E-05
PRX, 225580429, 2, 0.57, 0, 0.6, 0, 3.6, 0, 2.4, 0, 0, 0, 0.57
RFND, 225586359, 0.2, 25, 0, 0
IMU, 225586410, -0.001659979, -0.003188614, 0.006792951, 0.2681426, -0.05474261, -9.797386, 0, 0, 37.83865, 1, 1, 1000, 1000
IMU, 225626351, -0.002314305, 0.0004776948, 0.01211271, 0.2563726, -0.00266052, -9.802512, 0, 0, 37.8399, 1, 1, 1000, 1000
RFND, 225636660, 0.2, 25, 0, 0
IMU, 225666572, -0.0003492051, 0.0001738151, -0.0116666, 0.1823966, -0.1008808, -9.824306, 0, 0, 37.84072, 1, 1, 1000, 1000
MAG, 225678943, 406, 540, 346, 0, 0, 0, 0, 0, 0, 1, 225678935
BARO, 225678995, 0.8213772, 993.5527, 35.9, 0.650422, 225678, 0, 34.66
CTUN, 225679008, 0, 0, 0, 0.3107165, 0.06143865, 0.06143865, 0.82, 0, 0.19, 0, 0, 0
ATT, 225679068, 0, 0.18, 0, -0.02, 88.96, 88.97, 0, 1
RATE, 225679074, -0.8273719, 0.1648262, -0.002873869, 0.1293674, 0.129726, -0.000825034, -0.0002957778, -1.085166, -0.0004183124, 186.0259, 0.1232147, 0
NKF1, 225679082, 0.18, -0.02, 88.97, -0.001582612, 0.01537725, 0.004593233, 0, 0, 0, -0.06143865, 0, 0, 0.01
NKF2, 225679082, 0, 0, 0, 0, 0, 0, 0, 0, 0, 0, 0, 0, 0
NKF3, 225679082, 0, 0, 0, 0, 0.02, 0, 0, 0, 0, 0, 0
NKF4, 225679082, 0, 0, 0, 0, 0, 7.347621E-07, 0, 0, 0, 19, 229, 0, 0
NKF5, 225679082, 0, 0, 0, 0, 0.19, 0.13, 0, 0.19, 0.5, 3.832184E-05, 0.0004678837, 0.001209744
NKQ1, 225679082, 0.7133833, -0.00762393, 0.0105044, 0.7006539
AHR2, 225679125, 0.19, -0.03, 90.9, 0.82, 0, 0, 0.7014977, 0.001428978, 0.0009717563, 0.7126696
MOTB, 225679133, 1, 1, 0, 1
RCIN, 225679138, 0, 0, 0, 0, 0, 0, 0, 0, 0, 0, 0, 0, 0, 0
RCOU, 225679143, 1212, 1212, 1212, 1212, 0, 0, 0, 0, 0, 0, 0, 0, 0, 0
VIBE, 225679152, 0.2020897, 0.2807453, 0.1932175, 0, 0, 0
CTRL, 225679158, 0.001933403, 0.0003373178, 0.0004012804, 0.0003593513, 0.0004596995
PRX, 225679190, 1, 0.57, 0, 0.6, 0, 3.6, 0, 2.4, 0, 0, 0, 0.57
RFND, 225686532, 0.2, 25, 0, 0
IMU, 225706520, 0.002921337, 0.002160041, -0.004296154, 0.3426218, -0.02817047, -9.816025, 0, 0, 37.8412, 1, 1, 1000, 1000
RFND, 225736522, 0.2, 25, 0, 0
IMU, 225746484, -0.001001331, 0.000542171, -0.00656311, 0.2613983, -0.03353959, -9.795288, 0, 0, 37.8409, 1, 1, 1000, 1000
MAG, 225778864, 403, 538, 348, 0, 0, 0, 0, 0, 0, 1, 225778856
BARO, 225778914, 0.8044416, 993.5543, 35.9, 0.7039124, 225778, 0, 34.66
CTUN, 225778926, 0, 0, 0, 0.3107165, 0.06154631, 0.06154631, 0.8, 0, 0.19, 0, 0, 0
ATT, 225778980, 0, 0.17, 0, -0.02, 88.96, 88.97, 0, 1
RATE, 225778986, -0.7910857, 0.07256461, -0.002233157, 0.1107783, -0.1343736, 0.0007313365, -0.0001113576, 0.4969247, -8.290204E-05, 190.5655, -1.20697, 0
NKF1, 225778994, 0.17, -0.02, 88.97, -0.0003782117, 0.01785485, 0.004705321, 0, 0, 0, -0.06154631, 0, 0, 0.01
NKF2, 225778994, 0, 0, 0, 0, 0, 0, 0, 0, 0, 0, 0, 0, 0
NKF3, 225778994, 0, 0, 0, 0, 0.02, 0, 0, 0, 0, 0, 0
NKF4, 225778994, 0, 0, 0, 0, 0, 8.246845E-07, 0, 0, 0, 19, 229, 0, 0
NKF5, 225778994, 0, 0, 0, 0, 0.19, 0.13, 0, 0.19, 0.5, 3.90454E-05, 0.0003600606, 0.000892513
NKQ1, 225778994, 0.7133836, -0.007703515, 0.01049003, 0.7006529
AHR2, 225779037, 0.18, -0.03, 90.9, 0.8, 0, 0, 0.7014914, 0.001348285, 0.0009527864, 0.712676
MOTB, 225779044, 1, 1, 0, 1
RCIN, 225779049, 0, 0, 0, 0, 0, 0, 0, 0, 0, 0, 0, 0, 0, 0
RCOU, 225779055, 1226, 1221, 1222, 1225, 0, 0, 0, 0, 0, 0, 0, 0, 0, 0
VIBE, 225779527, 0.480562, 0.5608858, 0.5770168, 0, 0, 0
CTRL, 225779542, 0.001902076, 0.0005395031, 0.0003889251, 0.0004974165, 0.0003882955
PRX, 225779577, 1, 0.57, 0, 0.6, 0, 3.6, 0, 2.4, 0, 0, 0, 0.57
RFND, 225786385, 0.2, 25, 0, 0
IMU, 225786436, 0.002364092, 0.0001198583, -0.006579469, 0.3389556, -0.07894635, -9.808329, 0, 0, 37.84155, 1, 1, 1000, 1000
IMU, 225826395, 0.001980883, -0.002752339, 0.009331433, 0.2353024, -0.07345945, -9.813618, 0, 0, 37.84251, 1, 1, 1000, 1000
RFND, 225836367, 0.2, 25, 0, 0
IMU, 225866338, 0.005559536, 0.000979821, 0.01096326, 0.2582308, -0.05201035, -9.807223, 0, 0, 37.84351, 1, 1, 1000, 1000
MAG, 225880005, 406, 541, 347, 0, 0, 0, 0, 0, 0, 1, 225879997
BARO, 225880056, 0.7451669, 993.5611, 35.9, 0.5016859, 225880, 0, 34.66
CTUN, 225880069, 0, 0, 0, 0.3107165, 0.06158983, 0.06158983, 0.74, 0, 0.19, 0, 0, 0
ATT, 225880125, 0, 0.18, 0, -0.01, 88.95, 88.95, 0, 1
RATE, 225880131, -0.8089173, -0.1398031, -0.0002970287, 0.08665748, -0.3644428, 0.003297747, -0.0001731391, 0.2123839, 0.0001258802, 147.1412, -0.2773285, 0
NKF1, 225880139, 0.18, -0.01, 88.95, -0.0008190179, 0.01901003, 0.003633117, 0, 0, 0, -0.06158983, 0, 0, 0.01
NKF2, 225880139, 0, 0, 0, 0, 0, 0, 0, 0, 0, 0, 0, 0, 0
NKF3, 225880139, 0, 0, 0, 0, 0.02, 0, 0, 0, 0, 0, 0
NKF4, 225880139, 0, 0, 0, 0, 0, 9.087188E-07, 0, 0, 0, 19, 229, 0, 0
NKF5, 225880139, 0, 0, 0, 0, 0.19, 0.13, 0, 0.19, 0.5, 3.863047E-05, 0.0004733752, 0.001239906
NKQ1, 225880139, 0.7134689, -0.007707309, 0.0105489, 0.7005651
AHR2, 225880184, 0.19, -0.02, 90.89, 0.74, 0, 0, 0.7015728, 0.001341146, 0.001020755, 0.7125958
MOTB, 225880191, 1, 1, 0, 1
RCIN, 225880196, 0, 0, 0, 0, 0, 0, 0, 0, 0, 0, 0, 0, 0, 0
RCOU, 225880202, 1227, 1221, 1226, 1221, 0, 0, 0, 0, 0, 0, 0, 0, 0, 0
VIBE, 225880210, 0.4004087, 0.410397, 0.5286931, 0, 0, 0
CTRL, 225880217, 0.001944823, 0.0006840389, 0.0004487795, 0.0008278404, 0.0003967754
PRX, 225880249, 1, 0.57, 0, 0.6, 0, 3.6, 0, 2.4, 0, 0, 0, 0.57
RFND, 225886340, 0.2, 25, 0, 0
IMU, 225906340, 0.007436912, 0.002049133, 0.00455626, 0.2562173, -0.04303287, -9.833087, 0, 0, 37.84465, 1, 1, 1000, 1000
RFND, 225936435, 0.2, 25, 0, 0
IMU, 225946341, 0.00421025, -0.002519268, 0.00969347, 0.1868439, -0.01797593, -9.835966, 0, 0, 37.84591, 1, 1, 1000, 1000
MAG, 225979014, 403, 539, 350, 0, 0, 0, 0, 0, 0, 1, 225979006
BARO, 225979067, 0.7762156, 993.5577, 35.9, 0.1859848, 225979, 0, 34.66
CTUN, 225979079, 0, 0, 0, 0.3107165, 0.0616996, 0.0616996, 0.77, 0, 0.19, 0, 0, 0
ATT, 225979142, 0, 0.18, 0, -0.02, 88.93, 88.94, 0, 1
RATE, 225979148, -0.8351359, -0.2060345, -0.001491251, 0.1084936, -0.3186767, 0.003893762, -0.0002191822, -0.2719707, 0.0006499032, 198.0056, -5.688953, 0
NKF1, 225979156, 0.18, -0.02, 88.94, -0.001250947, 0.01575439, 0.004889028, 0, 0, 0, -0.0616996, 0, 0, 0.01
NKF2, 225979156, 0, 0, 0, 0, 0, 0, 0, 0, 0, 0, 0, 0, 0
NKF3, 225979156, 0, 0, 0, 0, 0.02, 0, 0, 0, 0, 0, 0
NKF4, 225979156, 0, 0, 0, 0, 0, 1.021193E-06, 0, 0, 0, 19, 229, 0, 0
NKF5, 225979156, 0, 0, 0, 0, 0.19, 0.13, 0, 0.19, 0.5, 3.951972E-05, 0.0003685759, 0.0009337893
NKQ1, 225979156, 0.7135557, -0.00764329, 0.01054888, 0.7004774
AHR2, 225979201, 0.19, -0.03, 90.87, 0.77, 0, 0, 0.7016548, 0.001403497, 0.001049948, 0.7125149
MOTB, 225979209, 1, 1, 0, 1
RCIN, 225979213, 0, 0, 0, 0, 0, 0, 0, 0, 0, 0, 0, 0, 0, 0
RCOU, 225979219, 1230, 1221, 1226, 1222, 0, 0, 0, 0, 0, 0, 0, 0, 0, 0
VIBE, 225979229, 0.3768561, 0.3993795, 0.5010729, 0, 0, 0
CTRL, 225979235, 0.002003717, 0.001155454, 0.0006107527, 0.001218726, 0.0003738397
PRX, 225979267, 2, 0.57, 0, 0.6, 0, 3.6, 0, 2.42, 0, 0, 0, 0.57
RFND, 225986503, 0.2, 25, 0, 0
IMU, 225986561, 0.005056872, -0.0102417, 0.001297931, 0.1012059, -0.02339468, -9.817551, 0, 0, 37.84681, 1, 1, 1000, 1000
IMU, 226026515, 0.003841395, 0.003806012, -0.004893675, 0.1468861, -0.1126316, -9.858437, 0, 0, 37.84718, 1, 1, 1000, 1000
RFND, 226036494, 0.2, 25, 0, 0
IMU, 226066474, 0.004072712, 0.00489546, -0.009210275, 0.3463797, -0.1086193, -9.785684, 0, 0, 37.84647, 1, 1, 1000, 1000
MAG, 226078987, 406, 536, 348, 0, 0, 0, 0, 0, 0, 1, 226078978
BARO, 226079039, 0.8213772, 993.5527, 35.9, -0.04551413, 226079, 0, 34.66
CTUN, 226079052, 0, 0, 0, 0.3107165, 0.06168795, 0.06168795, 0.82, 0, 0.19, 0, 0, 0
ATT, 226079113, 0, 0.18, 0, -0.01, 88.96, 88.96, 0, 1
RATE, 226079119, -0.8257492, -0.4094093, 0.001111038, 0.06143161, 0.5262842, -0.001906063, -0.0001119782, 0.4990513, -2.212668E-06, 155.866, 1.905441, 0
NKF1, 226079126, 0.18, -0.01, 88.96, 0.0008986907, 0.01855627, 0.003848543, 0, 0, 0, -0.06168795, 0, 0, 0.01
NKF2, 226079126, 0, 0, 0, 0, 0, 0, 0, 0, 0, 0, 0, 0, 0
NKF3, 226079126, 0, 0, 0, 0, 0.02, 0, 0, 0, 0, 0, 0
NKF4, 226079126, 0, 0, 0, 0, 0, 1.111227E-06, 0, 0, 0, 19, 229, 0, 0
NKF5, 226079126, 0, 0, 0, 0, 0.19, 0.13, 0, 0.19, 0.5, 3.907233E-05, 0.0004749597, 0.001241462
NKQ1, 226079126, 0.7134207, -0.007723779, 0.01060472, 0.7006133
AHR2, 226079171, 0.19, -0.01, 90.9, 0.82, 0, 0, 0.7015116, 0.001321608, 0.001122623, 0.712656
MOTB, 226079178, 1, 1, 0, 1
RCIN, 226079183, 0, 0, 0, 0, 0, 0, 0, 0, 0, 0, 0, 0, 0, 0
RCOU, 226079188, 1221, 1226, 1223, 1224, 0, 0, 0, 0, 0, 0, 0, 0, 0, 0
VIBE, 226079197, 0.3718467, 0.3879316, 0.4864795, 0, 0, 0
CTRL, 226079203, 0.00206423, 0.001371051, 0.0007521237, 0.001524167, 0.0003388348
PRX, 226079236, 2, 0.57, 0, 0.6, 0, 3.6, 0, 2.42, 0, 0, 0, 0.57
RFND, 226086407, 0.2, 25, 0, 0
IMU, 226106365, 0.0008013321, -0.006788716, -0.009933278, 0.3027481, -0.004941765, -9.818447, 0, 0, 37.84529, 1, 1, 1000, 1000
RFND, 226136401, 0.2, 25, 0, 0
IMU, 226146386, -0.004172133, -0.002710785, 0.008026125, 0.1595126, -0.09518697, -9.821375, 0, 0, 37.8416, 1, 1, 1000, 1000
MAG, 226178860, 405, 540, 348, 0, 0, 0, 0, 0, 0, 1, 226178851
BARO, 226178907, 0.8213772, 993.5526, 35.9, -0.01910337, 226178, 0, 34.66
CTUN, 226178919, 0, 0, 0, 0.3107165, 0.06174939, 0.06174939, 0.82, 0, 0.19, 0, 0, 0
ATT, 226178974, 0, 0.19, 0, -0.03, 88.96, 88.96, 0, 1
RATE, 226178980, -0.8587014, 0.07586381, -0.002044905, 0.1385908, 0.07214874, -0.001101216, -0.0002037168, 0.2274608, 9.914366E-05, 188.2585, -0.6115913, 0
NKF1, 226178988, 0.19, -0.03, 88.96, 0.0001018541, 0.01856893, 0.004648359, 0, 0, 0, -0.06174939, 0, 0, 0.01
NKF2, 226178988, 0, 0, 0, 0, 0, 0, 0, 0, 0, 0, 0, 0, 0
NKF3, 226178988, 0, 0, 0, 0, 0.03, 0, 0, 0, 0, 0, 0
NKF4, 226178988, 0, 0, 0, 0, 0, 1.249747E-06, 0, 0, 0, 19, 229, 0, 0
NKF5, 226178988, 0, 0, 0, 0, 0.19, 0.13, 0, 0.19, 0.5, 4.007045E-05, 0.0003777294, 0.0009650579
NKQ1, 226178988, 0.7134087, -0.007572924, 0.01054099, 0.700628
AHR2, 226179032, 0.2, -0.03, 90.9, 0.82, 0, 0, 0.7014921, 0.001468694, 0.001056105, 0.7126749
MOTB, 226179039, 1, 1, 0, 1
RCIN, 226179044, 0, 0, 0, 0, 0, 0, 0, 0, 0, 0, 0, 0, 0, 0
RCOU, 226179050, 1224, 1223, 1221, 1226, 0, 0, 0, 0, 0, 0, 0, 0, 0, 0
VIBE, 226179058, 0.3394316, 0.3583217, 0.4551843, 0, 0, 0
CTRL, 226179064, 0.002083977, 0.001314435, 0.0008179901, 0.00157507, 0.0003221152
PRX, 226179095, 1, 0.57, 0, 0.6, 0, 3.6, 0, 2.42, 0, 0, 0, 0.57
RFND, 226186387, 0.2, 25, 0, 0
IMU, 226186437, 0.001707459, 0.006914147, 0.009715686, 0.2440233, -0.03716135, -9.797288, 0, 0, 37.83593, 1, 1, 1000, 1000
IMU, 226226455, 0.003419638, -0.002019876, -0.006150592, 0.4087534, -0.02931683, -9.758716, 0, 0, 37.82693, 1, 1, 1000, 1000
RFND, 226236537, 0.2, 25, 0, 0
IMU, 226266534, -0.00374077, -0.00341776, -0.008530973, 0.2860706, -0.03527455, -9.704592, 0, 0, 37.81496, 1, 1, 1000, 1000
MAG, 226279056, 408, 538, 349, 0, 0, 0, 0, 0, 0, 1, 226279048
BARO, 226279108, 0.7254087, 993.5631, 35.89, 0.1109061, 226279, 0, 34.66
CTUN, 226279120, 0, 0, 0, 0.3107165, 0.061418, 0.061418, 0.72, 0, 0.19, 0, 0, 0
ATT, 226279180, 0, 0.19, 0, -0.03, 88.95, 88.95, 0, 1
RATE, 226279186, -0.879099, 0.3249821, -0.004568046, 0.1525008, -0.2617858, 0.001420512, -0.0002959563, 0.642458, 6.050935E-05, 329.8014, 3.667164, 0
NKF1, 226279193, 0.19, -0.03, 88.95, 0.0004300705, 0.02056257, 0.008143243, 0, 0, 0, -0.061418, 0, 0, 0.01
NKF2, 226279193, 0, 0, 0, 0, 0, 0, 0, 0, 0, 0, 0, 0, 0
NKF3, 226279193, 0, 0, 0, 0, 0.03, 0, 0, 0, 0, 0, 0
NKF4, 226279193, 0, 0, 0, 0, 0, 1.362048E-06, 0, 0, 0, 19, 229, 0, 0
NKF5, 226279193, 0, 0, 0, 0, 0.19, 0.13, 0, 0.19, 0.5, 4.116711E-05, 0.0002991826, 0.0007186631
NKQ1, 226279193, 0.7134678, -0.007520979, 0.01055626, 0.7005681
