FMT, 128, 89, FMT, BBnNZ, Type,Length,Name,Format,Columns
FMT, 129, 31, PARM, QNf, TimeUS,Name,Value
FMT, 130, 46, GPS, QBIHBcLLefffB, TimeUS,Status,GMS,GWk,NSats,HDop,Lat,Lng,Alt,Spd,GCrs,VZ,U
FMT, 131, 46, GPS2, QBIHBcLLefffB, TimeUS,Status,GMS,GWk,NSats,HDop,Lat,Lng,Alt,Spd,GCrs,VZ,U
FMT, 132, 46, GPSB, QBIHBcLLefffB, TimeUS,Status,GMS,GWk,NSats,HDop,Lat,Lng,Alt,Spd,GCrs,VZ,U
FMT, 193, 24, GPA, QCCCCBI, TimeUS,VDop,HAcc,VAcc,SAcc,VV,SMS
FMT, 194, 24, GPA2, QCCCCBI, TimeUS,VDop,HAcc,VAcc,SAcc,VV,SMS
FMT, 195, 24, GPAB, QCCCCBI, TimeUS,VDop,HAcc,VAcc,SAcc,VV,SMS
FMT, 133, 53, IMU, QffffffIIfBBHH, TimeUS,GyrX,GyrY,GyrZ,AccX,AccY,AccZ,EG,EA,T,GH,AH,GHz,AHz
FMT, 134, 75, MSG, QZ, TimeUS,Message
FMT, 135, 39, RCIN, QHHHHHHHHHHHHHH, TimeUS,C1,C2,C3,C4,C5,C6,C7,C8,C9,C10,C11,C12,C13,C14
FMT, 136, 39, RCOU, QHHHHHHHHHHHHHH, TimeUS,C1,C2,C3,C4,C5,C6,C7,C8,C9,C10,C11,C12,C13,C14
FMT, 137, 15, RSSI, Qf, TimeUS,RXRSSI
FMT, 139, 37, BARO, QffcfIff, TimeUS,Alt,Press,Temp,CRt,SMS,Offset,GndTemp
FMT, 140, 22, POWR, QffHB, TimeUS,Vcc,VServo,Flags,Safety
FMT, 143, 45, CMD, QHHHfffffff, TimeUS,CTot,CNum,CId,Prm1,Prm2,Prm3,Prm4,Lat,Lng,Alt
FMT, 144, 20, RAD, QBBBBBHH, TimeUS,RSSI,RemRSSI,TxBuf,Noise,RemNoise,RxErrors,Fixed
FMT, 146, 43, CAM, QIHLLeeeccC, TimeUS,GPSTime,GPSWeek,Lat,Lng,Alt,RelAlt,GPSAlt,Roll,Pitch,Yaw
FMT, 232, 43, TRIG, QIHLLeeeccC, TimeUS,GPSTime,GPSWeek,Lat,Lng,Alt,RelAlt,GPSAlt,Roll,Pitch,Yaw
FMT, 162, 30, ARSP, QffcffB, TimeUS,Airspeed,DiffPress,Temp,RawPress,Offset,U
FMT, 164, 45, CURR, QfffcHHHHHHHHHH, TimeUS,Volt,Curr,CurrTot,Temp,V1,V2,V3,V4,V5,V6,V7,V8,V9,V10
FMT, 165, 45, CUR2, QfffcHHHHHHHHHH, TimeUS,Volt,Curr,CurrTot,Temp,V1,V2,V3,V4,V5,V6,V7,V8,V9,V10
FMT, 163, 27, ATT, QccccCCCC, TimeUS,DesRoll,Roll,DesPitch,Pitch,DesYaw,Yaw,ErrRP,ErrYaw
FMT, 166, 34, MAG, QhhhhhhhhhBI, TimeUS,MagX,MagY,MagZ,OfsX,OfsY,OfsZ,MOfsX,MOfsY,MOfsZ,Health,S
FMT, 169, 14, MODE, QMBB, TimeUS,Mode,ModeNum,Rsn
FMT, 196, 17, RFND, QCBCB, TimeUS,Dist1,Orient1,Dist2,Orient2
FMT, 223, 33, DMS, IIIIIBBBBBBBBBB, TimeMS,N,Dp,RT,RS,Er,Fa,Fmn,Fmx,Pa,Pmn,Pmx,Sa,Smn,Smx
FMT, 240, 41, BCN, QBBfffffff, TimeUS,Health,Cnt,D0,D1,D2,D3,PosX,PosY,PosZ
FMT, 138, 53, IMU2, QffffffIIfBBHH, TimeUS,GyrX,GyrY,GyrZ,AccX,AccY,AccZ,EG,EA,T,GH,AH,GHz,AHz
FMT, 147, 53, IMU3, QffffffIIfBBHH, TimeUS,GyrX,GyrY,GyrZ,AccX,AccY,AccZ,EG,EA,T,GH,AH,GHz,AHz
FMT, 141, 45, AHR2, QccCfLLffff, TimeUS,Roll,Pitch,Yaw,Alt,Lat,Lng,Q1,Q2,Q3,Q4
FMT, 180, 31, POS, QLLfff, TimeUS,Lat,Lng,Alt,RelHomeAlt,RelOriginAlt
FMT, 142, 45, SIM, QccCfLLffff, TimeUS,Roll,Pitch,Yaw,Alt,Lat,Lng,Q1,Q2,Q3,Q4
FMT, 198, 51, NKF1, QccCfffffffccc, TimeUS,Roll,Pitch,Yaw,VN,VE,VD,dPD,PN,PE,PD,GX,GY,GZ
FMT, 199, 35, NKF2, QbccccchhhhhhB, TimeUS,AZbias,GSX,GSY,GSZ,VWN,VWE,MN,ME,MD,MX,MY,MZ,MI
FMT, 200, 33, NKF3, Qcccccchhhcc, TimeUS,IVN,IVE,IVD,IPN,IPE,IPD,IMX,IMY,IMZ,IYAW,IVT
FMT, 201, 35, NKF4, QcccccfbbHBHHb, TimeUS,SV,SP,SH,SM,SVT,errRP,OFN,OFE,FS,TS,SS,GPS,PI
FMT, 202, 40, NKF5, QBhhhcccCCfff, TimeUS,NI,FIX,FIY,AFI,HAGL,offset,RI,rng,Herr,eAng,eVel,ePos
FMT, 203, 51, NKF6, QccCfffffffccc, TimeUS,Roll,Pitch,Yaw,VN,VE,VD,dPD,PN,PE,PD,GX,GY,GZ
FMT, 204, 35, NKF7, QbccccchhhhhhB, TimeUS,AZbias,GSX,GSY,GSZ,VWN,VWE,MN,ME,MD,MX,MY,MZ,MI
FMT, 205, 33, NKF8, Qcccccchhhcc, TimeUS,IVN,IVE,IVD,IPN,IPE,IPD,IMX,IMY,IMZ,IYAW,IVT
FMT, 206, 35, NKF9, QcccccfbbHBHHb, TimeUS,SV,SP,SH,SM,SVT,errRP,OFN,OFE,FS,TS,SS,GPS,PI
FMT, 207, 36, NKF0, QBccCCcccccccc, TimeUS,ID,rng,innov,SIV,TR,BPN,BPE,BPD,OFH,OFL,OFN,OFE,OFD
FMT, 208, 27, NKQ1, Qffff, TimeUS,Q1,Q2,Q3,Q4
FMT, 209, 27, NKQ2, Qffff, TimeUS,Q1,Q2,Q3,Q4
FMT, 210, 51, XKF1, QccCfffffffccc, TimeUS,Roll,Pitch,Yaw,VN,VE,VD,dPD,PN,PE,PD,GX,GY,GZ
FMT, 211, 34, XKF2, QccccchhhhhhB, TimeUS,AX,AY,AZ,VWN,VWE,MN,ME,MD,MX,MY,MZ,MI
FMT, 212, 33, XKF3, Qcccccchhhcc, TimeUS,IVN,IVE,IVD,IPN,IPE,IPD,IMX,IMY,IMZ,IYAW,IVT
FMT, 213, 35, XKF4, QcccccfbbHBHHb, TimeUS,SV,SP,SH,SM,SVT,errRP,OFN,OFE,FS,TS,SS,GPS,PI
FMT, 214, 40, XKF5, QBhhhcccCCfff, TimeUS,NI,FIX,FIY,AFI,HAGL,offset,RI,rng,Herr,eAng,eVel,ePos
FMT, 215, 51, XKF6, QccCfffffffccc, TimeUS,Roll,Pitch,Yaw,VN,VE,VD,dPD,PN,PE,PD,GX,GY,GZ
FMT, 216, 34, XKF7, QccccchhhhhhB, TimeUS,AX,AY,AZ,VWN,VWE,MN,ME,MD,MX,MY,MZ,MI
FMT, 217, 33, XKF8, Qcccccchhhcc, TimeUS,IVN,IVE,IVD,IPN,IPE,IPD,IMX,IMY,IMZ,IYAW,IVT
FMT, 218, 35, XKF9, QcccccfbbHBHHb, TimeUS,SV,SP,SH,SM,SVT,errRP,OFN,OFE,FS,TS,SS,GPS,PI
FMT, 219, 36, XKF0, QBccCCcccccccc, TimeUS,ID,rng,innov,SIV,TR,BPN,BPE,BPD,OFH,OFL,OFN,OFE,OFD
FMT, 220, 27, XKQ1, Qffff, TimeUS,Q1,Q2,Q3,Q4
FMT, 221, 27, XKQ2, Qffff, TimeUS,Q1,Q2,Q3,Q4
FMT, 222, 35, XKFD, Qffffff, TimeUS,IX,IY,IZ,IVX,IVY,IVZ
FMT, 148, 34, TERR, QBLLHffHH, TimeUS,Status,Lat,Lng,Spacing,TerrH,CHeight,Pending,Loaded
FMT, 149, 18, UBX1, QBHBBH, TimeUS,Instance,noisePerMS,jamInd,aPower,agcCnt
FMT, 150, 16, UBX2, QBbBbB, TimeUS,Instance,ofsI,magI,ofsQ,magQ
FMT, 151, 18, UBY1, QBHBBH, TimeUS,Instance,noisePerMS,jamInd,aPower,agcCnt
FMT, 152, 16, UBY2, QBbBbB, TimeUS,Instance,ofsI,magI,ofsQ,magQ
FMT, 170, 42, GRAW, QIHBBddfBbB, TimeUS,WkMS,Week,numSV,sv,cpMes,prMes,doMes,mesQI,cno,lli
FMT, 171, 24, GRXH, QdHbBB, TimeUS,rcvTime,week,leapS,numMeas,recStat
FMT, 172, 41, GRXS, QddfBBBHBBBBB, TimeUS,prMes,cpMes,doMes,gnss,sv,freq,lock,cno,prD,cpD,doD,trk
FMT, 173, 63, SBFE, QIHBBdddfffff, TimeUS,TOW,WN,Mode,Err,Lat,Lng,Height,Undul,Vn,Ve,Vu,COG
FMT, 153, 19, ESC1, Qcccc, TimeUS,RPM,Volt,Curr,Temp
FMT, 154, 19, ESC2, Qcccc, TimeUS,RPM,Volt,Curr,Temp
FMT, 155, 19, ESC3, Qcccc, TimeUS,RPM,Volt,Curr,Temp
FMT, 156, 19, ESC4, Qcccc, TimeUS,RPM,Volt,Curr,Temp
FMT, 157, 19, ESC5, Qcccc, TimeUS,RPM,Volt,Curr,Temp
FMT, 158, 19, ESC6, Qcccc, TimeUS,RPM,Volt,Curr,Temp
FMT, 159, 19, ESC7, Qcccc, TimeUS,RPM,Volt,Curr,Temp
FMT, 160, 19, ESC8, Qcccc, TimeUS,RPM,Volt,Curr,Temp
FMT, 167, 34, MAG2, QhhhhhhhhhBI, TimeUS,MagX,MagY,MagZ,OfsX,OfsY,OfsZ,MOfsX,MOfsY,MOfsZ,Health,S
FMT, 168, 34, MAG3, QhhhhhhhhhBI, TimeUS,MagX,MagY,MagZ,OfsX,OfsY,OfsZ,MOfsX,MOfsY,MOfsZ,Health,S
FMT, 174, 31, ACC1, QQfff, TimeUS,SampleUS,AccX,AccY,AccZ
FMT, 175, 31, ACC2, QQfff, TimeUS,SampleUS,AccX,AccY,AccZ
FMT, 176, 31, ACC3, QQfff, TimeUS,SampleUS,AccX,AccY,AccZ
FMT, 177, 31, GYR1, QQfff, TimeUS,SampleUS,GyrX,GyrY,GyrZ
FMT, 178, 31, GYR2, QQfff, TimeUS,SampleUS,GyrX,GyrY,GyrZ
FMT, 179, 31, GYR3, QQfff, TimeUS,SampleUS,GyrX,GyrY,GyrZ
FMT, 181, 35, PIDR, Qffffff, TimeUS,Des,P,I,D,FF,AFF
FMT, 182, 35, PIDP, Qffffff, TimeUS,Des,P,I,D,FF,AFF
FMT, 183, 35, PIDY, Qffffff, TimeUS,Des,P,I,D,FF,AFF
FMT, 184, 35, PIDA, Qffffff, TimeUS,Des,P,I,D,FF,AFF
FMT, 185, 35, PIDS, Qffffff, TimeUS,Des,P,I,D,FF,AFF
FMT, 186, 35, PIDL, Qffffff, TimeUS,Des,P,I,D,FF,AFF
FMT, 161, 37, BAR2, QffcfIff, TimeUS,Alt,Press,Temp,CRt,SMS,Offset,GndTemp
FMT, 197, 37, BAR3, QffcfIff, TimeUS,Alt,Press,Temp,CRt,SMS,Offset,GndTemp
FMT, 187, 35, VIBE, QfffIII, TimeUS,VibeX,VibeY,VibeZ,Clip0,Clip1,Clip2
FMT, 188, 47, IMT, Qfffffffff, TimeUS,DelT,DelvT,DelaT,DelAX,DelAY,DelAZ,DelVX,DelVY,DelVZ
FMT, 189, 47, IMT2, Qfffffffff, TimeUS,DelT,DelvT,DelaT,DelAX,DelAY,DelAZ,DelVX,DelVY,DelVZ
FMT, 190, 47, IMT3, Qfffffffff, TimeUS,DelT,DelvT,DelaT,DelAX,DelAY,DelAZ,DelVX,DelVY,DelVZ
FMT, 191, 24, ORGN, QBLLe, TimeUS,Type,Lat,Lng,Alt
FMT, 192, 19, RPM, Qff, TimeUS,rpm1,rpm2
FMT, 233, 47, GMB1, Iffffffffff, TimeMS,dt,dax,day,daz,dvx,dvy,dvz,jx,jy,jz
FMT, 234, 44, GMB2, IBfffffffff, TimeMS,es,ex,ey,ez,rx,ry,rz,tx,ty,tz
FMT, 235, 13, GMB3, Ihhh, TimeMS,rl_torque_cmd,el_torque_cmd,az_torque_cmd
FMT, 236, 59, RATE, Qffffffffffff, TimeUS,RDes,R,ROut,PDes,P,POut,YDes,Y,YOut,ADes,A,AOut
FMT, 237, 23, RALY, QBBLLh, TimeUS,Tot,Seq,Lat,Lng,Alt
FMT, 238, 43, VISO, Qffffffff, TimeUS,dt,AngDX,AngDY,AngDZ,PosDX,PosDY,PosDZ,conf
FMT, 224, 23, SBPH, QIII, TimeUS,CrcError,LastInject,IARhyp
FMT, 229, 80, SBR1, QHHBZ, TimeUS,msg_type,sender_id,msg_len,d1
FMT, 230, 205, SBR2, QHZZZ, TimeUS,msg_type,d2,d3,d4
FMT, 25, 41, ATUN, QBBfffffff, TimeUS,Axis,TuneStep,Targ,Min,Max,RP,RD,SP,ddt
FMT, 26, 19, ATDE, Qff, TimeUS,Angle,Rate
FMT, 31, 22, PTUN, QBfHHH, TimeUS,Param,TunVal,CtrlIn,TunLo,TunHi
FMT, 12, 28, OF, QBffff, TimeUS,Qual,flowX,flowY,bodyX,bodyY
FMT, 5, 51, NTUN, Qffffffffff, TimeUS,DPosX,DPosY,PosX,PosY,DVelX,DVelY,VelX,VelY,DAccX,DAccY
FMT, 4, 51, CTUN, Qffffffeccfhh, TimeUS,ThI,ABst,ThO,ThH,DAlt,Alt,BAlt,DSAlt,SAlt,TAlt,DCRt,CRt
FMT, 6, 32, PM, QHHIhBHII, TimeUS,NLon,NLoop,MaxT,PMT,I2CErr,INSErr,LogDrop,Mem
FMT, 30, 27, MOTB, Qffff, TimeUS,LiftMax,BatVolt,BatRes,ThLimit
FMT, 13, 12, EV, QB, TimeUS,Id
FMT, 20, 14, D16, QBh, TimeUS,Id,Value
FMT, 21, 14, DU16, QBH, TimeUS,Id,Value
FMT, 22, 16, D32, QBi, TimeUS,Id,Value
FMT, 23, 16, DU32, QBI, TimeUS,Id,Value
FMT, 24, 16, DFLT, QBf, TimeUS,Id,Value
FMT, 19, 13, ERR, QBB, TimeUS,Subsys,ECode
FMT, 32, 19, HELI, Qff, TimeUS,DRRPM,ERRPM
FMT, 33, 29, PL, QBBffff, TimeUS,Heal,TAcq,pX,pY,vX,vY
FMT, 34, 36, GUID, QBffffff, TimeUS,Type,pX,pY,pZ,vX,vY,vZ
FMT, 35, 32, THRO, QBffffbbbb, TimeUS,Stage,Vel,VelZ,Acc,AccEfZ,Throw,AttOk,HgtOk,PosOk
FMT, 36, 56, PRX, QBfffffffffff, TimeUS,Health,D0,D45,D90,D135,D180,D225,D270,D315,DUp,CAn,CDis
MODE, 37267686, 100, 100, 2
ATT, 37274082, 0, 0.09, 0, -0.25, 0.18, 0.18, 0, 1
RATE, 37274163, -0.4348049, 0.01570812, -0.001447499, 1.160651, -0.01025575, 0.002609867, -0.007285596, 0.02679717, -6.833163E-05, -613.2125, 1.556492, 0
NKF1, 37274172, 0.09, -0.25, 0.18, 0.01487802, 0.003853685, -0.01514105, 0, 0, 0, -0.08829337, 0, -0.02, 0
NKF2, 37274172, 0, 0, 0, 0, 0, 0, 0, 0, 0, 0, 0, 0, 0
NKF3, 37274172, 0, 0, 0, 0, 0, -0.01, 0, 0, 0, 0, 0
NKF4, 37274172, 0, 0, 0, 0, 0, 1.814009E-05, 0, 0, 0, 19, 229, 0, 0
NKF5, 37274172, 0, 0, 0, 0, 0.21, 0.13, 0, 0.19, 0.5, 6.676802E-05, 0.001345761, 0.002623389
NKQ1, 37274172, 0.9999392, 0.001141813, 0.0108447, 0.001645373
FMT, 254, 47, NKT1, QIffffffff, TimeUS,Cnt,IMUMin,IMUMax,EKFMin,EKFMax,AngMin,AngMax,VelMin,VelM
NKT1, 37274172, 3040, 0.0025, 0.0025, 0.009949985, 0.01076551, 0.001999725, 0.03597517, 0.001999725, 0.03597516
AHR2, 37274277, 0.1, -0.34, 0.2, 0.06, 0, 0, 0.9999936, 0.000894142, -0.002977285, 0.001749222
MOTB, 37274285, 1, 1, 0, 1
RCIN, 37274289, 0, 0, 0, 0, 0, 0, 0, 0, 0, 0, 0, 0, 0, 0
RCOU, 37274295, 1101, 1101, 1101, 1101, 0, 0, 0, 0, 0, 0, 0, 0, 0, 0
VIBE, 37274304, 0.02081536, 0.01945117, 0.03094793, 0, 0, 0
FMT, 253, 31, CTRL, Qfffff, TimeUS,RMSRollP,RMSRollD,RMSPitchP,RMSPitchD,RMSYaw
CTRL, 37274311, 0.001038159, 0.0002094698, 0.00274667, 0.0002575871, 4.467369E-05
PRX, 37274347, 2, 0.62, 0, 0.65, 0, 3.6, 0, 2.38, 0, 0, 0, 0.62
IMU, 37274355, 0.0002606123, -0.0006421191, 0.0004770311, 0.2189574, -0.01565075, -9.820015, 0, 0, 36.32334, 1, 1, 1000, 1000
MSG, 37437091, APM:Copter V3.5.7 (38483450)
MSG, 37437095, New mission
MSG, 37437106, Frame: QUAD
MODE, 37437110, Autonomous, 100, 2
IMU, 37444142, 0.0003184337, -0.0009139227, 0.0001915381, 0.2223309, -0.0263151, -9.799418, 0, 0, 36.32339, 1, 1, 1000, 1000
MAG, 37481233, 391, 517, 366, 0, 0, 0, 0, 0, 0, 1, 37481225
RFND, 37481337, 0.2, 25, 0, 0
BARO, 37481429, 0.0647237, 993.6197, 34.29, -0.4116357, 37481, 0, 33.73
CTUN, 37481443, 0, 0, 0, 0.3194353, 0.08852538, 0.08852538, 0.06, 0, 0.19, 0, 0, 1
ATT, 37484134, 0, 0.1, 0, -0.26, 0.18, 0.19, 0, 1
RATE, 37484144, -0.4497503, -0.01156908, -0.001108293, 1.172009, 0.0359809, 0.00276332, -0.0003788827, 0.02697548, -1.059351E-05, -598.5704, 2.159977, 0
NKF1, 37484151, 0.1, -0.26, 0.19, 0.01672528, 0.003875938, -0.01477952, 0, 0, 0, -0.08844093, 0, -0.02, 0
NKF2, 37484151, 0, 0, 0, 0, 0, 0, 0, 0, 0, 0, 0, 0, 0
NKF3, 37484151, 0, 0, 0, 0, 0, -0.01, 0, 0, 0, 0, 0
NKF4, 37484151, 0, 0, 0, 0, 0, 1.170679E-05, 0, 0, 0, 19, 229, 0, 0
NKF5, 37484151, 0, 0, 0, 0, 0.21, 0.13, 0, 0.19, 0.5, 4.993397E-05, 0.0006542168, 0.001337108
NKQ1, 37484151, 0.9999394, 0.001170878, 0.01082267, 0.001646453
AHR2, 37484195, 0.1, -0.34, 0.2, 0.06, 0, 0, 0.9999936, 0.0009247646, -0.002993677, 0.001750646
MOTB, 37484202, 1, 1, 0, 1
RCIN, 37484206, 0, 0, 0, 0, 0, 0, 0, 0, 0, 0, 0, 0, 0, 0
RCOU, 37484211, 1101, 1101, 1101, 1101, 0, 0, 0, 0, 0, 0, 0, 0, 0, 0
VIBE, 37484220, 0.02083035, 0.020816, 0.02794546, 0, 0, 0
CTRL, 37484226, 0.001075215, 0.0001780123, 0.002769312, 0.0002257726, 4.172504E-05
PRX, 37484342, 2, 0.62, 0, 0.66, 0, 3.6, 0, 2.36, 0, 0, 0, 0.62
IMU, 37484351, -0.0002152813, 0.0001711234, 0.0004800169, 0.2342402, -0.02603591, -9.825725, 0, 0, 36.32358, 1, 1, 1000, 1000
IMU, 37524099, 0.0006196314, -0.001839679, 0.00152356, 0.2247353, -0.03097959, -9.801652, 0, 0, 36.32439, 1, 1, 1000, 1000
RFND, 37531340, 0.2, 25, 0, 0
IMU, 37564011, 0.001121763, 0.0002765896, -0.0005006103, 0.2154944, -0.02269281, -9.806599, 0, 0, 36.32589, 1, 1, 1000, 1000
MAG, 37581350, 395, 519, 366, 0, 0, 0, 0, 0, 0, 1, 37581341
RFND, 37581385, 0.2, 25, 0, 0
BARO, 37581417, 0.04502518, 993.6217, 34.29, -0.3076058, 37581, 0, 33.73
CTUN, 37581430, 0, 0, 0, 0.3194353, 0.08845071, 0.08845071, 0.04, 0, 0.19, 0, 0, 1
ATT, 37584062, 0, 0.1, 0, -0.26, 0.19, 0.19, 0, 1
RATE, 37584073, -0.4678868, 0.07110845, -0.001189955, 1.178446, 0.03159679, 0.002627676, -0.001232499, 0.0168956, -5.835928E-05, -589.3948, 1.812553, 0
NKF1, 37584081, 0.1, -0.26, 0.19, 0.0170499, 0.003981634, -0.01455296, 0, 0, 0, -0.08829926, 0, -0.02, 0
NKF2, 37584081, 0, 0, 0, 0, 0, 0, 0, 0, 0, 0, 0, 0, 0
NKF3, 37584081, 0, 0, 0, 0.01, 0, -0.01, 0, 0, 0, 0, 0
NKF4, 37584081, 0, 0, 0, 0, 0, 7.14057E-06, 0, 0, 0, 19, 229, 0, 0
NKF5, 37584081, 0, 0, 0, 0, 0.21, 0.13, 0, 0.19, 0.5, 4.550238E-05, 0.000672852, 0.001656643
NKQ1, 37584081, 0.9999396, 0.001206122, 0.01080929, 0.00167337
AHR2, 37584123, 0.1, -0.34, 0.2, 0.04, 0, 0, 0.9999934, 0.0009615299, -0.003001221, 0.00177746
MOTB, 37584131, 1, 1, 0, 1
RCIN, 37584135, 0, 0, 0, 0, 0, 0, 0, 0, 0, 0, 0, 0, 0, 0
RCOU, 37584140, 1101, 1101, 1101, 1101, 0, 0, 0, 0, 0, 0, 0, 0, 0, 0
VIBE, 37584149, 0.02210067, 0.02025396, 0.02780604, 0, 0, 0
CTRL, 37584156, 0.00110989, 0.0001713728, 0.002788675, 0.0002270668, 5.555394E-05
PRX, 37584187, 2, 0.62, 0, 0.66, 0, 3.6, 0, 2.38, 0, 0, 0, 0.62
IMU, 37604074, 0.000359821, -0.0002980542, 0.0002099737, 0.2222041, -0.02529354, -9.799823, 0, 0, 36.32695, 1, 1, 1000, 1000
RFND, 37631566, 0.2, 25, 0, 0
IMU, 37644082, 0.0001001921, -0.000679174, 0.0007068499, 0.2337348, -0.02584719, -9.800197, 0, 0, 36.32792, 1, 1, 1000, 1000
MAG, 37681169, 391, 521, 371, 0, 0, 0, 0, 0, 0, 1, 37681161
RFND, 37681202, 0.2, 25, 0, 0
BARO, 37681232, 0.09005036, 993.6167, 34.29, -0.1097361, 37681, 0, 33.73
CTUN, 37681304, 0, 0, 0, 0.3194353, 0.08844441, 0.08844441, 0.09, 0, 0.19, 0, 0, 1
ATT, 37683910, 0, 0.1, 0, -0.26, 0.19, 0.19, 0, 1
RATE, 37683919, -0.4704296, 0.029916, -0.001334569, 1.194176, -0.07453297, 0.00327259, -0.00089721, 0.04147981, -5.514782E-05, -552.0557, 0.4072189, 0
NKF1, 37683926, 0.1, -0.26, 0.19, 0.01834287, 0.003669066, -0.013631, 0, 0, 0, -0.08835675, 0, -0.02, 0
NKF2, 37683926, 0, 0, 0, 0, 0, 0, 0, 0, 0, 0, 0, 0, 0
NKF3, 37683926, 0, 0, 0, 0.01, 0, -0.01, 0, 0, 0, 0, 0
NKF4, 37683926, 0, 0, 0, 0, 0, 4.812578E-06, 0, 0, 0, 19, 229, 0, 0
NKF5, 37683926, 0, 0, 0, 0, 0.21, 0.13, 0, 0.19, 0.5, 4.299662E-05, 0.0003246129, 0.0006433508
NKQ1, 37683926, 0.9999398, 0.001210669, 0.01078031, 0.001680892
AHR2, 37684095, 0.1, -0.34, 0.2, 0.09, 0, 0, 0.9999934, 0.0009651975, -0.003021541, 0.001785293
MOTB, 37684102, 1, 1, 0, 1
RCIN, 37684107, 0, 0, 0, 0, 0, 0, 0, 0, 0, 0, 0, 0, 0, 0
RCOU, 37684112, 1101, 1101, 1101, 1101, 0, 0, 0, 0, 0, 0, 0, 0, 0, 0
VIBE, 37684121, 0.01965637, 0.02155625, 0.0336995, 0, 0, 0
CTRL, 37684127, 0.001117375, 0.0001633441, 0.002811039, 0.0002168578, 4.968829E-05
PRX, 37684159, 2, 0.62, 0, 0.66, 0, 0.68, 0, 2.37, 0, 0, 0, 0.62
IMU, 37684166, 0.0005086265, -0.001762638, 0.0007332643, 0.2297891, -0.02775091, -9.808321, 0, 0, 36.32929, 1, 1, 1000, 1000
IMU, 37723935, -0.0006573052, 0.0006363593, 0.000492945, 0.2307491, -0.02585495, -9.80785, 0, 0, 36.33104, 1, 1, 1000, 1000
RFND, 37731575, 0.2, 25, 0, 0
IMU, 37763906, 0.0004295412, 0.0003221114, 0.0006216002, 0.2189621, -0.02667306, -9.813098, 0, 0, 36.33249, 1, 1, 1000, 1000
MAG, 37781419, 389, 513, 372, 0, 0, 0, 0, 0, 0, 1, 37781411
RFND, 37781453, 0.2, 25, 0, 0
BARO, 37781484, 0.02251259, 993.6241, 34.3, 0.04267655, 37781, 0, 33.73
CTUN, 37781496, 0, 0, 0, 0.3194353, 0.08820292, 0.08820292, 0.02, 0, 0.19, 0, 0, 1
ATT, 37783976, 0, 0.1, 0, -0.26, 0.19, 0.19, 0, 1
RATE, 37783987, -0.4741751, 0.06312267, -0.001429942, 1.182664, 0.0347299, 0.002948407, -0.001271178, -0.01279445, -0.0001241918, -568.7753, -0.1150131, 0
NKF1, 37783994, 0.1, -0.26, 0.19, 0.0196422, 0.00358285, -0.01404383, 0, 0, 0, -0.08808158, 0, -0.02, 0
NKF2, 37783994, 0, 0, 0, 0, 0, 0, 0, 0, 0, 0, 0, 0, 0
NKF3, 37783994, 0, 0, 0, 0.01, 0, -0.01, 0, 0, 0, 0, 0
NKF4, 37783994, 0, 0, 0, 0, 0, 3.282957E-06, 0, 0, 0, 19, 229, 0, 0
NKF5, 37783994, 0, 0, 0, 0, 0.21, 0.13, 0, 0.19, 0.5, 4.169443E-05, 0.0004051045, 0.001030167
NKQ1, 37783994, 0.9999394, 0.001216537, 0.0108039, 0.00171119
AHR2, 37784038, 0.11, -0.34, 0.2, 0.02, 0, 0, 0.9999934, 0.0009709198, -0.002988116, 0.001815911
MOTB, 37784045, 1, 1, 0, 1
RCIN, 37784049, 0, 0, 0, 0, 0, 0, 0, 0, 0, 0, 0, 0, 0, 0
RCOU, 37784054, 1101, 1101, 1101, 1101, 0, 0, 0, 0, 0, 0, 0, 0, 0, 0
VIBE, 37784063, 0.0202681, 0.02149852, 0.03291447, 0, 0, 0
CTRL, 37784070, 0.001118668, 0.0001556529, 0.002790909, 0.0002252405, 7.188433E-05
PRX, 37784101, 2, 0.62, 0, 0.65, 0, 0.68, 0, 2.37, 0, 0, 0, 0.62
IMU, 37803956, -3.423928E-05, -0.002811862, 0.0006045279, 0.2271816, -0.02392145, -9.812629, 0, 0, 36.33418, 1, 1, 1000, 1000
RFND, 37831483, 0.2, 25, 0, 0
IMU, 37844719, -0.0008705353, -0.001761665, 1.268849E-05, 0.2151307, -0.023126, -9.804431, 0, 0, 36.3356, 1, 1, 1000, 1000
MAG, 37881583, 391, 524, 369, 0, 0, 0, 0, 0, 0, 1, 37881575
RFND, 37881620, 0.2, 25, 0, 0
BARO, 37881677, 0.115377, 993.6141, 34.3, 0.06100595, 37881, 0, 33.73
CTUN, 37881690, 0, 0, 0, 0.3194353, 0.08829111, 0.08829111, 0.11, 0, 0.19, 0, 0, 1
DU32, 37881713, 7, 50389208
ATT, 37884220, 0, 0.1, 0, -0.26, 0.19, 0.2, 0, 1
RATE, 37884230, -0.4777001, 0.06115907, -0.001510735, 1.207837, 0.005558069, 0.003078266, -0.001171962, 0.04195254, -9.820895E-05, -558.7107, 2.10495, 0
NKF1, 37884238, 0.1, -0.26, 0.2, 0.02095792, 0.003805813, -0.01379533, 0, 0, 0, -0.08812401, 0, -0.02, 0
NKF2, 37884238, 0, 0, 0, 0, 0, 0, 0, 0, 0, 0, 0, 0, 0
NKF3, 37884238, 0, 0, 0, 0.01, 0, -0.01, 0, 0, 0, 0, 0
NKF4, 37884238, 0, 0, 0, 0, 0, 2.241579E-06, 0, 0, 0, 19, 229, 0, 0
NKF5, 37884238, 0, 0, 0, 0, 0.21, 0.13, 0, 0.19, 0.5, 4.04645E-05, 0.0008187015, 0.002107637
NKQ1, 37884238, 0.99994, 0.001223167, 0.01075653, 0.001738586
AHR2, 37884370, 0.11, -0.34, 0.21, 0.11, 0, 0, 0.9999933, 0.000979953, -0.003023736, 0.00184359
MOTB, 37884379, 1, 1, 0, 1
RCIN, 37884383, 0, 0, 0, 0, 0, 0, 0, 0, 0, 0, 0, 0, 0, 0
RCOU, 37884389, 1101, 1101, 1101, 1101, 0, 0, 0, 0, 0, 0, 0, 0, 0, 0
VIBE, 37884398, 0.01738334, 0.02112804, 0.03310125, 0, 0, 0
CTRL, 37884405, 0.001126201, 0.0001585257, 0.002840943, 0.0002570795, 8.046196E-05
PRX, 37884436, 2, 0.63, 0, 0.66, 0, 3.6, 0, 2.36, 0, 0, 0, 0.63
IMU, 37884444, 0.001053768, -0.0003701139, 0.0007416212, 0.2269439, -0.01516039, -9.825463, 0, 0, 36.33667, 1, 1, 1000, 1000
IMU, 37925729, 0.0009407692, -0.001395968, -0.0001464002, 0.2257082, -0.01083061, -9.83017, 0, 0, 36.33816, 1, 1, 1000, 1000
RFND, 37933102, 0.2, 25, 0, 0
IMU, 37965395, -0.0002815489, -0.0003047649, -0.0002963058, 0.2177164, -0.01142746, -9.798319, 0, 0, 36.33953, 1, 1, 1000, 1000
MAG, 37982836, 395, 517, 364, 0, 0, 0, 0, 0, 0, 1, 37982828
RFND, 37982871, 0.2, 25, 0, 0
BARO, 37982903, 0.005628148, 993.6262, 34.3, 0.02462899, 37982, 0, 33.73
CTUN, 37982917, 0, 0, 0, 0.3194353, 0.08805, 0.08805, 0, 0, 0.19, 0, 0, 1
ATT, 37985385, 0, 0.1, 0, -0.27, 0.19, 0.19, 0, 1
RATE, 37985397, -0.4794022, 0.02677736, -0.001188792, 1.223497, -0.06102702, 0.003156022, -0.001412139, 0.05332061, 1.333225E-05, -572.6664, 0.9348869, 0
NKF1, 37985404, 0.1, -0.27, 0.19, 0.02182666, 0.00502465, -0.01413991, 0, 0, 0, -0.08795575, 0, -0.02, 0
NKF2, 37985404, 0, 0, 0, 0, 0, 0, 0, 0, 0, 0, 0, 0, 0
NKF3, 37985404, 0, 0, 0, 0.01, 0, -0.01, 0, 0, 0, 0, 0
NKF4, 37985404, 0, 0, 0, 0, 0, 1.577268E-06, 0, 0, 0, 19, 229, 0, 0
NKF5, 37985404, 0, 0, 0, 0, 0.21, 0.13, 0, 0.19, 0.5, 3.927619E-05, 0.0002544271, 0.0006552989
NKQ1, 37985404, 0.9999403, 0.001227001, 0.01072549, 0.001730177
AHR2, 37985447, 0.11, -0.34, 0.2, 0, 0, 0, 0.9999932, 0.0009843801, -0.003043264, 0.001835543
MOTB, 37985455, 1, 1, 0, 1
RCIN, 37985459, 0, 0, 0, 0, 0, 0, 0, 0, 0, 0, 0, 0, 0, 0
RCOU, 37985464, 1101, 1101, 1101, 1101, 0, 0, 0, 0, 0, 0, 0, 0, 0, 0
VIBE, 37985473, 0.01902985, 0.02172087, 0.03265544, 0, 0, 0
CTRL, 37985480, 0.001142843, 0.0001626311, 0.00287639, 0.0002402323, 7.236167E-05
PRX, 37985511, 2, 0.62, 0, 0.65, 0, 3.6, 0, 2.36, 0, 0, 0, 0.62
IMU, 38005378, 0.0006326376, -0.0005724702, -0.001027942, 0.2217525, -0.02652601, -9.832924, 0, 0, 36.34131, 1, 1, 1000, 1000
RFND, 38032675, 0.2, 25, 0, 0
IMU, 38045300, -0.001417944, -0.001001657, -0.0009850516, 0.2324219, -0.02148587, -9.813972, 0, 0, 36.34299, 1, 1, 1000, 1000
MAG, 38082651, 393, 519, 366, 0, 0, 0, 0, 0, 0, 1, 38082589
RFND, 38082683, 0.2, 25, 0, 0
BARO, 38082815, 0.01688444, 993.625, 34.31, -0.02447547, 38082, 0, 33.73
CTUN, 38082829, 0, 0, 0, 0.3194353, 0.08820292, 0.08820292, 0.01, 0, 0.19, 0, 0, 1
ATT, 38085296, 0, 0.1, 0, -0.27, 0.19, 0.19, 0, 1
RATE, 38085304, -0.4818286, 0.02352354, -0.001329444, 1.232248, -0.04155601, 0.002887911, -0.0009456577, -0.003319635, 5.752151E-05, -601.2329, -0.8704185, 0
NKF1, 38085312, 0.1, -0.27, 0.19, 0.02347696, 0.005030795, -0.01484526, 0, 0, 0, -0.08806664, 0, -0.02, 0
NKF2, 38085312, 0, 0, 0, 0, 0, 0, 0, 0, 0, 0, 0, 0, 0
NKF3, 38085312, 0, 0, 0, 0.01, 0, -0.01, 0, 0, 0, 0, 0
NKF4, 38085312, 0, 0, 0, 0, 0, 1.140253E-06, 0, 0, 0, 19, 229, 0, 0
NKF5, 38085312, 0, 0, 0, 0, 0.21, 0.13, 0, 0.19, 0.5, 3.839285E-05, 0.0006471615, 0.001676657
NKQ1, 38085312, 0.9999406, 0.001231886, 0.01070725, 0.001705671
AHR2, 38085354, 0.11, -0.34, 0.2, 0.01, 0, 0, 0.9999932, 0.0009827442, -0.003048664, 0.001811409
MOTB, 38085361, 1, 1, 0, 1
RCIN, 38085365, 0, 0, 0, 0, 0, 0, 0, 0, 0, 0, 0, 0, 0, 0
RCOU, 38085371, 1101, 1101, 1101, 1101, 0, 0, 0, 0, 0, 0, 0, 0, 0, 0
VIBE, 38085379, 0.02058111, 0.02235469, 0.03205515, 0, 0, 0
CTRL, 38085385, 0.001144105, 0.0001802348, 0.002904636, 0.000210352, 6.372644E-05
PRX, 38085416, 2, 0.62, 0, 0.66, 0, 3.6, 0, 2.36, 0, 0, 0, 0.62
IMU, 38085422, 0.0003969306, -0.001191579, -4.85448E-05, 0.2296295, -0.02898096, -9.795644, 0, 0, 36.3431, 1, 1, 1000, 1000
IMU, 38125342, 1.479015E-05, 0.0008421324, -0.0007656683, 0.2255555, -0.02372958, -9.814106, 0, 0, 36.34373, 1, 1, 1000, 1000
RFND, 38132762, 0.2, 25, 0, 0
IMU, 38165382, -0.0001933519, -0.0003371477, 0.001676509, 0.2222438, -0.02840831, -9.820415, 0, 0, 36.34486, 1, 1, 1000, 1000
MAG, 38182737, 394, 523, 369, 0, 0, 0, 0, 0, 0, 1, 38182729
RFND, 38182774, 0.2, 25, 0, 0
BARO, 38182805, 0.1041207, 993.6152, 34.31, -0.09904339, 38182, 0, 33.73
CTUN, 38182818, 0, 0, 0, 0.3194353, 0.08814888, 0.08814888, 0.1, 0, 0.19, 0, 0, 1
ATT, 38185438, 0, 0.11, 0, -0.27, 0.19, 0.19, 0, 1
RATE, 38185448, -0.496517, 0.06313615, -0.001603337, 1.226405, -0.006169768, 0.002874525, -0.0005752788, 0.02625566, -4.697961E-05, -622.5311, 1.901817, 0
NKF1, 38185455, 0.11, -0.27, 0.19, 0.0245799, 0.00515469, -0.01537114, 0, 0, 0, -0.088069, 0, -0.02, 0
NKF2, 38185455, 0, 0, 0, 0, 0, 0, 0, 0, 0, 0, 0, 0, 0
NKF3, 38185455, 0, 0, 0, 0.01, 0, -0.01, 0, 0, 0, 0, 0
NKF4, 38185455, 0, 0, 0, 0, 0, 8.699757E-07, 0, 0, 0, 19, 229, 0, 0
NKF5, 38185455, 0, 0, 0, 0, 0.21, 0.13, 0, 0.19, 0.5, 3.772371E-05, 0.0001645336, 0.0004218524
NKQ1, 38185455, 0.9999403, 0.001260706, 0.01071846, 0.001712002
AHR2, 38185497, 0.11, -0.34, 0.2, 0.09999999, 0, 0, 0.9999933, 0.001005967, -0.003024538, 0.001817821
MOTB, 38185505, 1, 1, 0, 1
RCIN, 38185509, 0, 0, 0, 0, 0, 0, 0, 0, 0, 0, 0, 0, 0, 0
RCOU, 38185514, 1101, 1101, 1101, 1101, 0, 0, 0, 0, 0, 0, 0, 0, 0, 0
VIBE, 38185523, 0.02006691, 0.01959931, 0.03250364, 0, 0, 0
CTRL, 38185530, 0.001173242, 0.0001791838, 0.002888707, 0.00020795, 6.408204E-05
PRX, 38185561, 2, 0.62, 0, 0.65, 0, 0.63, 0, 2.37, 0, 0, 0, 0.62
IMU, 38205474, -0.0004680068, -0.000384053, -0.0004022977, 0.2243516, -0.01818944, -9.816416, 0, 0, 36.34629, 1, 1, 1000, 1000
RFND, 38232798, 0.2, 25, 0, 0
IMU, 38246104, 0.0004130125, -0.0008308059, 0.0009789349, 0.2308061, -0.01539521, -9.78972, 0, 0, 36.34737, 1, 1, 1000, 1000
MAG, 38285520, 399, 522, 370, 0, 0, 0, 0, 0, 0, 1, 38285512
RFND, 38285556, 0.2, 25, 0, 0
BARO, 38285587, 0.22794, 993.6016, 34.31, -0.008568084, 38285, 0, 33.73
CTUN, 38285680, 0, 0, 0, 0.3194353, 0.08830666, 0.08830666, 0.22, 0, 0.19, 0, 0, 1
ATT, 38290232, 0, 0.11, 0, -0.27, 0.19, 0.19, 0, 1
RATE, 38290241, -0.5078567, 0.01163689, -0.001003834, 1.244294, -0.05007168, 0.003061649, 6.215631E-05, -0.01096568, -7.757943E-05, -615.824, 0.5702972, 0
NKF1, 38290250, 0.11, -0.27, 0.19, 0.0260776, 0.005452267, -0.01520553, 0, 0, 0, -0.08818404, 0, -0.02, 0
NKF2, 38290250, 0, 0, 0, 0, 0, 0, 0, 0, 0, 0, 0, 0, 0
NKF3, 38290250, 0, 0, 0, 0.02, 0, -0.01, 0, 0, 0, 0, 0
NKF4, 38290250, 0, 0, 0, 0, 0, 7.090516E-07, 0, 0, 0, 19, 229, 0, 0
NKF5, 38290250, 0, 0, 0, 0, 0.21, 0.13, 0, 0.19, 0.5, 3.726107E-05, 0.0005028546, 0.00131391
NKQ1, 38290250, 0.9999407, 0.001282701, 0.01068272, 0.001722738
AHR2, 38290300, 0.11, -0.34, 0.2, 0.22, 0, 0, 0.9999931, 0.001026422, -0.003047922, 0.001828704
MOTB, 38290308, 1, 1, 0, 1
RCIN, 38290313, 0, 0, 0, 0, 0, 0, 0, 0, 0, 0, 0, 0, 0, 0
RCOU, 38290319, 1101, 1101, 1101, 1101, 0, 0, 0, 0, 0, 0, 0, 0, 0, 0
VIBE, 38290328, 0.02228949, 0.02030084, 0.03706088, 0, 0, 0
CTRL, 38290335, 0.001205608, 0.000177288, 0.002928028, 0.0001993006, 6.096962E-05
PRX, 38290366, 2, 0.62, 0, 0.65, 0, 3.6, 0, 2.36, 0, 0, 0, 0.62
IMU, 38290373, 0.0001894668, -0.001340411, -0.0001819905, 0.2192932, -0.02556737, -9.810317, 0, 0, 36.34809, 1, 1, 1000, 1000
IMU, 38330222, -0.001344914, -0.001870246, 0.001130755, 0.2347112, -0.01905078, -9.819839, 0, 0, 36.34898, 1, 1, 1000, 1000
RFND, 38336903, 0.2, 25, 0, 0
IMU, 38370177, 0.001825426, -0.0007192208, -0.0008910832, 0.2173472, -0.03274767, -9.809816, 0, 0, 36.34973, 1, 1, 1000, 1000
MAG, 38386949, 395, 520, 381, 0, 0, 0, 0, 0, 0, 1, 38386940
RFND, 38386984, 0.2, 25, 0, 0
BARO, 38387015, 0.1181911, 993.6138, 34.31, 0.3228087, 38387, 0, 33.73
CTUN, 38387029, 0, 0, 0, 0.3194353, 0.08844814, 0.08844814, 0.11, 0, 0.19, 0, 0, 1
ATT, 38389572, 0, 0.11, 0, -0.27, 0.19, 0.19, 0, 1
RATE, 38389583, -0.5152186, 0.07079834, -0.001384024, 1.257155, 0.004019701, 0.002664254, -0.002140246, -0.01863745, 1.296639E-05, -613.9554, -1.062298, 0
NKF1, 38389592, 0.11, -0.27, 0.19, 0.02766416, 0.005668999, -0.01515939, 0, 0, 0, -0.08837655, 0, -0.02, 0
NKF2, 38389592, 0, 0, 0, 0, 0, 0, 0, 0, 0, 0, 0, 0, 0
NKF3, 38389592, 0, 0, 0, 0.02, 0, -0.01, 0, 0, 0, 0, 0
NKF4, 38389592, 0, 0, 0, 0, 0, 6.254045E-07, 0, 0, 0, 19, 229, 0, 0
NKF5, 38389592, 0, 0, 0, 0, 0.21, 0.13, 0, 0.19, 0.5, 3.689592E-05, 0.0001375357, 0.0003444802
NKQ1, 38389592, 0.9999409, 0.001296111, 0.01065992, 0.001718424
AHR2, 38389745, 0.11, -0.35, 0.2, 0.11, 0, 0, 0.9999931, 0.001038196, -0.003059126, 0.001824646
MOTB, 38389754, 1, 1, 0, 1
RCIN, 38389758, 0, 0, 0, 0, 0, 0, 0, 0, 0, 0, 0, 0, 0, 0
RCOU, 38389764, 1101, 1101, 1101, 1101, 0, 0, 0, 0, 0, 0, 0, 0, 0, 0
VIBE, 38389773, 0.02008123, 0.01998494, 0.0307937, 0, 0, 0
CTRL, 38389779, 0.001218743, 0.000195661, 0.002960957, 0.0002348517, 5.336241E-05
PRX, 38389809, 2, 0.62, 0, 0.66, 0, 3.6, 0, 2.38, 0, 0, 0, 0.62
IMU, 38410356, 0.001050156, -0.0001520486, -0.0001325078, 0.2164266, -0.02781851, -9.836163, 0, 0, 36.35067, 1, 1, 1000, 1000
RFND, 38440025, 0.2, 25, 0, 0
IMU, 38452053, 0.0003422335, -0.0004977164, 0.001504126, 0.2362492, -0.0211587, -9.830238, 0, 0, 36.3516, 1, 1, 1000, 1000
MAG, 38490091, 394, 521, 375, 0, 0, 0, 0, 0, 0, 1, 38490083
RFND, 38490127, 0.2, 25, 0, 0
BARO, 38490159, 0.191357, 993.6057, 34.31, 0.4872602, 38490, 0, 33.73
CTUN, 38490171, 0, 0, 0, 0.3194353, 0.0885352, 0.0885352, 0.19, 0, 0.19, 0, 0, 1
ATT, 38492785, 0, 0.11, 0, -0.27, 0.19, 0.19, 0, 1
RATE, 38492794, -0.5355455, 0.04270474, -0.001331132, 1.24545, -0.01782159, 0.00314138, -0.0003912984, -0.01706228, -2.092122E-05, -669.6815, 0.1613617, 0
NKF1, 38492802, 0.11, -0.27, 0.19, 0.02913345, 0.00589576, -0.01653534, 0, 0, 0, -0.08841426, 0, -0.02, 0
NKF2, 38492802, 0, 0, 0, 0, 0, 0, 0, 0, 0, 0, 0, 0, 0
NKF3, 38492802, 0, 0, 0, 0.02, 0, -0.01, 0, 0, 0, 0, 0
NKF4, 38492802, 0, 0, 0, 0, 0, 6.066734E-07, 0, 0, 0, 19, 229, 0, 0
NKF5, 38492802, 0, 0, 0, 0, 0.21, 0.13, 0, 0.19, 0.5, 3.663331E-05, 0.0003330058, 0.0008935555
NKQ1, 38492802, 0.9999406, 0.001336535, 0.0106803, 0.001721929
AHR2, 38492849, 0.12, -0.34, 0.2, 0.19, 0, 0, 0.9999932, 0.001077404, -0.003026272, 0.001828083
MOTB, 38492856, 1, 1, 0, 1
RCIN, 38492861, 0, 0, 0, 0, 0, 0, 0, 0, 0, 0, 0, 0, 0, 0
RCOU, 38492866, 1101, 1101, 1101, 1101, 0, 0, 0, 0, 0, 0, 0, 0, 0, 0
VIBE, 38492875, 0.02175566, 0.0227241, 0.03204507, 0, 0, 0
CTRL, 38492882, 0.001266904, 0.0001704183, 0.00293642, 0.0002187281, 4.775005E-05
PRX, 38492912, 2, 0.62, 0, 0.66, 0, 3.6, 0, 2.38, 0, 0, 0, 0.62
IMU, 38492920, 0.0007317613, -0.0007756969, -0.000288435, 0.2210067, -0.01917492, -9.806237, 0, 0, 36.35153, 1, 1, 1000, 1000
IMU, 38532920, -0.0005996277, -0.0006775887, 0.000211892, 0.2106677, -0.02331761, -9.791216, 0, 0, 36.35154, 1, 1, 1000, 1000
RFND, 38539974, 0.2, 25, 0, 0
IMU, 38572842, -0.0002191969, -0.002165478, -0.002285984, 0.2363471, -0.01802231, -9.813183, 0, 0, 36.35155, 1, 1, 1000, 1000
MAG, 38590007, 394, 518, 366, 0, 0, 0, 0, 0, 0, 1, 38589999
RFND, 38590043, 0.2, 25, 0, 0
BARO, 38590074, 0.1407037, 993.6111, 34.32, 0.2769188, 38590, 0, 33.73
CTUN, 38590087, 0, 0, 0, 0.3194353, 0.08886468, 0.08886468, 0.14, 0, 0.19, 0, 0, 1
ATT, 38592890, 0, 0.11, 0, -0.27, 0.19, 0.19, 0, 1
RATE, 38592902, -0.5356318, -0.001113889, -0.001358038, 1.251772, 0.0149212, 0.002692923, -0.003951702, -0.01627591, 0.00010568, -657.0419, 0.5196571, 0
NKF1, 38592909, 0.11, -0.27, 0.19, 0.03017947, 0.00619706, -0.01622326, 0, 0, 0, -0.08869831, 0, -0.02, 0
NKF2, 38592909, 0, 0, 0, 0, 0, 0, 0, 0, 0, 0, 0, 0, 0
NKF3, 38592909, 0, 0, 0, 0.03, 0, -0.01, 0, 0, 0, 0, 0
NKF4, 38592909, 0, 0, 0, 0, 0, 6.07165E-07, 0, 0, 0, 19, 229, 0, 0
NKF5, 38592909, 0, 0, 0, 0, 0.21, 0.13, 0, 0.19, 0.5, 3.700708E-05, 0.0007671452, 0.001965274
NKQ1, 38592909, 0.9999408, 0.001337087, 0.01066774, 0.001698481
AHR2, 38592953, 0.12, -0.34, 0.2, 0.14, 0, 0, 0.9999932, 0.001076508, -0.003027184, 0.00180504
MOTB, 38592961, 1, 1, 0, 1
RCIN, 38592965, 0, 0, 0, 0, 0, 0, 0, 0, 0, 0, 0, 0, 0, 0
RCOU, 38592971, 1101, 1101, 1101, 1101, 0, 0, 0, 0, 0, 0, 0, 0, 0, 0
VIBE, 38592979, 0.02027361, 0.02080284, 0.03287254, 0, 0, 0
CTRL, 38592986, 0.001270333, 0.0001656295, 0.002954445, 0.0002105571, 5.019501E-05
PRX, 38593017, 2, 0.62, 0, 0.66, 0, 3.6, 0, 2.39, 0, 0, 0, 0.62
IMU, 38612799, 0.00150631, -0.001213781, 0.001231453, 0.2272658, -0.01486516, -9.797198, 0, 0, 36.35154, 1, 1, 1000, 1000
RFND, 38640054, 0.2, 25, 0, 0
IMU, 38652773, 0.001047972, -0.0008069705, -0.0002121846, 0.2234511, -0.02034743, -9.810004, 0, 0, 36.35152, 1, 1, 1000, 1000
MAG, 38690033, 390, 523, 365, 0, 0, 0, 0, 0, 0, 1, 38690025
RFND, 38690068, 0.2, 25, 0, 0
BARO, 38690100, 0.1547741, 993.6096, 34.32, 0.03158887, 38690, 0, 33.73
CTUN, 38690112, 0, 0, 0, 0.3194353, 0.08875393, 0.08875393, 0.15, 0, 0.19, 0, 0, 1
ATT, 38692795, 0, 0.12, 0, -0.28, 0.19, 0.19, 0, 1
RATE, 38692803, -0.5538487, 0.06641906, -0.001557968, 1.265966, -0.06434029, 0.003580911, -0.002056293, -0.0141756, -2.397809E-05, -662.6027, 0.390625, 0
NKF1, 38692810, 0.12, -0.28, 0.19, 0.03208081, 0.006560693, -0.01636056, 0, 0, 0, -0.08868097, 0, -0.02, 0
NKF2, 38692810, 0, 0, 0, 0, 0, 0, 0, 0, 0, 0, 0, 0, 0
NKF3, 38692810, 0, 0, 0, 0.03, 0, -0.01, 0, 0, 0, 0, 0
NKF4, 38692810, 0, 0, 0, 0, 0, 6.739867E-07, 0, 0, 0, 19, 229, 0, 0
NKF5, 38692810, 0, 0, 0, 0, 0.21, 0.13, 0, 0.19, 0.5, 3.721564E-05, 0.0001873028, 0.0005270095
NKQ1, 38692810, 0.999941, 0.00137144, 0.01064258, 0.001705516
AHR2, 38692854, 0.12, -0.34, 0.2, 0.15, 0, 0, 0.9999931, 0.001109585, -0.003042831, 0.001812051
MOTB, 38692862, 1, 1, 0, 1
RCIN, 38692866, 0, 0, 0, 0, 0, 0, 0, 0, 0, 0, 0, 0, 0, 0
RCOU, 38692872, 1101, 1101, 1101, 1101, 0, 0, 0, 0, 0, 0, 0, 0, 0, 0
VIBE, 38692881, 0.01951004, 0.02129818, 0.03207889, 0, 0, 0
CTRL, 38692887, 0.001310136, 0.0001742972, 0.002970997, 0.0002079747, 4.646901E-05
PRX, 38692917, 2, 0.62, 0, 0.65, 0, 3.6, 0, 2.36, 0, 0, 0, 0.62
IMU, 38692924, 0.001145586, -0.00159013, -0.0002380042, 0.2369364, -0.03282265, -9.808188, 0, 0, 36.3516, 1, 1, 1000, 1000
IMU, 38732796, -9.050109E-06, -0.001191316, -0.0002673699, 0.2235934, -0.02225313, -9.806997, 0, 0, 36.35155, 1, 1, 1000, 1000
RFND, 38740064, 0.2, 25, 0, 0
IMU, 38772845, -0.0006945426, -0.001222432, 0.0003563682, 0.2210278, -0.01921331, -9.808505, 0, 0, 36.35123, 1, 1, 1000, 1000
MAG, 38789993, 396, 513, 370, 0, 0, 0, 0, 0, 0, 1, 38789984
RFND, 38790028, 0.2, 25, 0, 0
BARO, 38790060, 0.09567851, 993.6163, 34.32, -0.0582757, 38790, 0, 33.73
CTUN, 38790073, 0, 0, 0, 0.3194353, 0.08896435, 0.08896435, 0.09, 0, 0.19, 0, 0, 1
ATT, 38792753, 0, 0.12, 0, -0.28, 0.19, 0.19, 0, 1
RATE, 38792764, -0.5526126, 0.03164671, -0.00149902, 1.278983, 0.00502552, 0.002981555, -0.0003477596, 0.02018353, -2.619962E-05, -652.1921, -0.3675461, 0
NKF1, 38792772, 0.12, -0.28, 0.19, 0.03357842, 0.006681884, -0.01610351, 0, 0, 0, -0.08883302, 0, -0.02, 0
NKF2, 38792772, 0, 0, 0, 0, 0, 0, 0, 0, 0, 0, 0, 0, 0
NKF3, 38792772, 0, 0, 0, 0.03, 0, -0.01, 0, 0, 0, 0, 0
NKF4, 38792772, 0, 0, 0, 0, 0, 7.430707E-07, 0, 0, 0, 19, 229, 0, 0
NKF5, 38792772, 0, 0, 0, 0, 0.21, 0.13, 0, 0.19, 0.5, 3.771172E-05, 0.0005607868, 0.001455367
NKQ1, 38792772, 0.9999413, 0.00136913, 0.01061826, 0.001699105
AHR2, 38792818, 0.12, -0.35, 0.2, 0.09, 0, 0, 0.9999931, 0.001105677, -0.003057209, 0.001806077
MOTB, 38792825, 1, 1, 0, 1
RCIN, 38792829, 0, 0, 0, 0, 0, 0, 0, 0, 0, 0, 0, 0, 0, 0
RCOU, 38792835, 1101, 1101, 1101, 1101, 0, 0, 0, 0, 0, 0, 0, 0, 0, 0
VIBE, 38792844, 0.02122807, 0.02029394, 0.02936428, 0, 0, 0
CTRL, 38792851, 0.001307435, 0.0001708927, 0.003004585, 0.0001914383, 4.42092E-05
PRX, 38792882, 2, 0.62, 0, 0.66, 0, 3.6, 0, 2.36, 0, 0, 0, 0.62
IMU, 38812784, 0.0006821214, -0.001125188, 0.0004512994, 0.2211308, -0.02874992, -9.806719, 0, 0, 36.35091, 1, 1, 1000, 1000
RFND, 38839976, 0.2, 25, 0, 0
IMU, 38852762, -0.0006772929, -0.001167195, -0.001604321, 0.2179795, -0.01555838, -9.792316, 0, 0, 36.3509, 1, 1, 1000, 1000
MAG, 38889953, 393, 520, 365, 0, 0, 0, 0, 0, 0, 1, 38889944
RFND, 38890325, 0.2, 25, 0, 0
BARO, 38890360, 0.07879407, 993.618, 34.32, -0.131315, 38890, 0, 33.73
CTUN, 38890376, 0, 0, 0, 0.3194353, 0.08902764, 0.08902764, 0.07, 0, 0.19, 0, 0, 1
DU32, 38890399, 7, 50389208
ATT, 38895092, 0, 0.12, 0, -0.28, 0.19, 0.19, 0, 1
RATE, 38895102, -0.5504293, -0.008303021, -0.001259674, 1.289196, 0.05045025, 0.002787434, -0.001680634, 0.001896831, 9.519727E-05, -634.025, 0.357151, 0
NKF1, 38895109, 0.12, -0.28, 0.19, 0.03485377, 0.00696757, -0.01565494, 0, 0, 0, -0.08896437, 0, -0.02, 0
NKF2, 38895109, 0, 0, 0, 0, 0, 0, 0, 0, 0, 0, 0, 0, 0
NKF3, 38895109, 0, 0, 0, 0.03, 0, -0.01, 0, 0, 0, 0, 0
NKF4, 38895109, 0, 0, 0, 0, 0, 8.401232E-07, 0, 0, 0, 19, 229, 0, 0
NKF5, 38895109, 0, 0, 0, 0, 0.21, 0.13, 0, 0.19, 0.5, 3.771414E-05, 0.0001078694, 0.0002889078
NKQ1, 38895109, 0.9999415, 0.001365422, 0.01059742, 0.001672895
AHR2, 38895242, 0.12, -0.35, 0.2, 0.07, 0, 0, 0.9999931, 0.001098712, -0.003065006, 0.001780331
MOTB, 38895249, 1, 1, 0, 1
RCIN, 38895254, 0, 0, 0, 0, 0, 0, 0, 0, 0, 0, 0, 0, 0, 0
RCOU, 38895259, 1101, 1101, 1101, 1101, 0, 0, 0, 0, 0, 0, 0, 0, 0, 0
VIBE, 38895268, 0.01948795, 0.02017384, 0.03228308, 0, 0, 0
CTRL, 38895274, 0.001311791, 0.0001571532, 0.003038177, 0.0002075215, 5.033204E-05
PRX, 38895307, 2, 0.62, 0, 0.66, 0, 3.6, 0, 2.36, 0, 0, 0, 0.62
IMU, 38895930, -0.0001585475, 0.0004135061, 4.25067E-05, 0.2177654, -0.02124551, -9.808326, 0, 0, 36.35097, 1, 1, 1000, 1000
IMU, 38935944, -0.0007850413, -0.0003474237, 0.0006489544, 0.2206648, -0.01783731, -9.809372, 0, 0, 36.35101, 1, 1, 1000, 1000
RFND, 38942789, 0.2, 25, 0, 0
IMU, 38975720, -0.0009544692, -0.001578369, -0.001363131, 0.225402, -0.01568779, -9.803459, 0, 0, 36.35136, 1, 1, 1000, 1000
MAG, 38992810, 392, 521, 367, 0, 0, 0, 0, 0, 0, 1, 38992802
RFND, 38992845, 0.2, 25, 0, 0
BARO, 38992877, 0.1378896, 993.6116, 34.32, -0.2049506, 38992, 0, 33.73
CTUN, 38992889, 0, 0, 0, 0.3194353, 0.08909661, 0.08909661, 0.13, 0, 0.19, 0, 0, 1
ATT, 38995737, 0, 0.12, 0, -0.28, 0.18, 0.19, 0, 1
RATE, 38995748, -0.5471052, 0.04004651, -0.001641116, 1.296747, 0.1202552, 0.00212579, -0.002608838, -0.000276745, 6.986239E-05, -627.5249, -0.1955986, 0
NKF1, 38995756, 0.12, -0.28, 0.19, 0.03627066, 0.007837261, -0.01549444, 0, 0, 0, -0.08899136, 0, -0.02, 0
NKF2, 38995756, 0, 0, 0, 0, 0, 0, 0, 0, 0, 0, 0, 0, 0
NKF3, 38995756, 0, 0, 0, 0.04, 0, -0.01, 0, 0, 0, 0, 0
NKF4, 38995756, 0, 0, 0, 0, 0, 9.632787E-07, 0, 0, 0, 19, 229, 0, 0
NKF5, 38995756, 0, 0, 0, 0, 0.21, 0.13, 0, 0.19, 0.5, 3.795375E-05, 0.0004114044, 0.001069722
NKQ1, 38995756, 0.9999417, 0.00135855, 0.01058414, 0.001655975
AHR2, 38995801, 0.12, -0.35, 0.2, 0.13, 0, 0, 0.9999931, 0.001088666, -0.003066296, 0.001763912
MOTB, 38995809, 1, 1, 0, 1
RCIN, 38995813, 0, 0, 0, 0, 0, 0, 0, 0, 0, 0, 0, 0, 0, 0
RCOU, 38995818, 1101, 1101, 1101, 1101, 0, 0, 0, 0, 0, 0, 0, 0, 0, 0
VIBE, 38995827, 0.0196386, 0.01738393, 0.03406218, 0, 0, 0
CTRL, 38995834, 0.001296643, 0.0001682556, 0.003068991, 0.0002412828, 5.868047E-05
PRX, 38995865, 2, 0.62, 0, 0.66, 0, 3.6, 0, 2.36, 0, 0, 0, 0.62
IMU, 39016014, 0.001863779, -7.932886E-05, 0.0009516584, 0.2219332, -0.01916574, -9.815751, 0, 0, 36.35184, 1, 1, 1000, 1000
RFND, 39042822, 0.2, 25, 0, 0
IMU, 39055735, 0.000534606, -0.002069956, 0.0005340984, 0.219993, -0.01484747, -9.842428, 0, 0, 36.35249, 1, 1, 1000, 1000
MAG, 39092770, 396, 515, 374, 0, 0, 0, 0, 0, 0, 1, 39092762
RFND, 39092805, 0.2, 25, 0, 0
BARO, 39092894, 0.2110555, 993.6035, 34.33, -0.1160835, 39092, 0, 33.73
CTUN, 39092909, 0, 0, 0, 0.3194353, 0.08928104, 0.08928104, 0.21, 0, 0.19, 0, 0, 1
ATT, 39095716, 0, 0.12, 0, -0.29, 0.19, 0.19, 0, 1
RATE, 39095728, -0.5579509, 0.003611758, -0.001259482, 1.31948, -0.1545134, 0.004013893, -0.0007542409, -0.02433771, -3.145209E-05, -667.814, -1.091576, 0
NKF1, 39095736, 0.12, -0.29, 0.19, 0.03777745, 0.008490706, -0.01648924, 0, 0, 0, -0.08923148, 0, -0.02, 0
NKF2, 39095736, 0, 0, 0, 0, 0, 0, 0, 0, 0, 0, 0, 0, 0
NKF3, 39095736, 0, 0, 0, 0.04, 0, -0.01, 0, 0, 0, 0, 0
NKF4, 39095736, 0, 0, 0, 0, 0, 1.088057E-06, 0, 0, 0, 19, 229, 0, 0
NKF5, 39095736, 0, 0, 0, 0, 0.21, 0.13, 0, 0.19, 0.5, 3.762191E-05, 0.0001452641, 0.0003403746
NKQ1, 39095736, 0.9999421, 0.001379438, 0.01053949, 0.001675365
AHR2, 39095778, 0.12, -0.35, 0.2, 0.21, 0, 0, 0.999993, 0.001106306, -0.003102398, 0.001783444
MOTB, 39095786, 1, 1, 0, 1
RCIN, 39095791, 0, 0, 0, 0, 0, 0, 0, 0, 0, 0, 0, 0, 0, 0
RCOU, 39095796, 1101, 1101, 1101, 1101, 0, 0, 0, 0, 0, 0, 0, 0, 0, 0
VIBE, 39095805, 0.02225639, 0.0178285, 0.03648533, 0, 0, 0
CTRL, 39095811, 0.001327808, 0.000165434, 0.003089047, 0.0002617802, 5.404767E-05
PRX, 39095842, 2, 0.62, 0, 0.66, 0, 3.6, 0, 2.37, 0, 0, 0, 0.62
IMU, 39095849, 4.937727E-05, -0.003165067, -0.0004153501, 0.2291395, -0.02476381, -9.79362, 0, 0, 36.35305, 1, 1, 1000, 1000
IMU, 39135538, -6.622059E-05, -0.002114679, -0.0001547796, 0.222084, -0.0364029, -9.795691, 0, 0, 36.35344, 1, 1, 1000, 1000
RFND, 39142762, 0.2, 25, 0, 0
IMU, 39175548, 0.000306347, 0.0002921593, -0.0001968403, 0.2297085, -0.02119597, -9.815282, 0, 0, 36.35342, 1, 1, 1000, 1000
MAG, 39192792, 397, 521, 367, 0, 0, 0, 0, 0, 0, 1, 39192784
RFND, 39192827, 0.2, 25, 0, 0
BARO, 39192859, 0.2532666, 993.5988, 34.33, 0.1703627, 39192, 0, 33.73
CTUN, 39192871, 0, 0, 0, 0.3194353, 0.08933631, 0.08933631, 0.25, 0, 0.19, 0, 0, 1
ATT, 39195697, 0, 0.12, 0, -0.29, 0.19, 0.19, 0, 1
RATE, 39195723, -0.5673562, 0.03505151, -0.001427232, 1.330467, 0.007103375, 0.003203409, -0.002229341, -0.007360528, -4.74004E-05, -649.5847, -0.411129, 0
NKF1, 39195732, 0.12, -0.29, 0.19, 0.03963121, 0.008924413, -0.01603913, 0, 0, 0, -0.08922908, 0, -0.02, 0
NKF2, 39195732, 0, 0, 0, 0, 0, 0, 0, 0, 0, 0, 0, 0, 0
NKF3, 39195732, 0, 0, 0, 0.04, 0, -0.01, 0, 0, 0, 0, 0
NKF4, 39195732, 0, 0, 0, 0, 0, 1.269753E-06, 0, 0, 0, 19, 229, 0, 0
NKF5, 39195732, 0, 0, 0, 0, 0.21, 0.13, 0, 0.19, 0.5, 3.817372E-05, 0.0002931147, 0.0007615284
NKQ1, 39195732, 0.9999423, 0.00139892, 0.01051544, 0.001694
AHR2, 39195776, 0.12, -0.35, 0.2, 0.25, 0, 0, 0.9999929, 0.001122562, -0.003117474, 0.001802245
MOTB, 39195783, 1, 1, 0, 1
RCIN, 39195788, 0, 0, 0, 0, 0, 0, 0, 0, 0, 0, 0, 0, 0, 0
RCOU, 39195794, 1101, 1101, 1101, 1101, 0, 0, 0, 0, 0, 0, 0, 0, 0, 0
VIBE, 39195803, 0.01992803, 0.01754831, 0.03455814, 0, 0, 0
CTRL, 39195809, 0.001344009, 0.0001561999, 0.003136231, 0.0002528303, 5.631747E-05
PRX, 39195980, 2, 0.62, 0, 0.66, 0, 3.6, 0, 2.37, 0, 0, 0, 0.62
IMU, 39215728, 0.0003891645, -0.003563962, 0.00051835, 0.2201347, -0.03134799, -9.794686, 0, 0, 36.35332, 1, 1, 1000, 1000
RFND, 39242849, 0.2, 25, 0, 0
IMU, 39255773, 0.001823804, -0.001649281, -0.000488069, 0.2215597, -0.01308152, -9.805292, 0, 0, 36.35332, 1, 1, 1000, 1000
EV, 39270062, 57
MAG, 39292892, 389, 521, 369, 0, 0, 0, 0, 0, 0, 1, 39292883
RFND, 39292927, 0.2, 25, 0, 0
BARO, 39292958, 0.2982918, 993.5937, 34.33, 0.4453179, 39292, 0, 33.73
CTUN, 39292970, 0, 0, 0, 0.3194353, 0.08960583, 0.08960583, 0.29, 0, 0.19, 0, 0, 1
ATT, 39297817, 0, 0.12, 0, -0.3, 0.19, 0.19, 0, 1
RATE, 39297831, -0.5762318, -0.03843155, -0.0009360687, 1.35331, 0.03299064, 0.00300552, -0.001512764, 0.05066432, -4.040655E-05, -631.8702, 0.6502151, 0
NKF1, 39297840, 0.12, -0.3, 0.19, 0.04093579, 0.009619551, -0.01560174, 0, 0, 0, -0.08943316, 0, -0.02, 0
NKF2, 39297840, 0, 0, 0, 0, 0, 0, 0, 0, 0, 0, 0, 0, 0
NKF3, 39297840, 0, 0, 0, 0.05, 0.01, -0.01, 0, 0, 0, 0, 0
NKF4, 39297840, 0, 0, 0, 0, 0, 1.415353E-06, 0, 0, 0, 19, 229, 0, 0
NKF5, 39297840, 0, 0, 0, 0, 0.21, 0.13, 0, 0.19, 0.5, 3.861625E-05, 0.0007735521, 0.001950845
NKQ1, 39297840, 0.9999428, 0.00141565, 0.01047387, 0.00170386
AHR2, 39297893, 0.12, -0.36, 0.2, 0.29, 0, 0, 0.9999928, 0.001135959, -0.00314678, 0.001812295
MOTB, 39297902, 1, 1, 0, 1
RCIN, 39297906, 0, 0, 0, 0, 0, 0, 0, 0, 0, 0, 0, 0, 0, 0
RCOU, 39297911, 1106, 1106, 1106, 1106, 0, 0, 0, 0, 0, 0, 0, 0, 0, 0
VIBE, 39297920, 0.01883056, 0.01906616, 0.03844921, 0, 0, 0
CTRL, 39297927, 0.00137999, 0.0001787759, 0.003191201, 0.0002875027, 4.942348E-05
PRX, 39297958, 2, 0.62, 0, 0.66, 0, 0.68, 0, 2.36, 0, 0, 0, 0.62
IMU, 39297965, -0.0006844362, 0.0001058464, 0.0008937059, 0.2237628, -0.02133094, -9.811234, 0, 0, 36.35332, 1, 1, 1000, 1000
IMU, 39336120, 0.0004803696, -0.000265895, 0.00048111, 0.2240694, -0.01958489, -9.7927, 0, 0, 36.35332, 1, 1, 1000, 1000
RFND, 39343273, 0.2, 25, 0, 0
IMU, 39375951, -0.0002159412, -0.0009323064, -0.0002934855, 0.2138593, -0.01869452, -9.812497, 0, 0, 36.35332, 1, 1, 1000, 1000
MAG, 39393359, 391, 520, 370, 0, 0, 0, 0, 0, 0, 1, 39393351
RFND, 39393391, 0.2, 25, 0, 0
BARO, 39393422, 0.2926637, 993.5944, 34.33, 0.5145354, 39393, 0, 33.73
CTUN, 39393435, 0, 0, 0, 0.3194353, 0.089412, 0.089412, 0.29, 0, 0.19, 0, 0, 1
ATT, 39396030, 0, 0.12, 0, -0.3, 0.19, 0.19, 0, 1
RATE, 39396039, -0.5725731, 0.01070072, -0.001517304, 1.366531, -0.02147945, 0.003257808, -0.001515502, 0.004501788, -1.707211E-05, -620.6431, 0.6654739, 0
NKF1, 39396047, 0.12, -0.3, 0.19, 0.04228196, 0.0105543, -0.01532452, 0, 0, 0, -0.0893001, 0, -0.02, 0
NKF2, 39396047, 0, 0, 0, 0, 0, 0, 0, 0, 0, 0, 0, 0, 0
NKF3, 39396047, 0, 0, 0, 0.05, 0.01, -0.01, 0, 0, 0, 0, 0
NKF4, 39396047, 0, 0, 0, 0, 0, 1.652574E-06, 0, 0, 0, 19, 229, 0, 0
NKF5, 39396047, 0, 0, 0, 0, 0.21, 0.13, 0, 0.19, 0.5, 3.847015E-05, 0.0001645498, 0.0004090323
NKQ1, 39396047, 0.999943, 0.001407336, 0.01044981, 0.001707159
AHR2, 39396088, 0.12, -0.36, 0.2, 0.29, 0, 0, 0.9999927, 0.001123815, -0.003159751, 0.001816109
MOTB, 39396094, 1, 1, 0, 1
RCIN, 39396099, 0, 0, 0, 0, 0, 0, 0, 0, 0, 0, 0, 0, 0, 0
RCOU, 39396104, 1130, 1130, 1130, 1130, 0, 0, 0, 0, 0, 0, 0, 0, 0, 0
VIBE, 39396113, 0.02200428, 0.02003683, 0.0345955, 0, 0, 0
CTRL, 39396120, 0.001357593, 0.0001880084, 0.003214236, 0.0002470531, 5.122116E-05
PRX, 39396231, 2, 0.62, 0, 0.66, 0, 0.68, 0, 2.37, 0, 0, 0, 0.62
IMU, 39416460, 0.0003427478, -0.001557746, 0.0007431362, 0.2225133, -0.03212892, -9.805036, 0, 0, 36.35332, 1, 1, 1000, 1000
RFND, 39443654, 0.2, 25, 0, 0
IMU, 39455952, -0.0006575812, -0.0001474974, 0.001296381, 0.2254257, -0.02510725, -9.78342, 0, 0, 36.35332, 1, 1, 1000, 1000
MAG, 39493376, 390, 519, 367, 0, 0, 0, 0, 0, 0, 1, 39493367
RFND, 39493411, 0.2, 25, 0, 0
BARO, 39493441, 0.3095481, 993.5927, 34.33, 0.4010437, 39493, 0, 33.73
CTUN, 39493454, 0, 0, 0, 0.3194353, 0.08946047, 0.08946047, 0.3, 0, 0.19, 0, 0, 1
ATT, 39496074, 0, 0.12, 0, -0.3, 0.19, 0.2, 0, 1
RATE, 39496086, -0.5638238, 0.04648084, -0.001805206, 1.370163, -0.05195785, 0.003540675, -0.00149879, 0.05068355, -7.088539E-05, -569.8374, -0.1803398, 0
NKF1, 39496094, 0.12, -0.3, 0.2, 0.04401545, 0.01074846, -0.01407006, 0, 0, 0, -0.08931322, 0, -0.02, 0
NKF2, 39496094, 0, 0, 0, 0, 0, 0, 0, 0, 0, 0, 0, 0, 0
NKF3, 39496094, 0, 0, 0, 0.06, 0.01, -0.01, 0, 0, 0, 0, 0
NKF4, 39496094, 0, 0, 0, 0, 0, 1.849762E-06, 0, 0, 0, 19, 229, 0, 0
NKF5, 39496094, 0, 0, 0, 0, 0.21, 0.13, 0, 0.19, 0.5, 3.884297E-05, 0.0006174308, 0.001554543
NKQ1, 39496094, 0.9999431, 0.001391224, 0.0104413, 0.001738162
AHR2, 39496139, 0.12, -0.36, 0.21, 0.3, 0, 0, 0.9999927, 0.00110126, -0.003158451, 0.001847734
MOTB, 39496231, 1, 1, 0, 1
RCIN, 39496237, 0, 0, 0, 0, 0, 0, 0, 0, 0, 0, 0, 0, 0, 0
RCOU, 39496242, 1154, 1154, 1154, 1154, 0, 0, 0, 0, 0, 0, 0, 0, 0, 0
VIBE, 39496251, 0.02118631, 0.02145789, 0.02997628, 0, 0, 0
CTRL, 39496257, 0.001337821, 0.0001845583, 0.003223595, 0.0002445113, 5.703287E-05
PRX, 39496288, 2, 0.62, 0, 0.66, 0, 3.6, 0, 2.37, 0, 0, 0, 0.62
IMU, 39496296, 0.0007975711, -0.001377259, 0.0008940448, 0.2225064, -0.02331796, -9.802981, 0, 0, 36.35316, 1, 1, 1000, 1000
IMU, 39536539, -0.0003713757, -0.001270942, 0.0007149646, 0.2446239, -0.02015985, -9.805315, 0, 0, 36.35316, 1, 1, 1000, 1000
RFND, 39543362, 0.2, 25, 0, 0
IMU, 39576831, 0.0001270055, -0.0006161934, -0.00115308, 0.2087664, -0.0214548, -9.78837, 0, 0, 36.35316, 1, 1, 1000, 1000
MAG, 39593377, 389, 518, 367, 0, 0, 0, 0, 0, 0, 1, 39593369
RFND, 39593413, 0.2, 25, 0, 0
BARO, 39593443, 0.30392, 993.593, 34.34, 0.2358585, 39593, 0, 33.73
CTUN, 39593455, 0, 0, 0, 0.3194353, 0.08924291, 0.08924291, 0.3, 0, 0.19, 0, 0, 1
ATT, 39596091, 0, 0.12, 0, -0.3, 0.19, 0.2, 0, 1
RATE, 39596104, -0.5567022, 0.003774926, -0.001274897, 1.378841, -0.044092, 0.003217456, -0.001488097, -0.0516519, 2.687976E-05, -574.3689, 2.843189, 0
NKF1, 39596111, 0.12, -0.3, 0.2, 0.04657473, 0.0110793, -0.01418195, 0, 0, 0, -0.08915348, 0, -0.02, 0
NKF2, 39596111, 0, 0, 0, 0, 0, 0, 0, 0, 0, 0, 0, 0, 0
NKF3, 39596111, 0, 0, 0, 0.06, 0.01, -0.01, 0, 0, 0, 0, 0
NKF4, 39596111, 0, 0, 0, 0, 0, 2.118659E-06, 0, 0, 0, 19, 229, 0, 0
NKF5, 39596111, 0, 0, 0, 0, 0.21, 0.13, 0, 0.19, 0.5, 3.854379E-05, 0.0001084815, 0.0001954187
NKQ1, 39596111, 0.9999433, 0.001376334, 0.01042426, 0.001732429
AHR2, 39596239, 0.12, -0.36, 0.21, 0.3, 0, 0, 0.9999927, 0.001080103, -0.003165245, 0.001842605
MOTB, 39596247, 1, 1, 0, 1
RCIN, 39596253, 0, 0, 0, 0, 0, 0, 0, 0, 0, 0, 0, 0, 0, 0
RCOU, 39596258, 1178, 1178, 1178, 1178, 0, 0, 0, 0, 0, 0, 0, 0, 0, 0
VIBE, 39596266, 0.02775092, 0.02286784, 0.03797847, 0, 0, 0
CTRL, 39596273, 0.001325849, 0.0001609463, 0.003251677, 0.0002367782, 6.984355E-05
PRX, 39596304, 2, 0.63, 0, 0.66, 0, 3.6, 0, 2.36, 0, 0, 0, 0.63
IMU, 39616230, -0.000185824, -6.483244E-05, 0.0006937131, 0.2210374, -0.02180612, -9.815557, 0, 0, 36.35316, 1, 1, 1000, 1000
RFND, 39643464, 0.2, 25, 0, 0
IMU, 39656445, 0.002064723, -0.0010623, -0.004164547, 0.2123628, 0.03232999, -9.803768, 0, 0, 36.35316, 1, 1, 1000, 1000
MAG, 39693305, 395, 518, 370, 0, 0, 0, 0, 0, 0, 1, 39693297
RFND, 39693338, 0.2, 25, 0, 0
BARO, 39693369, 0.3320607, 993.59, 34.34, 0.1184104, 39693, 0, 33.73
CTUN, 39693381, 0, 0, 0, 0.3194353, 0.08919977, 0.08919977, 0.33, 0, 0.19, 0, 0, 1
ATT, 39696008, 0, 0.12, 0, -0.28, 0.21, 0.22, 0, 1
RATE, 39696017, -0.5551437, 0.05208744, -0.002495452, 1.290264, 0.4501049, 0.001022269, -0.001379655, -0.970224, -0.001316961, -576.1047, 0.5163193, 0
NKF1, 39696025, 0.12, -0.28, 0.22, 0.04978342, 0.01104278, -0.01422481, 0, 0, 0, -0.08905161, 0, -0.02, 0
NKF2, 39696025, 0, 0, 0, 0, 0, 0, 0, 0, 0, 0, 0, 0, 0
NKF3, 39696025, 0, 0, 0, 0.06, 0.01, -0.01, 0, 0, 0, 0, 0
NKF4, 39696025, 0, 0, 0, 0, 0, 2.392814E-06, 0, 0, 0, 19, 229, 0, 0
NKF5, 39696025, 0, 0, 0, 0, 0.21, 0.13, 0, 0.19, 0.5, 3.932053E-05, 0.000489998, 0.001233358
NKQ1, 39696025, 0.9999412, 0.001362481, 0.01059188, 0.001915022
AHR2, 39696069, 0.12, -0.34, 0.23, 0.33, 0, 0, 0.9999929, 0.001066725, -0.002983045, 0.002025815
MOTB, 39696077, 1, 1, 0, 1
RCIN, 39696081, 0, 0, 0, 0, 0, 0, 0, 0, 0, 0, 0, 0, 0, 0
RCOU, 39696086, 1202, 1202, 1202, 1202, 0, 0, 0, 0, 0, 0, 0, 0, 0, 0
VIBE, 39696095, 0.1987201, 0.209038, 0.270235, 0, 0, 0
CTRL, 39696102, 0.001302806, 0.000376918, 0.003149365, 0.0004863453, 0.0004996434
PRX, 39696133, 2, 0.62, 0, 0.66, 0, 3.6, 0, 2.37, 0, 0, 0, 0.62
IMU, 39696219, 0.0008954238, 0.007384492, -0.01692414, 0.4103851, -0.07444455, -9.805857, 0, 0, 36.35316, 1, 1, 1000, 1000
IMU, 39736409, -0.0009988332, 0.003480668, 0.0002045161, 0.1934045, -0.0686983, -9.791437, 0, 0, 36.35316, 1, 1, 1000, 1000
RFND, 39743336, 0.2, 25, 0, 0
IMU, 39775973, 0.006326404, -0.004480647, -0.008754849, 0.2318668, -0.0519648, -9.802421, 0, 0, 36.35323, 1, 1, 1000, 1000
MAG, 39793298, 391, 523, 367, 0, 0, 0, 0, 0, 0, 1, 39793290
RFND, 39793330, 0.2, 25, 0, 0
BARO, 39793360, 0.2532666, 993.5988, 34.34, 0.05969383, 39793, 0, 33.73
CTUN, 39793372, 0, 0, 0, 0.3194353, 0.08907267, 0.08907267, 0.25, 0, 0.19, 0, 0, 1
ATT, 39795989, 0, 0.12, 0, -0.28, 0.2, 0.2, 0, 1
RATE, 39795998, -0.5454793, -0.2347361, 0.00122107, 1.263337, 0.3183119, 0.0006490432, -0.001329923, -1.009837, 0.0006448093, -568.5786, -0.9177208, 0
NKF1, 39796005, 0.12, -0.28, 0.2, 0.0508424, 0.01155098, -0.01403898, 0, 0, 0, -0.08899058, 0, -0.02, 0
NKF2, 39796005, 0, 0, 0, 0, 0, 0, 0, 0, 0, 0, 0, 0, 0
NKF3, 39796005, 0, 0, 0, 0.06, 0.01, -0.01, 0, 0, 0, 0, 0
NKF4, 39796005, 0, 0, 0, 0, 0, 2.684288E-06, 0, 0, 0, 19, 229, 0, 0
NKF5, 39796005, 0, 0, 0, 0, 0.21, 0.13, 0, 0.19, 0.5, 3.875017E-05, 0.0001439339, 0.0002712896
NKQ1, 39796005, 0.999941, 0.001346112, 0.01064087, 0.001783836
AHR2, 39796048, 0.11, -0.33, 0.21, 0.25, 0, 0, 0.9999934, 0.001046036, -0.002920217, 0.001895267
MOTB, 39796055, 1, 1, 0, 1
RCIN, 39796060, 0, 0, 0, 0, 0, 0, 0, 0, 0, 0, 0, 0, 0, 0
RCOU, 39796065, 1223, 1224, 1224, 1221, 0, 0, 0, 0, 0, 0, 0, 0, 0, 0
VIBE, 39796073, 0.3034419, 0.4051394, 0.4318901, 0, 0, 0
CTRL, 39796079, 0.001364543, 0.0007288901, 0.003058471, 0.0007922925, 0.0005278452
PRX, 39796269, 2, 0.62, 0, 0.66, 0, 3.6, 0, 2.36, 0, 0, 0, 0.62
IMU, 39816044, -0.0038602, 0.003346503, 0.01516574, 0.2368619, -0.02010766, -9.822172, 0, 0, 36.35337, 1, 1, 1000, 1000
RFND, 39843355, 0.2, 25, 0, 0
IMU, 39856088, -0.004069728, 0.003587421, 0.01749612, 0.2146094, 0.03050334, -9.82182, 0, 0, 36.35362, 1, 1, 1000, 1000
MAG, 39893368, 395, 519, 374, 0, 0, 0, 0, 0, 0, 1, 39893360
RFND, 39893404, 0.2, 25, 0, 0
BARO, 39893435, 0.267337, 993.5972, 34.34, -0.02372761, 39893, 0, 33.73
CTUN, 39893447, 0, 0, 0, 0.3194353, 0.08881143, 0.08881143, 0.26, 0, 0.19, 0, 0, 1
DU32, 39893468, 7, 33611992
ATT, 39896157, 0, 0.12, 0, -0.26, 0.16, 0.17, 0, 1
RATE, 39896167, -0.5828467, 0.5709133, -0.00376117, 1.20444, -0.07521769, 0.005764464, -0.001346325, -1.646649, 0.001603507, -572.82, 2.018452, 0
NKF1, 39896174, 0.12, -0.26, 0.17, 0.05233201, 0.0120173, -0.0141437, 0, 0, 0, -0.08867856, 0, -0.02, 0
NKF2, 39896174, 0, 0, 0, 0, 0, 0, 0, 0, 0, 0, 0, 0, 0
NKF3, 39896174, 0, 0, 0, 0.07, 0.01, -0.01, 0, 0, 0, 0, 0
NKF4, 39896174, 0, 0, 0, 0, 0, 3.047253E-06, 0, 0, 0, 19, 229, 0, 0
NKF5, 39896174, 0, 0, 0, 0, 0.21, 0.13, 0, 0.19, 0.5, 3.98333E-05, 0.0003362207, 0.0008398973
NKQ1, 39896174, 0.9999401, 0.001414767, 0.0107553, 0.001487392
AHR2, 39896299, 0.12, -0.32, 0.18, 0.26, 0, 0, 0.9999942, 0.001100588, -0.002798859, 0.001598445
MOTB, 39896307, 1, 1, 0, 1
RCIN, 39896312, 0, 0, 0, 0, 0, 0, 0, 0, 0, 0, 0, 0, 0, 0
RCOU, 39896317, 1237, 1221, 1228, 1224, 0, 0, 0, 0, 0, 0, 0, 0, 0, 0
VIBE, 39896325, 0.4276081, 0.3852702, 0.6217861, 0, 0, 0
CTRL, 39896332, 0.001442624, 0.001178786, 0.002893183, 0.0009282093, 0.0005520838
PRX, 39896364, 2, 0.62, 0, 0.65, 0, 3.6, 0, 2.38, 0, 0, 0, 0.62
IMU, 39896372, 0.009950653, -0.001784901, -0.02872999, 0.2355539, -0.04796277, -9.82468, 0, 0, 36.35408, 1, 1, 1000, 1000
IMU, 39936391, 0.003341442, 0.002820558, -0.01227222, 0.2364239, -0.03518543, -9.766023, 0, 0, 36.35451, 1, 1, 1000, 1000
RFND, 39943449, 0.2, 25, 0, 0
IMU, 39976061, -0.01087778, -0.00015404, 0.006497175, 0.2000913, -0.02886632, -9.811172, 0, 0, 36.35505, 1, 1, 1000, 1000
MAG, 39993365, 395, 521, 372, 0, 0, 0, 0, 0, 0, 1, 39993357
RFND, 39993399, 0.2, 25, 0, 0
BARO, 39993535, 0.2645229, 993.5975, 34.35, -0.1407037, 39993, 0, 33.73
CTUN, 39993550, 0, 0, 0, 0.3194353, 0.08882299, 0.08882299, 0.26, 0, 0.19, 0, 0, 1
ATT, 39996149, 0, 0.12, 0, -0.24, 0.19, 0.19, 0, 1
RATE, 39996158, -0.5577944, 0.3448537, -0.005077371, 1.12108, 0.2969969, 0.0007904004, -0.00121822, 0.3222655, -7.560201E-05, -578.1915, 2.165031, 0
NKF1, 39996165, 0.12, -0.24, 0.19, 0.05456395, 0.01337065, -0.01427633, 0, 0, 0, -0.08864443, 0, -0.02, 0
NKF2, 39996165, 0, 0, 0, 0, 0, 0, 0, 0, 0, 0, 0, 0, 0
NKF3, 39996165, 0, 0, 0, 0.08, 0.01, -0.01, 0, 0, 0, 0, 0
NKF4, 39996165, 0, 0, 0, 0, 0, 3.347961E-06, 0, 0, 0, 19, 229, 0, 0
NKF5, 39996165, 0, 0, 0, 0, 0.21, 0.13, 0, 0.19, 0.5, 4.136845E-05, 0.0008026994, 0.00203312
NKQ1, 39996165, 0.999938, 0.001382982, 0.01092177, 0.001723371
AHR2, 39996209, 0.12, -0.3, 0.2, 0.26, 0, 0, 0.9999943, 0.001059757, -0.002626737, 0.001835296
MOTB, 39996215, 1, 1, 0, 1
RCIN, 39996220, 0, 0, 0, 0, 0, 0, 0, 0, 0, 0, 0, 0, 0, 0
RCOU, 39996225, 1231, 1221, 1222, 1230, 0, 0, 0, 0, 0, 0, 0, 0, 0, 0
VIBE, 39996310, 0.3693571, 0.3684867, 0.4929754, 0, 0, 0
CTRL, 39996318, 0.001491484, 0.001686108, 0.00276859, 0.001018511, 0.000590148
PRX, 39996350, 2, 0.62, 0, 0.66, 0, 3.6, 0, 2.37, 0, 0, 0, 0.62
IMU, 40016026, 0.00397261, -0.007103477, -0.000741872, 0.1053778, -0.0261191, -9.769116, 0, 0, 36.35568, 1, 1, 1000, 1000
RFND, 40043312, 0.2, 25, 0, 0
IMU, 40055970, 0.0001292707, 0.005167175, 0.01379793, 0.08632322, 0.06102128, -9.817923, 0, 0, 36.35645, 1, 1, 1000, 1000
MAG, 40093367, 390, 518, 367, 0, 0, 0, 0, 0, 0, 1, 40093360
RFND, 40093760, 0.2, 25, 0, 0
BARO, 40093799, 0.2335681, 993.601, 34.35, -0.1741208, 40093, 0, 33.73
CTUN, 40093815, 0, 0, 0, 0.3194353, 0.08843483, 0.08843483, 0.23, 0, 0.19, 0, 0, 1
ATT, 40096185, 0, 0.12, 0, -0.22, 0.23, 0.24, 0, 1
RATE, 40096196, -0.5533813, -0.5954201, 0.002663094, 1.023361, 0.4679977, 0.0005936153, -0.00110011, 0.2730944, -0.00173704, -519.7226, -3.753757, 0
NKF1, 40096203, 0.12, -0.22, 0.24, 0.05420213, 0.01203762, -0.01283266, 0, 0, 0, -0.08831811, 0, -0.02, 0
NKF2, 40096203, 0, 0, 0, 0, 0, 0, 0, 0, 0, 0, 0, 0, 0
NKF3, 40096203, 0, 0, 0, 0.08, 0.01, -0.01, 0, 0, 0, 0, 0
NKF4, 40096203, 0, 0, 0, 0, 0, 3.810442E-06, 0, 0, 0, 19, 229, 0, 0
NKF5, 40096203, 0, 0, 0, 0, 0.21, 0.13, 0, 0.19, 0.5, 4.047386E-05, 0.0002293422, 0.0005485537
NKQ1, 40096203, 0.9999352, 0.001368465, 0.01111359, 0.002093774
AHR2, 40096321, 0.11, -0.28, 0.25, 0.23, 0, 0, 0.9999941, 0.00101712, -0.0024433, 0.0022064
MOTB, 40096328, 1, 1, 0, 1
RCIN, 40096333, 0, 0, 0, 0, 0, 0, 0, 0, 0, 0, 0, 0, 0, 0
RCOU, 40096338, 1221, 1224, 1228, 1223, 0, 0, 0, 0, 0, 0, 0, 0, 0, 0
VIBE, 40096346, 0.436495, 0.4467689, 0.4956642, 0, 0, 0
CTRL, 40096353, 0.001540335, 0.001671018, 0.002610023, 0.001241449, 0.0007327864
PRX, 40096384, 2, 0.62, 0, 0.66, 0, 3.6, 0, 2.36, 0, 0, 0, 0.62
IMU, 40096390, -0.01040571, 0.007694458, 0.004775883, 0.2358153, -0.1160564, -9.766768, 0, 0, 36.35725, 1, 1, 1000, 1000
IMU, 40136095, -0.0007610139, -0.01275599, 0.01377703, 0.03367023, -0.01414817, -9.78733, 0, 0, 36.35792, 1, 1, 1000, 1000
RFND, 40144880, 0.2, 25, 0, 0
IMU, 40176168, 0.00518016, -0.006885952, -0.0008395596, 0.1767329, -0.06278792, -9.822367, 0, 0, 36.3581, 1, 1, 1000, 1000
MAG, 40193376, 389, 520, 370, 0, 0, 0, 0, 0, 0, 1, 40193368
RFND, 40193411, 0.2, 25, 0, 0
BARO, 40193440, 0.2785933, 993.5959, 34.35, -0.1134423, 40193, 0, 33.73
CTUN, 40193454, 0, 0, 0, 0.3194353, 0.08834805, 0.08834805, 0.27, 0, 0.19, 0, 0, 1
ATT, 40196755, 0, 0.12, 0, -0.23, 0.22, 0.23, 0, 1
RATE, 40196766, -0.5782658, -0.2941181, 0.001821719, 1.036677, -0.09595411, 0.002363001, -0.001161895, 0.04326772, 0.0001893729, -504.7277, 0.8414268, 0
NKF1, 40196773, 0.12, -0.23, 0.23, 0.05571115, 0.01281993, -0.01246241, 0, 0, 0, -0.08818705, 0, -0.02, 0
NKF2, 40196773, 0, 0, 0, 0, 0, 0, 0, 0, 0, 0, 0, 0, 0
NKF3, 40196773, 0, 0, 0, 0.09, 0.01, -0.01, 0, 0, 0, 0, 0
NKF4, 40196773, 0, 0, 0, 0, 0, 4.193539E-06, 0, 0, 0, 19, 229, 0, 0
NKF5, 40196773, 0, 0, 0, 0, 0.21, 0.13, 0, 0.19, 0.5, 4.235647E-05, 0.0006449647, 0.001629845
NKQ1, 40196773, 0.9999356, 0.001415474, 0.01108787, 0.002001757
AHR2, 40196817, 0.11, -0.28, 0.24, 0.27, 0, 0, 0.9999942, 0.001032644, -0.002477105, 0.002114297
MOTB, 40196824, 1, 1, 0, 1
RCIN, 40196828, 0, 0, 0, 0, 0, 0, 0, 0, 0, 0, 0, 0, 0, 0
RCOU, 40196834, 1225, 1224, 1228, 1221, 0, 0, 0, 0, 0, 0, 0, 0, 0, 0
VIBE, 40196842, 0.4493657, 0.4482681, 0.5215266, 0, 0, 0
CTRL, 40196849, 0.001609109, 0.00163322, 0.00259193, 0.001554906, 0.0006842455
PRX, 40196879, 2, 0.62, 0, 0.66, 0, 3.6, 0, 2.37, 0, 0, 0, 0.62
IMU, 40216069, -0.0004805945, 0.005274292, -0.01452531, 0.3910286, -0.0430599, -9.789537, 0, 0, 36.35754, 1, 1, 1000, 1000
RFND, 40243445, 0.2, 25, 0, 0
IMU, 40256074, -0.001988695, -0.001234734, -0.01932535, 0.3814547, -0.02184453, -9.773381, 0, 0, 36.35788, 1, 1, 1000, 1000
MAG, 40294217, 393, 525, 371, 0, 0, 0, 0, 0, 0, 1, 40294209
RFND, 40294322, 0.2, 25, 0, 0
BARO, 40294355, 0.2757792, 993.5963, 34.35, -0.03866426, 40294, 0, 33.73
CTUN, 40294368, 0, 0, 0, 0.3194353, 0.08795244, 0.08795244, 0.27, 0, 0.19, 0, 0, 1
ATT, 40296637, 0, 0.13, 0, -0.23, 0.22, 0.22, 0, 1
RATE, 40296648, -0.6058908, 0.09900948, -0.002180623, 1.062715, -0.2902171, 0.00508271, -0.001250318, 0.756479, 0.0002787145, -468.883, 0.7135391, 0
NKF1, 40296656, 0.13, -0.23, 0.22, 0.05655301, 0.01450514, -0.01157736, 0, 0, 0, -0.08784585, 0, -0.02, 0
NKF2, 40296656, 0, 0, 0, 0, 0, 0, 0, 0, 0, 0, 0, 0, 0
NKF3, 40296656, 0, 0, 0, 0.09, 0.01, -0.01, 0, 0, 0, 0, 0
NKF4, 40296656, 0, 0, 0, 0, 0, 4.696022E-06, 0, 0, 0, 19, 229, 0, 0
NKF5, 40296656, 0, 0, 0, 0, 0.21, 0.13, 0, 0.19, 0.5, 4.128075E-05, 0.0002373427, 0.0005888006
NKQ1, 40296656, 0.999936, 0.001474545, 0.01104188, 0.001969697
AHR2, 40296731, 0.12, -0.28, 0.23, 0.27, 0, 0, 0.999994, 0.001092206, -0.002524097, 0.002081886
MOTB, 40296740, 1, 1, 0, 1
RCIN, 40296745, 0, 0, 0, 0, 0, 0, 0, 0, 0, 0, 0, 0, 0, 0
RCOU, 40296750, 1233, 1221, 1229, 1224, 0, 0, 0, 0, 0, 0, 0, 0, 0, 0
VIBE, 40296759, 0.4382559, 0.4152378, 0.5298924, 0, 0, 0
CTRL, 40296766, 0.001565697, 0.001432973, 0.002542706, 0.001457026, 0.0005820622
PRX, 40296798, 2, 0.62, 0, 0.65, 0, 0.67, 0, 2.39, 0, 0, 0, 0.62
IMU, 40296804, 0.001714452, -0.005537557, 0.0132125, 0.109249, -0.01550724, -9.814561, 0, 0, 36.35833, 1, 1, 1000, 1000
IMU, 40336120, 0.004731623, 0.006051397, 0.0135624, 0.1752535, 0.00657292, -9.78004, 0, 0, 36.35852, 1, 1, 1000, 1000
RFND, 40343481, 0.2, 25, 0, 0
IMU, 40376119, 0.003141362, -0.001854704, -0.01025247, 0.3644341, -0.03624908, -9.802145, 0, 0, 36.35873, 1, 1, 1000, 1000
MAG, 40393444, 389, 524, 369, 0, 0, 0, 0, 0, 0, 1, 40393436
RFND, 40393479, 0.2, 25, 0, 0
BARO, 40393509, 0.2785933, 993.5959, 34.35, 0.04042599, 40393, 0, 33.73
