FMT, 128, 89, FMT, BBnNZ, Type,Length,Name,Format,Columns
FMT, 129, 31, PARM, QNf, TimeUS,Name,Value
FMT, 130, 46, GPS, QBIHBcLLefffB, TimeUS,Status,GMS,GWk,NSats,HDop,Lat,Lng,Alt,Spd,GCrs,VZ,U
FMT, 131, 46, GPS2, QBIHBcLLefffB, TimeUS,Status,GMS,GWk,NSats,HDop,Lat,Lng,Alt,Spd,GCrs,VZ,U
FMT, 132, 46, GPSB, QBIHBcLLefffB, TimeUS,Status,GMS,GWk,NSats,HDop,Lat,Lng,Alt,Spd,GCrs,VZ,U
FMT, 193, 24, GPA, QCCCCBI, TimeUS,VDop,HAcc,VAcc,SAcc,VV,SMS
FMT, 194, 24, GPA2, QCCCCBI, TimeUS,VDop,HAcc,VAcc,SAcc,VV,SMS
FMT, 195, 24, GPAB, QCCCCBI, TimeUS,VDop,HAcc,VAcc,SAcc,VV,SMS
FMT, 133, 53, IMU, QffffffIIfBBHH, TimeUS,GyrX,GyrY,GyrZ,AccX,AccY,AccZ,EG,EA,T,GH,AH,GHz,AHz
FMT, 134, 75, MSG, QZ, TimeUS,Message
FMT, 135, 39, RCIN, QHHHHHHHHHHHHHH, TimeUS,C1,C2,C3,C4,C5,C6,C7,C8,C9,C10,C11,C12,C13,C14
FMT, 136, 39, RCOU, QHHHHHHHHHHHHHH, TimeUS,C1,C2,C3,C4,C5,C6,C7,C8,C9,C10,C11,C12,C13,C14
FMT, 137, 15, RSSI, Qf, TimeUS,RXRSSI
FMT, 139, 37, BARO, QffcfIff, TimeUS,Alt,Press,Temp,CRt,SMS,Offset,GndTemp
FMT, 140, 22, POWR, QffHB, TimeUS,Vcc,VServo,Flags,Safety
FMT, 143, 45, CMD, QHHHfffffff, TimeUS,CTot,CNum,CId,Prm1,Prm2,Prm3,Prm4,Lat,Lng,Alt
FMT, 144, 20, RAD, QBBBBBHH, TimeUS,RSSI,RemRSSI,TxBuf,Noise,RemNoise,RxErrors,Fixed
FMT, 146, 43, CAM, QIHLLeeeccC, TimeUS,GPSTime,GPSWeek,Lat,Lng,Alt,RelAlt,GPSAlt,Roll,Pitch,Yaw
FMT, 232, 43, TRIG, QIHLLeeeccC, TimeUS,GPSTime,GPSWeek,Lat,Lng,Alt,RelAlt,GPSAlt,Roll,Pitch,Yaw
FMT, 162, 30, ARSP, QffcffB, TimeUS,Airspeed,DiffPress,Temp,RawPress,Offset,U
FMT, 164, 45, CURR, QfffcHHHHHHHHHH, TimeUS,Volt,Curr,CurrTot,Temp,V1,V2,V3,V4,V5,V6,V7,V8,V9,V10
FMT, 165, 45, CUR2, QfffcHHHHHHHHHH, TimeUS,Volt,Curr,CurrTot,Temp,V1,V2,V3,V4,V5,V6,V7,V8,V9,V10
FMT, 163, 27, ATT, QccccCCCC, TimeUS,DesRoll,Roll,DesPitch,Pitch,DesYaw,Yaw,ErrRP,ErrYaw
FMT, 166, 34, MAG, QhhhhhhhhhBI, TimeUS,MagX,MagY,MagZ,OfsX,OfsY,OfsZ,MOfsX,MOfsY,MOfsZ,Health,S
FMT, 169, 14, MODE, QMBB, TimeUS,Mode,ModeNum,Rsn
FMT, 196, 17, RFND, QCBCB, TimeUS,Dist1,Orient1,Dist2,Orient2
FMT, 223, 33, DMS, IIIIIBBBBBBBBBB, TimeMS,N,Dp,RT,RS,Er,Fa,Fmn,Fmx,Pa,Pmn,Pmx,Sa,Smn,Smx
FMT, 240, 41, BCN, QBBfffffff, TimeUS,Health,Cnt,D0,D1,D2,D3,PosX,PosY,PosZ
FMT, 138, 53, IMU2, QffffffIIfBBHH, TimeUS,GyrX,GyrY,GyrZ,AccX,AccY,AccZ,EG,EA,T,GH,AH,GHz,AHz
FMT, 147, 53, IMU3, QffffffIIfBBHH, TimeUS,GyrX,GyrY,GyrZ,AccX,AccY,AccZ,EG,EA,T,GH,AH,GHz,AHz
FMT, 141, 45, AHR2, QccCfLLffff, TimeUS,Roll,Pitch,Yaw,Alt,Lat,Lng,Q1,Q2,Q3,Q4
FMT, 180, 31, POS, QLLfff, TimeUS,Lat,Lng,Alt,RelHomeAlt,RelOriginAlt
FMT, 142, 45, SIM, QccCfLLffff, TimeUS,Roll,Pitch,Yaw,Alt,Lat,Lng,Q1,Q2,Q3,Q4
FMT, 198, 51, NKF1, QccCfffffffccc, TimeUS,Roll,Pitch,Yaw,VN,VE,VD,dPD,PN,PE,PD,GX,GY,GZ
FMT, 199, 35, NKF2, QbccccchhhhhhB, TimeUS,AZbias,GSX,GSY,GSZ,VWN,VWE,MN,ME,MD,MX,MY,MZ,MI
FMT, 200, 33, NKF3, Qcccccchhhcc, TimeUS,IVN,IVE,IVD,IPN,IPE,IPD,IMX,IMY,IMZ,IYAW,IVT
FMT, 201, 35, NKF4, QcccccfbbHBHHb, TimeUS,SV,SP,SH,SM,SVT,errRP,OFN,OFE,FS,TS,SS,GPS,PI
FMT, 202, 40, NKF5, QBhhhcccCCfff, TimeUS,NI,FIX,FIY,AFI,HAGL,offset,RI,rng,Herr,eAng,eVel,ePos
FMT, 203, 51, NKF6, QccCfffffffccc, TimeUS,Roll,Pitch,Yaw,VN,VE,VD,dPD,PN,PE,PD,GX,GY,GZ
FMT, 204, 35, NKF7, QbccccchhhhhhB, TimeUS,AZbias,GSX,GSY,GSZ,VWN,VWE,MN,ME,MD,MX,MY,MZ,MI
FMT, 205, 33, NKF8, Qcccccchhhcc, TimeUS,IVN,IVE,IVD,IPN,IPE,IPD,IMX,IMY,IMZ,IYAW,IVT
FMT, 206, 35, NKF9, QcccccfbbHBHHb, TimeUS,SV,SP,SH,SM,SVT,errRP,OFN,OFE,FS,TS,SS,GPS,PI
FMT, 207, 36, NKF0, QBccCCcccccccc, TimeUS,ID,rng,innov,SIV,TR,BPN,BPE,BPD,OFH,OFL,OFN,OFE,OFD
FMT, 208, 27, NKQ1, Qffff, TimeUS,Q1,Q2,Q3,Q4
FMT, 209, 27, NKQ2, Qffff, TimeUS,Q1,Q2,Q3,Q4
FMT, 210, 51, XKF1, QccCfffffffccc, TimeUS,Roll,Pitch,Yaw,VN,VE,VD,dPD,PN,PE,PD,GX,GY,GZ
FMT, 211, 34, XKF2, QccccchhhhhhB, TimeUS,AX,AY,AZ,VWN,VWE,MN,ME,MD,MX,MY,MZ,MI
FMT, 212, 33, XKF3, Qcccccchhhcc, TimeUS,IVN,IVE,IVD,IPN,IPE,IPD,IMX,IMY,IMZ,IYAW,IVT
FMT, 213, 35, XKF4, QcccccfbbHBHHb, TimeUS,SV,SP,SH,SM,SVT,errRP,OFN,OFE,FS,TS,SS,GPS,PI
FMT, 214, 40, XKF5, QBhhhcccCCfff, TimeUS,NI,FIX,FIY,AFI,HAGL,offset,RI,rng,Herr,eAng,eVel,ePos
FMT, 215, 51, XKF6, QccCfffffffccc, TimeUS,Roll,Pitch,Yaw,VN,VE,VD,dPD,PN,PE,PD,GX,GY,GZ
FMT, 216, 34, XKF7, QccccchhhhhhB, TimeUS,AX,AY,AZ,VWN,VWE,MN,ME,MD,MX,MY,MZ,MI
FMT, 217, 33, XKF8, Qcccccchhhcc, TimeUS,IVN,IVE,IVD,IPN,IPE,IPD,IMX,IMY,IMZ,IYAW,IVT
FMT, 218, 35, XKF9, QcccccfbbHBHHb, TimeUS,SV,SP,SH,SM,SVT,errRP,OFN,OFE,FS,TS,SS,GPS,PI
FMT, 219, 36, XKF0, QBccCCcccccccc, TimeUS,ID,rng,innov,SIV,TR,BPN,BPE,BPD,OFH,OFL,OFN,OFE,OFD
FMT, 220, 27, XKQ1, Qffff, TimeUS,Q1,Q2,Q3,Q4
FMT, 221, 27, XKQ2, Qffff, TimeUS,Q1,Q2,Q3,Q4
FMT, 222, 35, XKFD, Qffffff, TimeUS,IX,IY,IZ,IVX,IVY,IVZ
FMT, 148, 34, TERR, QBLLHffHH, TimeUS,Status,Lat,Lng,Spacing,TerrH,CHeight,Pending,Loaded
FMT, 149, 18, UBX1, QBHBBH, TimeUS,Instance,noisePerMS,jamInd,aPower,agcCnt
FMT, 150, 16, UBX2, QBbBbB, TimeUS,Instance,ofsI,magI,ofsQ,magQ
FMT, 151, 18, UBY1, QBHBBH, TimeUS,Instance,noisePerMS,jamInd,aPower,agcCnt
FMT, 152, 16, UBY2, QBbBbB, TimeUS,Instance,ofsI,magI,ofsQ,magQ
FMT, 170, 42, GRAW, QIHBBddfBbB, TimeUS,WkMS,Week,numSV,sv,cpMes,prMes,doMes,mesQI,cno,lli
FMT, 171, 24, GRXH, QdHbBB, TimeUS,rcvTime,week,leapS,numMeas,recStat
FMT, 172, 41, GRXS, QddfBBBHBBBBB, TimeUS,prMes,cpMes,doMes,gnss,sv,freq,lock,cno,prD,cpD,doD,trk
FMT, 173, 63, SBFE, QIHBBdddfffff, TimeUS,TOW,WN,Mode,Err,Lat,Lng,Height,Undul,Vn,Ve,Vu,COG
FMT, 153, 19, ESC1, Qcccc, TimeUS,RPM,Volt,Curr,Temp
FMT, 154, 19, ESC2, Qcccc, TimeUS,RPM,Volt,Curr,Temp
FMT, 155, 19, ESC3, Qcccc, TimeUS,RPM,Volt,Curr,Temp
FMT, 156, 19, ESC4, Qcccc, TimeUS,RPM,Volt,Curr,Temp
FMT, 157, 19, ESC5, Qcccc, TimeUS,RPM,Volt,Curr,Temp
FMT, 158, 19, ESC6, Qcccc, TimeUS,RPM,Volt,Curr,Temp
FMT, 159, 19, ESC7, Qcccc, TimeUS,RPM,Volt,Curr,Temp
FMT, 160, 19, ESC8, Qcccc, TimeUS,RPM,Volt,Curr,Temp
FMT, 167, 34, MAG2, QhhhhhhhhhBI, TimeUS,MagX,MagY,MagZ,OfsX,OfsY,OfsZ,MOfsX,MOfsY,MOfsZ,Health,S
FMT, 168, 34, MAG3, QhhhhhhhhhBI, TimeUS,MagX,MagY,MagZ,OfsX,OfsY,OfsZ,MOfsX,MOfsY,MOfsZ,Health,S
FMT, 174, 31, ACC1, QQfff, TimeUS,SampleUS,AccX,AccY,AccZ
FMT, 175, 31, ACC2, QQfff, TimeUS,SampleUS,AccX,AccY,AccZ
FMT, 176, 31, ACC3, QQfff, TimeUS,SampleUS,AccX,AccY,AccZ
FMT, 177, 31, GYR1, QQfff, TimeUS,SampleUS,GyrX,GyrY,GyrZ
FMT, 178, 31, GYR2, QQfff, TimeUS,SampleUS,GyrX,GyrY,GyrZ
FMT, 179, 31, GYR3, QQfff, TimeUS,SampleUS,GyrX,GyrY,GyrZ
FMT, 181, 35, PIDR, Qffffff, TimeUS,Des,P,I,D,FF,AFF
FMT, 182, 35, PIDP, Qffffff, TimeUS,Des,P,I,D,FF,AFF
FMT, 183, 35, PIDY, Qffffff, TimeUS,Des,P,I,D,FF,AFF
FMT, 184, 35, PIDA, Qffffff, TimeUS,Des,P,I,D,FF,AFF
FMT, 185, 35, PIDS, Qffffff, TimeUS,Des,P,I,D,FF,AFF
FMT, 186, 35, PIDL, Qffffff, TimeUS,Des,P,I,D,FF,AFF
FMT, 161, 37, BAR2, QffcfIff, TimeUS,Alt,Press,Temp,CRt,SMS,Offset,GndTemp
FMT, 197, 37, BAR3, QffcfIff, TimeUS,Alt,Press,Temp,CRt,SMS,Offset,GndTemp
FMT, 187, 35, VIBE, QfffIII, TimeUS,VibeX,VibeY,VibeZ,Clip0,Clip1,Clip2
FMT, 188, 47, IMT, Qfffffffff, TimeUS,DelT,DelvT,DelaT,DelAX,DelAY,DelAZ,DelVX,DelVY,DelVZ
FMT, 189, 47, IMT2, Qfffffffff, TimeUS,DelT,DelvT,DelaT,DelAX,DelAY,DelAZ,DelVX,DelVY,DelVZ
FMT, 190, 47, IMT3, Qfffffffff, TimeUS,DelT,DelvT,DelaT,DelAX,DelAY,DelAZ,DelVX,DelVY,DelVZ
FMT, 191, 24, ORGN, QBLLe, TimeUS,Type,Lat,Lng,Alt
FMT, 192, 19, RPM, Qff, TimeUS,rpm1,rpm2
FMT, 233, 47, GMB1, Iffffffffff, TimeMS,dt,dax,day,daz,dvx,dvy,dvz,jx,jy,jz
FMT, 234, 44, GMB2, IBfffffffff, TimeMS,es,ex,ey,ez,rx,ry,rz,tx,ty,tz
FMT, 235, 13, GMB3, Ihhh, TimeMS,rl_torque_cmd,el_torque_cmd,az_torque_cmd
FMT, 236, 59, RATE, Qffffffffffff, TimeUS,RDes,R,ROut,PDes,P,POut,YDes,Y,YOut,ADes,A,AOut
FMT, 237, 23, RALY, QBBLLh, TimeUS,Tot,Seq,Lat,Lng,Alt
FMT, 238, 43, VISO, Qffffffff, TimeUS,dt,AngDX,AngDY,AngDZ,PosDX,PosDY,PosDZ,conf
FMT, 224, 23, SBPH, QIII, TimeUS,CrcError,LastInject,IARhyp
FMT, 229, 80, SBR1, QHHBZ, TimeUS,msg_type,sender_id,msg_len,d1
FMT, 230, 205, SBR2, QHZZZ, TimeUS,msg_type,d2,d3,d4
FMT, 25, 41, ATUN, QBBfffffff, TimeUS,Axis,TuneStep,Targ,Min,Max,RP,RD,SP,ddt
FMT, 26, 19, ATDE, Qff, TimeUS,Angle,Rate
FMT, 31, 22, PTUN, QBfHHH, TimeUS,Param,TunVal,CtrlIn,TunLo,TunHi
FMT, 12, 28, OF, QBffff, TimeUS,Qual,flowX,flowY,bodyX,bodyY
FMT, 5, 51, NTUN, Qffffffffff, TimeUS,DPosX,DPosY,PosX,PosY,DVelX,DVelY,VelX,VelY,DAccX,DAccY
FMT, 4, 51, CTUN, Qffffffeccfhh, TimeUS,ThI,ABst,ThO,ThH,DAlt,Alt,BAlt,DSAlt,SAlt,TAlt,DCRt,CRt
FMT, 6, 32, PM, QHHIhBHII, TimeUS,NLon,NLoop,MaxT,PMT,I2CErr,INSErr,LogDrop,Mem
FMT, 30, 27, MOTB, Qffff, TimeUS,LiftMax,BatVolt,BatRes,ThLimit
FMT, 13, 12, EV, QB, TimeUS,Id
FMT, 20, 14, D16, QBh, TimeUS,Id,Value
FMT, 21, 14, DU16, QBH, TimeUS,Id,Value
FMT, 22, 16, D32, QBi, TimeUS,Id,Value
FMT, 23, 16, DU32, QBI, TimeUS,Id,Value
FMT, 24, 16, DFLT, QBf, TimeUS,Id,Value
FMT, 19, 13, ERR, QBB, TimeUS,Subsys,ECode
FMT, 32, 19, HELI, Qff, TimeUS,DRRPM,ERRPM
FMT, 33, 29, PL, QBBffff, TimeUS,Heal,TAcq,pX,pY,vX,vY
FMT, 34, 36, GUID, QBffffff, TimeUS,Type,pX,pY,pZ,vX,vY,vZ
FMT, 35, 32, THRO, QBffffbbbb, TimeUS,Stage,Vel,VelZ,Acc,AccEfZ,Throw,AttOk,HgtOk,PosOk
FMT, 36, 56, PRX, QBfffffffffff, TimeUS,Health,D0,D45,D90,D135,D180,D225,D270,D315,DUp,CAn,CDis
MODE, 52797611, 100, 100, 2
RFND, 52831190, 0.2, 25, 0, 0
FMT, 254, 47, NKT1, QIffffffff, TimeUS,Cnt,IMUMin,IMUMax,EKFMin,EKFMax,AngMin,AngMax,VelMin,VelM
FMT, 253, 31, CTRL, Qfffff, TimeUS,RMSRollP,RMSRollD,RMSPitchP,RMSPitchD,RMSYaw
MSG, 52958787, APM:Copter V3.5.7 (38483450)
MSG, 52958792, New mission
MSG, 52958803, Frame: QUAD
MODE, 52958807, Autonomous, 100, 2
MAG, 52983576, 397, 580, 414, 0, 0, 0, 0, 0, 0, 1, 52983567
RFND, 52983607, 0.2, 25, 0, 0
BARO, 52983721, 0.0141286, 993.4969, 34.63, 0.5750234, 52983, 0, 35
CTUN, 52983736, 0, 0, 0, 0.3210891, 0.05491077, 0.05491077, 0.01, 0, 0.19, 0, 0, 0
ATT, 52983925, 0, -0.15, 0, -0.44, 53.81, 53.8, 0, 1
RATE, 52983932, 0.7192788, -0.02699715, 0.001703793, 2.00859, -0.01150239, 0.004807551, 0.0008810139, 0.005797323, 7.161087E-06, 348.742, 0.4883766, 0
NKF1, 52983941, -0.15, -0.44, 53.8, 0.09280494, 0.09226154, 0.008610914, 0, 0, 0, -0.05491077, -0.02, 0.03, -0.01
NKF2, 52983941, 0, 0, 0, 0, 0, 0, 0, 0, 0, 0, 0, 0, 0
NKF3, 52983941, 0, 0, 0, 0.1, 0.09, 0, 0, 0, 0, 0, 0
NKF4, 52983941, 0, 0, 0, 0, 0, 0.000275459, 0, 0, 0, 19, 229, 0, 0
NKF5, 52983941, 0, 0, 0, 0, 0.19, 0.13, 0, 0.19, 0.5, 0.0007036392, 0.006818769, 0.01412478
NKQ1, 52983941, 0.8917213, -0.005123313, 0.007713263, 0.4524902
AHR2, 52983987, -0.07, -0.26, 49.13, 0.01, 0, 0, 0.9094652, 0.0003526009, -0.002414956, 0.4157729
MOTB, 52983994, 1, 1, 0, 1
RCIN, 52983999, 0, 0, 0, 0, 0, 0, 0, 0, 0, 0, 0, 0, 0, 0
RCOU, 52984004, 1101, 1101, 1101, 1101, 0, 0, 0, 0, 0, 0, 0, 0, 0, 0
VIBE, 52984013, 0.02068521, 0.0193287, 0.03267922, 0, 0, 0
CTRL, 52984020, 0.001753802, 0.0001694273, 0.005032884, 0.0002569693, 0.0001032002
PRX, 52984051, 2, 0.63, 0, 0.5, 0, 3.6, 0, 2.51, 0, 0, 90, 0.5
IMU, 52984058, -0.0008925682, 0.0003576118, -0.0002075845, 0.2361769, 0.01902105, -9.8159, 0, 0, 36.61296, 1, 1, 1000, 1000
IMU, 53023916, -0.0005519146, 0.0002454798, 0.000461754, 0.2251384, 0.02218668, -9.799348, 0, 0, 36.61291, 1, 1, 1000, 1000
RFND, 53033585, 0.2, 25, 0, 0
IMU, 53063747, -0.0007202155, 0.001370599, 0.0003503135, 0.2260652, 0.01827448, -9.805414, 0, 0, 36.61295, 1, 1, 1000, 1000
MAG, 53083868, 393, 575, 416, 0, 0, 0, 0, 0, 0, 1, 53083860
RFND, 53083899, 0.2, 25, 0, 0
BARO, 53083939, 0.05934011, 993.4919, 34.63, 0.3448553, 53083, 0, 35
CTUN, 53083952, 0, 0, 0, 0.3210891, 0.05494917, 0.05494917, 0.05, 0, 0.19, 0, 0, 0
ATT, 53084030, 0, -0.15, 0, -0.43, 53.81, 53.81, 0, 1
RATE, 53084037, 0.7186616, -0.02714592, 0.00179409, 1.975026, 0.041281, 0.004535367, 0.001403259, 0.06633924, -0.0001234568, 364.9825, -1.437283, 0
NKF1, 53084044, -0.15, -0.43, 53.81, 0.09305813, 0.09344794, 0.009011915, 0, 0, 0, -0.05494917, -0.02, 0.03, -0.01
NKF2, 53084044, 0, 0, 0, 0, 0, 0, 0, 0, 0, 0, 0, 0, 0
NKF3, 53084044, 0, 0, 0, 0.11, 0.11, 0, 0, 0, 0, 0, 0
NKF4, 53084044, 0, 0, 0, 0, 0, 0.0001819136, 0, 0, 0, 19, 229, 0, 0
NKF5, 53084044, 0, 0, 0, 0, 0.19, 0.13, 0, 0.19, 0.5, 0.0004558493, 0.009408869, 0.01995037
NKQ1, 53084044, 0.8917144, -0.005151023, 0.007773123, 0.4525025
AHR2, 53084089, -0.08, -0.26, 49.14, 0.05, 0, 0, 0.9094511, 0.0003102997, -0.00237703, 0.4158041
MOTB, 53084921, 1, 1, 0, 1
RCIN, 53084927, 0, 0, 0, 0, 0, 0, 0, 0, 0, 0, 0, 0, 0, 0
RCOU, 53084933, 1101, 1101, 1101, 1101, 0, 0, 0, 0, 0, 0, 0, 0, 0, 0
VIBE, 53084942, 0.01835113, 0.01975247, 0.03439233, 0, 0, 0
CTRL, 53084949, 0.001735648, 0.0001746352, 0.004916315, 0.0002488706, 9.487901E-05
PRX, 53084981, 2, 0.63, 0, 0.5, 0, 3.6, 0, 2.53, 0, 0, 90, 0.5
IMU, 53103778, -1.579688E-05, 0.001146119, 0.000431304, 0.2203981, 0.0173437, -9.803543, 0, 0, 36.61337, 1, 1, 1000, 1000
RFND, 53133982, 0.2, 25, 0, 0
IMU, 53143622, -9.830235E-05, -0.0005367676, -0.0005393028, 0.2249327, 0.03593178, -9.805644, 0, 0, 36.61362, 1, 1, 1000, 1000
MAG, 53183829, 399, 578, 408, 0, 0, 0, 0, 0, 0, 1, 53183821
RFND, 53183859, 0.2, 25, 0, 0
BARO, 53184016, -0.005651439, 993.4991, 34.63, 0.1230783, 53184, 0, 35
CTUN, 53184030, 0, 0, 0, 0.3210891, 0.05486415, 0.05486415, 0, 0, 0.19, 0, 0, 0
ATT, 53184111, 0, -0.15, 0, -0.43, 53.81, 53.81, 0, 1
RATE, 53184117, 0.7046215, 0.03314846, 0.00141572, 1.968027, -0.1117227, 0.005570276, 0.002279078, 0.05733759, -0.000119864, 365.9707, -1.165867, 0
NKF1, 53184124, -0.15, -0.43, 53.81, 0.09327833, 0.09507558, 0.009036314, 0, 0, 0, -0.05486414, -0.02, 0.03, -0.01
NKF2, 53184124, 0, 0, 0, 0, 0, 0, 0, 0, 0, 0, 0, 0, 0
NKF3, 53184124, 0, 0, 0, 0.13, 0.12, 0, 0, 0, 0, 0, 0
NKF4, 53184124, 0, 0, 0, 0, 0, 0.0001223153, 0, 0, 0, 19, 229, 0, 0
NKF5, 53184124, 0, 0, 0, 0, 0.19, 0.13, 0, 0.19, 0.5, 0.0002668637, 0.01132368, 0.02442152
NKQ1, 53184124, 0.8917055, -0.005133057, 0.007796502, 0.4525197
AHR2, 53184171, -0.07, -0.26, 49.14, 0, 0, 0, 0.9094399, 0.0003103889, -0.002357187, 0.4158287
MOTB, 53184179, 1, 1, 0, 1
RCIN, 53184183, 0, 0, 0, 0, 0, 0, 0, 0, 0, 0, 0, 0, 0, 0
RCOU, 53184189, 1101, 1101, 1101, 1101, 0, 0, 0, 0, 0, 0, 0, 0, 0, 0
VIBE, 53184198, 0.01870198, 0.01958266, 0.02871384, 0, 0, 0
CTRL, 53184204, 0.001703302, 0.0001746155, 0.004827535, 0.0002963614, 0.0001059516
PRX, 53184235, 2, 0.63, 0, 0.5, 0, 3.6, 0, 2.52, 0, 0, 90, 0.5
IMU, 53184241, 0.0001548631, -0.001388633, 0.000690447, 0.2263424, 0.02421175, -9.799533, 0, 0, 36.61362, 1, 1, 1000, 1000
IMU, 53224115, -0.0007932783, -0.000503507, -3.067324E-05, 0.2221591, 0.0247195, -9.804399, 0, 0, 36.61358, 1, 1, 1000, 1000
RFND, 53233545, 0.2, 25, 0, 0
IMU, 53263605, -0.001526218, -0.0008204849, 8.506876E-06, 0.2205271, 0.02369883, -9.830266, 0, 0, 36.61364, 1, 1, 1000, 1000
MAG, 53283511, 396, 574, 409, 0, 0, 0, 0, 0, 0, 1, 53283502
RFND, 53283539, 0.2, 25, 0, 0
BARO, 53283578, 0.05651439, 993.4922, 34.63, 0.01073244, 53283, 0, 35
CTUN, 53283590, 0, 0, 0, 0.3210891, 0.05488082, 0.05488082, 0.05, 0, 0.19, 0, 0, 0
ATT, 53283744, 0, -0.15, 0, -0.44, 53.81, 53.81, 0, 1
RATE, 53283751, 0.7103331, 0.02485166, 0.00134152, 1.989997, -0.08170977, 0.004811076, 0.001987293, -0.01405717, -2.601112E-05, 355.5694, 0.01077652, 0
NKF1, 53283760, -0.15, -0.44, 53.81, 0.09416208, 0.09751834, 0.00877949, 0, 0, 0, -0.05488082, -0.02, 0.03, -0.01
NKF2, 53283760, 0, 0, 0, 0, 0, 0, 0, 0, 0, 0, 0, 0, 0
NKF3, 53283760, 0, 0, 0, 0.13, 0.12, 0, 0, 0, 0, 0, 0
NKF4, 53283760, 0, 0, 0, 0, 0, 8.198075E-05, 0, 0, 0, 19, 229, 0, 0
NKF5, 53283760, 0, 0, 0, 0, 0.19, 0.13, 0, 0.19, 0.5, 0.0001328976, 0.01266654, 0.02764768
NKQ1, 53283760, 0.8917102, -0.00512483, 0.007754424, 0.4525115
AHR2, 53283903, -0.08, -0.26, 49.14, 0.05, 0, 0, 0.9094439, 0.0002930458, -0.002390668, 0.4158196
MOTB, 53283911, 1, 1, 0, 1
RCIN, 53283916, 0, 0, 0, 0, 0, 0, 0, 0, 0, 0, 0, 0, 0, 0
RCOU, 53283922, 1101, 1101, 1101, 1101, 0, 0, 0, 0, 0, 0, 0, 0, 0, 0
VIBE, 53283930, 0.01902655, 0.02054303, 0.03116125, 0, 0, 0
CTRL, 53283937, 0.001703963, 0.000167548, 0.004832228, 0.0002725227, 9.593329E-05
PRX, 53283969, 2, 0.63, 0, 0.5, 0, 3.6, 0, 2.48, 0, 0, 90, 0.5
IMU, 53303729, -0.001474398, 0.001446384, 0.0001256143, 0.2288114, 0.03223016, -9.80625, 0, 0, 36.61363, 1, 1, 1000, 1000
RFND, 53334327, 0.2, 25, 0, 0
IMU, 53343616, 0.001061883, 5.023416E-05, -6.485272E-05, 0.2128015, 0.01279811, -9.80854, 0, 0, 36.61362, 1, 1, 1000, 1000
MAG, 53383573, 399, 575, 414, 0, 0, 0, 0, 0, 0, 1, 53383564
RFND, 53383603, 0.2, 25, 0, 0
BARO, 53383720, 0.03956007, 993.4939, 34.63, -0.01321446, 53383, 0, 35
CTUN, 53383839, 0, 0, 0, 0.3210891, 0.05477094, 0.05477094, 0.03, 0, 0.19, 0, 0, 0
ATT, 53383922, 0, -0.15, 0, -0.44, 53.81, 53.81, 0, 1
RATE, 53383927, 0.7054142, 0.03124455, 0.001651746, 1.991739, -0.01919673, 0.004555113, 0.0004504769, 0.08100006, -0.0001115253, 375.6711, -1.600552, 0
NKF1, 53383934, -0.15, -0.44, 53.81, 0.09571862, 0.1002893, 0.00927583, 0, 0, 0, -0.05477094, -0.02, 0.03, -0.01
NKF2, 53383934, 0, 0, 0, 0, 0, 0, 0, 0, 0, 0, 0, 0, 0
NKF3, 53383934, 0, 0, 0, 0.14, 0.14, 0, 0, 0, 0, 0, 0
NKF4, 53383934, 0, 0, 0, 0, 0, 5.548511E-05, 0, 0, 0, 19, 229, 0, 0
NKF5, 53383934, 0, 0, 0, 0, 0.19, 0.13, 0, 0.19, 0.5, 5.546006E-05, 0.01337558, 0.02956071
NKQ1, 53383934, 0.8916915, -0.005113516, 0.007754998, 0.4525483
AHR2, 53383981, -0.08, -0.26, 49.14, 0.03, 0, 0, 0.9094298, 0.0002743501, -0.002377753, 0.4158505
MOTB, 53383989, 1, 1, 0, 1
RCIN, 53383993, 0, 0, 0, 0, 0, 0, 0, 0, 0, 0, 0, 0, 0, 0
RCOU, 53383998, 1101, 1101, 1101, 1101, 0, 0, 0, 0, 0, 0, 0, 0, 0, 0
VIBE, 53384006, 0.02157513, 0.0192842, 0.02973832, 0, 0, 0
CTRL, 53384013, 0.001683313, 0.0001651911, 0.004798824, 0.0002646523, 8.740995E-05
PRX, 53384045, 2, 0.63, 0, 0.5, 0, 3.6, 0, 2.52, 0, 0, 90, 0.5
IMU, 53384052, 0.0001214843, 0.0002263534, 0.001103451, 0.2326986, 0.02788175, -9.795055, 0, 0, 36.61365, 1, 1, 1000, 1000
IMU, 53423704, -0.0005130654, -0.001559059, 0.000625062, 0.2310816, 0.02309365, -9.807608, 0, 0, 36.61352, 1, 1, 1000, 1000
RFND, 53433551, 0.2, 25, 0, 0
IMU, 53463961, -0.0004427846, 0.0001084639, 0.0003629505, 0.2312474, 0.01949096, -9.808643, 0, 0, 36.61297, 1, 1, 1000, 1000
MAG, 53483611, 399, 580, 408, 0, 0, 0, 0, 0, 0, 1, 53483602
RFND, 53483712, 0.2, 25, 0, 0
BARO, 53483755, -0.08477159, 993.5078, 34.63, -0.01399072, 53483, 0, 35
CTUN, 53483768, 0, 0, 0, 0.3210891, 0.05470422, 0.05470422, -0.08, 0, 0.19, 0, 0, 0
ATT, 53484114, 0, -0.15, 0, -0.44, 53.82, 53.81, 0, 1
RATE, 53484122, 0.7110971, -0.04312145, 0.002033998, 1.999648, -0.01707375, 0.00458447, 0.00263283, -0.001896181, -9.26271E-05, 367.2231, -0.9712219, 0
NKF1, 53484130, -0.15, -0.44, 53.81, 0.09754991, 0.1041419, 0.009067236, 0, 0, 0, -0.05470422, -0.02, 0.03, -0.01
NKF2, 53484130, 0, 0, 0, 0, 0, 0, 0, 0, 0, 0, 0, 0, 0
NKF3, 53484130, 0, 0, 0, 0.14, 0.14, 0, 0, 0, 0, 0, 0
NKF4, 53484130, 0, 0, 0, 0, 0, 3.816158E-05, 0, 0, 0, 19, 229, 0, 0
NKF5, 53484130, 0, 0, 0, 0, 0.19, 0.13, 0, 0.19, 0.5, 3.450989E-05, 0.01381422, 0.03080755
NKQ1, 53484130, 0.8916816, -0.005117817, 0.007735538, 0.452568
AHR2, 53484180, -0.08, -0.25, 49.14, -0.08, 0, 0, 0.909425, 0.0002382752, -0.002378292, 0.4158613
MOTB, 53484187, 1, 1, 0, 1
RCIN, 53484192, 0, 0, 0, 0, 0, 0, 0, 0, 0, 0, 0, 0, 0, 0
RCOU, 53484197, 1101, 1101, 1101, 1101, 0, 0, 0, 0, 0, 0, 0, 0, 0, 0
VIBE, 53484205, 0.02175935, 0.02083648, 0.027366, 0, 0, 0
CTRL, 53484212, 0.00167391, 0.0001600608, 0.004792439, 0.0002601056, 0.0001015056
PRX, 53484242, 2, 0.63, 0, 0.5, 0, 3.6, 0, 2.51, 0, 0, 90, 0.5
IMU, 53503624, -0.000537108, 0.002008125, -0.0003802822, 0.2206722, 0.02143679, -9.811441, 0, 0, 36.61301, 1, 1, 1000, 1000
RFND, 53533703, 0.2, 25, 0, 0
IMU, 53543899, 0.0005716069, 0.001708634, 9.410658E-05, 0.2228354, 0.01270372, -9.812005, 0, 0, 36.61399, 1, 1, 1000, 1000
MAG, 53583739, 399, 574, 416, 0, 0, 0, 0, 0, 0, 1, 53583730
RFND, 53583774, 0.2, 25, 0, 0
BARO, 53583909, -0.07346871, 993.5062, 34.64, -0.1365158, 53583, 0, 35
CTUN, 53583924, 0, 0, 0, 0.3210891, 0.0546208, 0.0546208, -0.07, 0, 0.19, 0, 0, 0
ATT, 53584007, 0, -0.15, 0, -0.44, 53.82, 53.82, 0, 1
RATE, 53584013, 0.6991248, 0.103459, 0.001029104, 1.987983, -0.06094093, 0.005075722, -0.0004255747, 0.01859286, -9.200318E-05, 338.8937, 1.170444, 0
NKF1, 53584021, -0.15, -0.44, 53.82, 0.1001076, 0.1074869, 0.008367746, 0, 0, 0, -0.0546208, -0.02, 0.03, -0.01
NKF2, 53584021, 0, 0, 0, 0, 0, 0, 0, 0, 0, 0, 0, 0, 0
NKF3, 53584021, 0, 0, 0, 0.16, 0.16, 0, 0, 0, 0, 0, 0
NKF4, 53584021, 0, 0, 0, 0, 0, 2.680379E-05, 0, 0, 0, 19, 229, 0, 0
NKF5, 53584021, 0, 0, 0, 0, 0.19, 0.13, 0, 0.19, 0.5, 4.191928E-05, 0.01381192, 0.03112679
NKQ1, 53584021, 0.8916654, -0.00510757, 0.007768102, 0.4525997
AHR2, 53584092, -0.08, -0.25, 49.15, -0.07, 0, 0, 0.9094155, 0.0002180921, -0.002320821, 0.4158821
MOTB, 53584100, 1, 1, 0, 1
RCIN, 53584104, 0, 0, 0, 0, 0, 0, 0, 0, 0, 0, 0, 0, 0, 0
RCOU, 53584110, 1101, 1101, 1101, 1101, 0, 0, 0, 0, 0, 0, 0, 0, 0, 0
VIBE, 53584119, 0.02171709, 0.02125263, 0.02893942, 0, 0, 0
CTRL, 53584125, 0.001665671, 0.0001824239, 0.004724382, 0.0002469372, 9.590882E-05
PRX, 53584157, 2, 0.63, 0, 0.5, 0, 3.6, 0, 2.51, 0, 0, 90, 0.5
IMU, 53584164, 0.001381141, -0.0005013832, 1.386989E-05, 0.2274732, 0.02369586, -9.822876, 0, 0, 36.61497, 1, 1, 1000, 1000
IMU, 53623623, -0.0002798684, -0.0002723214, 0.0002231457, 0.2305943, 0.02088038, -9.77522, 0, 0, 36.61526, 1, 1, 1000, 1000
RFND, 53633736, 0.2, 25, 0, 0
IMU, 53664955, -0.001705348, 0.002129946, -0.0002450682, 0.2266578, 0.02478916, -9.821931, 0, 0, 36.61565, 1, 1, 1000, 1000
MAG, 53683581, 401, 578, 412, 0, 0, 0, 0, 0, 0, 1, 53683573
RFND, 53683615, 0.2, 25, 0, 0
BARO, 53683727, -0.06781727, 993.5061, 34.63, -0.3454801, 53683, 0, 35
CTUN, 53683851, 0, 0, 0, 0.3210891, 0.05449958, 0.05449958, -0.06, 0, 0.19, 0, 0, 0
ATT, 53683934, 0, -0.15, 0, -0.44, 53.82, 53.82, 0, 1
RATE, 53683940, 0.7085621, 0.01294735, 0.001343559, 1.984651, -0.035221, 0.00501845, 0.000696341, 0.0109127, -6.764107E-05, 357.2654, -0.09002686, 0
NKF1, 53683948, -0.15, -0.44, 53.82, 0.1028142, 0.1109668, 0.008821368, 0, 0, 0, -0.05449958, -0.02, 0.03, -0.01
NKF2, 53683948, 0, 0, 0, 0, 0, 0, 0, 0, 0, 0, 0, 0, 0
NKF3, 53683948, 0, 0, 0, 0.16, 0.16, 0, 0, 0, 0, 0, 0
NKF4, 53683948, 0, 0, 0, 0, 0, 1.921907E-05, 0, 0, 0, 19, 229, 0, 0
NKF5, 53683948, 0, 0, 0, 0, 0.19, 0.13, 0, 0.19, 0.5, 4.44027E-05, 0.01376197, 0.03120131
NKQ1, 53683948, 0.8916545, -0.005126809, 0.00776303, 0.4526209
AHR2, 53683995, -0.09, -0.24, 49.15, -0.06, 0, 0, 0.9094109, 0.0001675594, -0.002298862, 0.4158925
MOTB, 53684002, 1, 1, 0, 1
RCIN, 53684006, 0, 0, 0, 0, 0, 0, 0, 0, 0, 0, 0, 0, 0, 0
RCOU, 53684011, 1101, 1101, 1101, 1101, 0, 0, 0, 0, 0, 0, 0, 0, 0, 0
VIBE, 53684020, 0.01992689, 0.02092711, 0.03088875, 0, 0, 0
CTRL, 53684027, 0.001678827, 0.0001776115, 0.004709234, 0.0002821718, 9.505528E-05
PRX, 53684085, 2, 0.63, 0, 0.5, 0, 0.87, 0, 2.51, 0, 0, 90, 0.5
IMU, 53703705, 0.00052252, -7.068167E-05, 0.0004159017, 0.2200058, 0.01651448, -9.805733, 0, 0, 36.61662, 1, 1, 1000, 1000
RFND, 53734454, 0.2, 25, 0, 0
IMU, 53743864, 0.0002693238, -2.247746E-05, 0.000498887, 0.2321881, 0.01655969, -9.818762, 0, 0, 36.61766, 1, 1, 1000, 1000
MAG, 53783580, 404, 574, 420, 0, 0, 0, 0, 0, 0, 1, 53783571
RFND, 53783615, 0.2, 25, 0, 0
BARO, 53783850, -0.005651439, 993.4991, 34.63, -0.332022, 53783, 0, 35
CTUN, 53783867, 0, 0, 0, 0.3210891, 0.05448803, 0.05448803, 0, 0, 0.19, 0, 0, 0
DU32, 53783909, 7, 50389208
ATT, 53784094, 0, -0.15, 0, -0.44, 53.83, 53.82, 0, 1
RATE, 53784102, 0.7115362, -0.026759, 0.001609432, 1.995528, 0.04934909, 0.004150745, 0.001710726, -0.003224163, -6.372222E-05, 354.912, -1.136398, 0
NKF1, 53784109, -0.15, -0.44, 53.82, 0.1056714, 0.1147857, 0.008763259, 0, 0, 0, -0.05448803, -0.02, 0.03, -0.01
NKF2, 53784109, 0, 0, 0, 0, 0, 0, 0, 0, 0, 0, 0, 0, 0
NKF3, 53784109, 0, 0, 0, 0.18, 0.18, 0, 0, 0, 0, 0, 0
NKF4, 53784109, 0, 0, 0, 0, 0, 1.445045E-05, 0, 0, 0, 19, 229, 0, 0
NKF5, 53784109, 0, 0, 0, 0, 0.19, 0.13, 0, 0.19, 0.5, 3.748164E-05, 0.01338271, 0.030571
NKQ1, 53784109, 0.8916435, -0.005122874, 0.007741892, 0.4526431
AHR2, 53784159, -0.09, -0.24, 49.15, 0, 0, 0, 0.9094059, 0.000142662, -0.002293571, 0.4159035
MOTB, 53784167, 1, 1, 0, 1
RCIN, 53784171, 0, 0, 0, 0, 0, 0, 0, 0, 0, 0, 0, 0, 0, 0
RCOU, 53784177, 1101, 1101, 1101, 1101, 0, 0, 0, 0, 0, 0, 0, 0, 0, 0
VIBE, 53784185, 0.01894446, 0.02390562, 0.03436492, 0, 0, 0
CTRL, 53784192, 0.001676797, 0.0001803295, 0.004731847, 0.0002752027, 8.949541E-05
PRX, 53784222, 2, 0.63, 0, 0.5, 0, 0.87, 0, 2.51, 0, 0, 90, 0.5
IMU, 53784230, -0.0008921683, 0.001424151, -0.0003671309, 0.22593, 0.008204637, -9.799863, 0, 0, 36.61862, 1, 1, 1000, 1000
IMU, 53823802, 0.001148038, 0.0009729974, -3.42034E-05, 0.2206197, 0.01886432, -9.811424, 0, 0, 36.61997, 1, 1, 1000, 1000
RFND, 53833857, 0.2, 25, 0, 0
IMU, 53863788, -0.0006264652, -0.000691203, -0.000417727, 0.2255203, 0.02577511, -9.810927, 0, 0, 36.62201, 1, 1, 1000, 1000
MAG, 53883577, 397, 576, 409, 0, 0, 0, 0, 0, 0, 1, 53883569
RFND, 53883612, 0.2, 25, 0, 0
BARO, 53883724, -0.1469374, 993.5145, 34.63, -0.09360196, 53883, 0, 35
CTUN, 53883739, 0, 0, 0, 0.3210891, 0.05435957, 0.05435957, -0.14, 0, 0.19, 0, 0, 0
ATT, 53883933, 0, -0.15, 0, -0.44, 53.83, 53.83, 0, 1
RATE, 53883941, 0.6950578, 0.05412416, 0.00138541, 2.009203, 0.00449805, 0.004516024, 0.0024791, 0.06852337, -9.128047E-05, 340.5155, -0.1293182, 0
NKF1, 53883949, -0.15, -0.44, 53.83, 0.1083347, 0.1188795, 0.00840779, 0, 0, 0, -0.05435957, -0.02, 0.03, -0.01
NKF2, 53883949, 0, 0, 0, 0, 0, 0, 0, 0, 0, 0, 0, 0, 0
NKF3, 53883949, 0, 0, 0, 0.18, 0.18, 0, 0, 0, 0, 0, 0
NKF4, 53883949, 0, 0, 0, 0, 0, 1.139317E-05, 0, 0, 0, 19, 229, 0, 0
NKF5, 53883949, 0, 0, 0, 0, 0.19, 0.13, 0, 0.19, 0.5, 3.268194E-05, 0.01309779, 0.03005078
NKQ1, 53883949, 0.8916235, -0.005081548, 0.007732514, 0.4526833
AHR2, 53883996, -0.09, -0.24, 49.15, -0.14, 0, 0, 0.9093925, 0.0001561637, -0.002278727, 0.4159328
MOTB, 53884004, 1, 1, 0, 1
RCIN, 53884008, 0, 0, 0, 0, 0, 0, 0, 0, 0, 0, 0, 0, 0, 0
RCOU, 53884013, 1101, 1101, 1101, 1101, 0, 0, 0, 0, 0, 0, 0, 0, 0, 0
VIBE, 53884021, 0.0187991, 0.02013609, 0.0350068, 0, 0, 0
CTRL, 53884028, 0.001642323, 0.000175848, 0.004755715, 0.0002561037, 9.843712E-05
PRX, 53884082, 2, 0.63, 0, 0.5, 0, 3.6, 0, 2.5, 0, 0, 90, 0.5
IMU, 53903844, 1.039055E-05, 0.001010251, 0.001101892, 0.2215213, 0.02654134, -9.811221, 0, 0, 36.62357, 1, 1, 1000, 1000
RFND, 53933586, 0.2, 25, 0, 0
IMU, 53944602, 0.00213909, -0.000468522, -0.0009626108, 0.2240998, 0.01946455, -9.818891, 0, 0, 36.6245, 1, 1, 1000, 1000
MAG, 53983617, 398, 575, 413, 0, 0, 0, 0, 0, 0, 1, 53983608
RFND, 53983724, 0.2, 25, 0, 0
BARO, 53983763, -0.1073773, 993.5099, 34.64, -0.01766074, 53983, 0, 35
CTUN, 53983776, 0, 0, 0, 0.3210891, 0.0544344, 0.0544344, -0.1, 0, 0.19, 0, 0, 0
ATT, 53983983, 0, -0.14, 0, -0.45, 53.83, 53.83, 0, 1
RATE, 53983989, 0.6703857, 0.04001801, 0.001741237, 2.029275, -0.07590157, 0.005207549, 0.001987286, 0.02530096, -5.779887E-05, 332.9731, -1.139832, 0
NKF1, 53983998, -0.14, -0.45, 53.83, 0.1110759, 0.1225158, 0.008221558, 0, 0, 0, -0.0544344, -0.02, 0.03, -0.01
NKF2, 53983998, 0, 0, 0, 0, 0, 0, 0, 0, 0, 0, 0, 0, 0
NKF3, 53983998, 0, 0, 0, 0.2, 0.2, 0, 0, 0, 0, 0, 0
NKF4, 53983998, 0, 0, 0, 0, 0, 9.721657E-06, 0, 0, 0, 19, 229, 0, 0
NKF5, 53983998, 0, 0, 0, 0, 0.19, 0.13, 0, 0.19, 0.5, 3.117229E-05, 0.01253838, 0.02890718
NKQ1, 53983998, 0.8916166, -0.005022358, 0.007721371, 0.4526977
AHR2, 53984042, -0.08, -0.24, 49.15, -0.09999999, 0, 0, 0.9093909, 0.000188024, -0.002268053, 0.4159364
MOTB, 53984050, 1, 1, 0, 1
RCIN, 53984054, 0, 0, 0, 0, 0, 0, 0, 0, 0, 0, 0, 0, 0, 0
RCOU, 53984059, 1101, 1101, 1101, 1101, 0, 0, 0, 0, 0, 0, 0, 0, 0, 0
VIBE, 53984068, 0.02054423, 0.02143551, 0.03360574, 0, 0, 0
CTRL, 53984074, 0.001586212, 0.000178866, 0.004781581, 0.000241152, 9.677373E-05
PRX, 53984104, 2, 0.63, 0, 0.5, 0, 3.6, 0, 2.52, 0, 0, 90, 0.5
IMU, 53984111, 0.0002729455, -0.0007615924, 0.0001307072, 0.219501, 0.02521681, -9.799911, 0, 0, 36.62531, 1, 1, 1000, 1000
IMU, 54023732, 0.0002403056, 0.001215172, 0.000440902, 0.229844, 0.01069721, -9.823785, 0, 0, 36.62497, 1, 1, 1000, 1000
RFND, 54033557, 0.2, 25, 0, 0
IMU, 54063802, 0.0008439141, -0.00137676, -0.0007738608, 0.2267077, 0.02312147, -9.812224, 0, 0, 36.62557, 1, 1, 1000, 1000
MAG, 54083959, 400, 576, 409, 0, 0, 0, 0, 0, 0, 1, 54083950
RFND, 54083992, 0.2, 25, 0, 0
BARO, 54084030, -0.07346871, 993.5066, 34.64, -0.1624847, 54084, 0, 35
CTUN, 54084043, 0, 0, 0, 0.3210891, 0.05438351, 0.05438351, -0.07, 0, 0.19, 0, 0, 0
ATT, 54084122, 0, -0.14, 0, -0.45, 53.84, 53.84, 0, 1
RATE, 54084128, 0.665416, -0.05934262, 0.001979596, 2.044504, -0.1631248, 0.00514241, 0.002386937, 0.1128202, -9.86888E-05, 312.069, -0.2291679, 0
NKF1, 54084135, -0.14, -0.45, 53.84, 0.1140452, 0.1266872, 0.007705406, 0, 0, 0, -0.05438351, -0.02, 0.03, -0.01
NKF2, 54084135, 0, 0, 0, 0, 0, 0, 0, 0, 0, 0, 0, 0, 0
NKF3, 54084135, 0, 0, 0, 0.22, 0.22, 0, 0, 0, 0, 0, 0
NKF4, 54084135, 0, 0, 0, 0, 0, 8.68792E-06, 0, 0, 0, 19, 229, 0, 0
NKF5, 54084135, 0, 0, 0, 0, 0.19, 0.13, 0, 0.19, 0.5, 3.810845E-05, 0.01185197, 0.02743451
NKQ1, 54084135, 0.8915975, -0.004998972, 0.007697193, 0.452736
AHR2, 54084179, -0.08, -0.24, 49.16, -0.07, 0, 0, 0.9093776, 0.0001844579, -0.002270201, 0.4159655
MOTB, 54084187, 1, 1, 0, 1
RCIN, 54084191, 0, 0, 0, 0, 0, 0, 0, 0, 0, 0, 0, 0, 0, 0
RCOU, 54084197, 1101, 1101, 1101, 1101, 0, 0, 0, 0, 0, 0, 0, 0, 0, 0
VIBE, 54084205, 0.02143379, 0.02042792, 0.0326594, 0, 0, 0
CTRL, 54084211, 0.001568226, 0.0001901865, 0.004818865, 0.0002566105, 9.636449E-05
PRX, 54084243, 2, 0.63, 0, 0.5, 0, 3.6, 0, 2.52, 0, 0, 90, 0.5
IMU, 54103977, -0.00129878, 0.001052971, 0.0002731322, 0.2198578, 0.02177646, -9.801687, 0, 0, 36.62651, 1, 1, 1000, 1000
RFND, 54133838, 0.2, 25, 0, 0
IMU, 54143711, -0.000787057, -0.001233662, 0.0004428586, 0.2248227, 0.01132676, -9.818945, 0, 0, 36.62586, 1, 1, 1000, 1000
MAG, 54183807, 403, 575, 413, 0, 0, 0, 0, 0, 0, 1, 54183799
RFND, 54183836, 0.2, 25, 0, 0
BARO, 54183876, 0.04521151, 993.4933, 34.64, -0.1289059, 54183, 0, 35
CTUN, 54183888, 0, 0, 0, 0.3210891, 0.05453908, 0.05453908, 0.04, 0, 0.19, 0, 0, 0
ATT, 54184099, 0, -0.15, 0, -0.45, 53.84, 53.84, 0, 1
RATE, 54184106, 0.6781682, -0.02993738, 0.001689963, 2.063476, -0.07422687, 0.005465618, 0.002771364, -0.01686336, -8.752204E-05, 294.7846, 0.3717422, 0
NKF1, 54184113, -0.15, -0.45, 53.84, 0.1172288, 0.1304397, 0.007278632, 0, 0, 0, -0.05453908, -0.02, 0.03, -0.01
NKF2, 54184113, 0, 0, 0, 0, 0, 0, 0, 0, 0, 0, 0, 0, 0
NKF3, 54184113, 0, 0, 0, 0.22, 0.22, 0, 0, 0, 0, 0, 0
NKF4, 54184113, 0, 0, 0, 0, 0, 8.525115E-06, 0, 0, 0, 19, 229, 0, 0
NKF5, 54184113, 0, 0, 0, 0, 0.19, 0.13, 0, 0.19, 0.5, 4.191739E-05, 0.0115451, 0.02668411
NKQ1, 54184113, 0.8915898, -0.005006984, 0.007655387, 0.4527516
AHR2, 54184160, -0.09, -0.24, 49.16, 0.04, 0, 0, 0.9093743, 0.0001477901, -0.002291819, 0.4159726
MOTB, 54184167, 1, 1, 0, 1
RCIN, 54184172, 0, 0, 0, 0, 0, 0, 0, 0, 0, 0, 0, 0, 0, 0
RCOU, 54184177, 1101, 1101, 1101, 1101, 0, 0, 0, 0, 0, 0, 0, 0, 0, 0
VIBE, 54184186, 0.01914236, 0.0195212, 0.03219482, 0, 0, 0
CTRL, 54184192, 0.001595161, 0.0001767457, 0.004849201, 0.0002839642, 0.0001004733
PRX, 54184223, 2, 0.63, 0, 0.5, 0, 3.6, 0, 2.52, 0, 0, 90, 0.5
IMU, 54184229, -0.0009474802, -0.0007332941, -0.0006045118, 0.2298919, 0.02125019, -9.814833, 0, 0, 36.6246, 1, 1, 1000, 1000
IMU, 54223708, -0.0004452574, 0.0007331347, 0.0007737151, 0.2180316, 0.0223339, -9.792568, 0, 0, 36.62366, 1, 1, 1000, 1000
RFND, 54234284, 0.2, 25, 0, 0
IMU, 54264082, -0.0003574428, -0.001641435, -0.0004728111, 0.2173295, 0.006403006, -9.790687, 0, 0, 36.6231, 1, 1, 1000, 1000
MAG, 54283838, 403, 575, 406, 0, 0, 0, 0, 0, 0, 1, 54283827
RFND, 54283867, 0.2, 25, 0, 0
BARO, 54283907, 0.09324875, 993.4879, 34.64, 0.2281356, 54283, 0, 35
CTUN, 54283921, 0, 0, 0, 0.3210891, 0.05455373, 0.05455373, 0.09, 0, 0.19, 0, 0, 0
ATT, 54284000, 0, -0.15, 0, -0.46, 53.84, 53.84, 0, 1
RATE, 54284006, 0.6854623, -0.06208985, 0.001910778, 2.078289, -0.01676073, 0.004527554, 0.003770452, 0.06461299, -7.144432E-05, 334.9182, -1.599789, 0
NKF1, 54284014, -0.15, -0.46, 53.84, 0.1199776, 0.1339895, 0.008269585, 0, 0, 0, -0.05455373, -0.02, 0.03, -0.01
NKF2, 54284014, 0, 0, 0, 0, 0, 0, 0, 0, 0, 0, 0, 0, 0
NKF3, 54284014, 0, 0, 0, 0.24, 0.25, 0, 0, 0, 0, 0, 0
NKF4, 54284014, 0, 0, 0, 0, 0, 8.566658E-06, 0, 0, 0, 19, 229, 0, 0
NKF5, 54284014, 0, 0, 0, 0, 0.19, 0.13, 0, 0.19, 0.5, 5.266884E-05, 0.01080447, 0.02501421
NKQ1, 54284014, 0.8915766, -0.005005155, 0.007621245, 0.4527781
AHR2, 54284059, -0.09, -0.24, 49.16, 0.09, 0, 0, 0.9093657, 0.0001230011, -0.002306914, 0.4159914
MOTB, 54284066, 1, 1, 0, 1
RCIN, 54284070, 0, 0, 0, 0, 0, 0, 0, 0, 0, 0, 0, 0, 0, 0
RCOU, 54284076, 1101, 1101, 1101, 1101, 0, 0, 0, 0, 0, 0, 0, 0, 0, 0
VIBE, 54284084, 0.01899623, 0.01832522, 0.03766378, 0, 0, 0
CTRL, 54284091, 0.001607959, 0.0001644242, 0.004905884, 0.0002783343, 9.74147E-05
PRX, 54284123, 2, 0.63, 0, 0.5, 0, 3.6, 0, 2.53, 0, 0, 90, 0.5
IMU, 54304173, -0.0006167359, -0.0004276166, 0.0009178002, 0.2364677, 0.02285994, -9.811352, 0, 0, 36.62206, 1, 1, 1000, 1000
RFND, 54333560, 0.2, 25, 0, 0
IMU, 54343531, -0.0001988224, 0.0008076268, 3.207156E-05, 0.2230229, 0.02373525, -9.820011, 0, 0, 36.62072, 1, 1, 1000, 1000
MAG, 54383878, 398, 580, 408, 0, 0, 0, 0, 0, 0, 1, 54383869
RFND, 54383908, 0.2, 25, 0, 0
BARO, 54383947, 0.09042303, 993.4883, 34.64, 0.5686761, 54383, 0, 35
CTUN, 54383960, 0, 0, 0, 0.3210891, 0.05457797, 0.05457797, 0.09, 0, 0.19, 0, 0, 0
ATT, 54384040, 0, -0.15, 0, -0.45, 53.85, 53.84, 0, 1
RATE, 54384046, 0.6823265, 0.05177006, 0.001369657, 2.058267, 0.09401518, 0.004358503, 0.005030453, -0.04234796, -3.145506E-05, 347.9687, -3.12767, 0
NKF1, 54384054, -0.15, -0.45, 53.84, 0.1224612, 0.1380015, 0.00859182, 0, 0, 0, -0.05457797, -0.02, 0.03, -0.01
NKF2, 54384054, 0, 0, 0, 0, 0, 0, 0, 0, 0, 0, 0, 0, 0
NKF3, 54384054, 0, 0, 0, 0.24, 0.25, 0, 0, 0, 0, 0, 0
NKF4, 54384054, 0, 0, 0, 0, 0, 9.084471E-06, 0, 0, 0, 19, 229, 0, 0
NKF5, 54384054, 0, 0, 0, 0, 0.19, 0.13, 0, 0.19, 0.5, 5.321758E-05, 0.01053688, 0.02429513
NKQ1, 54384054, 0.8915699, -0.005019155, 0.007658224, 0.4527907
AHR2, 54384235, -0.09, -0.23, 49.16, 0.09, 0, 0, 0.9093634, 8.988379E-05, -0.002250761, 0.4159965
MOTB, 54384246, 1, 1, 0, 1
RCIN, 54384251, 0, 0, 0, 0, 0, 0, 0, 0, 0, 0, 0, 0, 0, 0
RCOU, 54384257, 1101, 1101, 1101, 1101, 0, 0, 0, 0, 0, 0, 0, 0, 0, 0
VIBE, 54384266, 0.01926843, 0.01997613, 0.03720089, 0, 0, 0
CTRL, 54384272, 0.001610957, 0.0001447716, 0.004878004, 0.0002748885, 0.0001016182
PRX, 54384305, 2, 0.63, 0, 0.5, 0, 0.92, 0, 2.52, 0, 0, 90, 0.5
IMU, 54384311, 0.0004782674, 0.002203216, -0.001049164, 0.2160637, 0.02447604, -9.78007, 0, 0, 36.62012, 1, 1, 1000, 1000
IMU, 54423855, -0.001945998, 9.291674E-05, 0.0005991085, 0.2237062, 0.02138846, -9.790495, 0, 0, 36.62017, 1, 1, 1000, 1000
RFND, 54433578, 0.2, 25, 0, 0
IMU, 54463917, -0.001384529, -0.001251471, -0.000313119, 0.2250397, 0.01713505, -9.810422, 0, 0, 36.6203, 1, 1, 1000, 1000
MAG, 54483582, 406, 576, 409, 0, 0, 0, 0, 0, 0, 1, 54483574
RFND, 54483613, 0.2, 25, 0, 0
BARO, 54483729, -0.04521151, 993.5034, 34.64, 0.5408449, 54483, 0, 35
CTUN, 54483743, 0, 0, 0, 0.3210891, 0.0545211, 0.0545211, -0.04, 0, 0.19, 0, 0, 0
ATT, 54483935, 0, -0.15, 0, -0.46, 53.85, 53.84, 0, 1
RATE, 54483941, 0.7101626, -0.08200841, 0.001932535, 2.077645, -0.02696179, 0.004737976, 0.002049428, 0.03330939, -1.869632E-05, 362.8323, 0.8198738, 0
NKF1, 54483950, -0.15, -0.46, 53.84, 0.125103, 0.1416504, 0.008958821, 0, 0, 0, -0.0545211, -0.02, 0.03, -0.01
NKF2, 54483950, 0, 0, 0, 0, 0, 0, 0, 0, 0, 0, 0, 0, 0
NKF3, 54483950, 0, 0, 0, 0.26, 0.27, 0, 0, 0, 0, 0, 0
NKF4, 54483950, 0, 0, 0, 0, 0, 9.756846E-06, 0, 0, 0, 19, 229, 0, 0
NKF5, 54483950, 0, 0, 0, 0, 0.19, 0.13, 0, 0.19, 0.5, 6.302034E-05, 0.009776952, 0.02248972
NKQ1, 54483950, 0.8915606, -0.005049099, 0.007599528, 0.4528094
AHR2, 54483996, -0.1, -0.24, 49.16, -0.04, 0, 0, 0.9093578, 3.691321E-05, -0.002290375, 0.4160087
MOTB, 54484003, 1, 1, 0, 1
RCIN, 54484008, 0, 0, 0, 0, 0, 0, 0, 0, 0, 0, 0, 0, 0, 0
RCOU, 54484013, 1101, 1101, 1101, 1101, 0, 0, 0, 0, 0, 0, 0, 0, 0, 0
VIBE, 54484022, 0.01906021, 0.02233775, 0.03446918, 0, 0, 0
CTRL, 54484028, 0.001662136, 0.0001488583, 0.004909807, 0.0002596406, 8.493491E-05
PRX, 54484060, 2, 0.62, 0, 0.49, 0, 0.92, 0, 2.52, 0, 0, 90, 0.49
IMU, 54503887, -0.0008281756, 0.0006062032, 0.0008268447, 0.2218582, 0.02496688, -9.816351, 0, 0, 36.6205, 1, 1, 1000, 1000
RFND, 54533493, 0.2, 25, 0, 0
IMU, 54543513, 0.001288024, -0.0004410952, 0.0007247634, 0.2251613, 0.03436184, -9.816275, 0, 0, 36.62205, 1, 1, 1000, 1000
MAG, 54583565, 399, 577, 407, 0, 0, 0, 0, 0, 0, 1, 54583557
RFND, 54583593, 0.2, 25, 0, 0
BARO, 54583690, -0.1243317, 993.512, 34.64, 0.1007548, 54583, 0, 35
CTUN, 54583705, 0, 0, 0, 0.3210891, 0.05444786, 0.05444786, -0.12, 0, 0.19, 0, 0, 0
ATT, 54583783, 0, -0.15, 0, -0.46, 53.85, 53.85, 0, 1
RATE, 54583789, 0.7009644, -0.06277477, 0.00224444, 2.090245, -0.0766892, 0.005261181, 0.00307909, 0.05882935, -8.579542E-05, 354.3598, -0.7189751, 0
NKF1, 54583797, -0.15, -0.46, 53.85, 0.1275365, 0.1457895, 0.008749625, 0, 0, 0, -0.05444786, -0.02, 0.03, -0.01
NKF2, 54583797, 0, 0, 0, 0, 0, 0, 0, 0, 0, 0, 0, 0, 0
NKF3, 54583797, 0, 0, 0, 0.26, 0.27, 0, 0, 0, 0, 0, 0
NKF4, 54583797, 0, 0, 0, 0, 0, 1.06315E-05, 0, 0, 0, 19, 229, 0, 0
NKF5, 54583797, 0, 0, 0, 0, 0.19, 0.13, 0, 0.19, 0.5, 5.97679E-05, 0.009572578, 0.02188588
NKQ1, 54583797, 0.891547, -0.005022366, 0.007588687, 0.452837
AHR2, 54583841, -0.1, -0.24, 49.16, -0.12, 0, 0, 0.9093485, 3.906256E-05, -0.00228681, 0.4160289
MOTB, 54583848, 1, 1, 0, 1
RCIN, 54583852, 0, 0, 0, 0, 0, 0, 0, 0, 0, 0, 0, 0, 0, 0
RCOU, 54583858, 1101, 1101, 1101, 1101, 0, 0, 0, 0, 0, 0, 0, 0, 0, 0
VIBE, 54583866, 0.02071981, 0.01948312, 0.03113338, 0, 0, 0
CTRL, 54583872, 0.001642176, 0.0001840682, 0.004924822, 0.0002339019, 8.302648E-05
PRX, 54583904, 2, 0.63, 0, 0.5, 0, 0.99, 0, 2.51, 0, 0, 90, 0.5
IMU, 54583911, -0.001521964, -0.0007751008, 0.0007163952, 0.2281559, 0.01725947, -9.803967, 0, 0, 36.62382, 1, 1, 1000, 1000
IMU, 54623707, -0.000535945, -0.000104931, 0.0004514044, 0.2218024, 0.03286913, -9.793651, 0, 0, 36.62518, 1, 1, 1000, 1000
RFND, 54633447, 0.2, 25, 0, 0
IMU, 54663526, -3.058813E-06, 0.0007852319, 0.0003269073, 0.2244347, 0.03389981, -9.821996, 0, 0, 36.62679, 1, 1, 1000, 1000
MAG, 54684103, 401, 576, 406, 0, 0, 0, 0, 0, 0, 1, 54684094
RFND, 54684132, 0.2, 25, 0, 0
BARO, 54684169, -0.141286, 993.5137, 34.64, -0.449466, 54684, 0, 35
CTUN, 54684182, 0, 0, 0, 0.3210891, 0.05443083, 0.05443083, -0.14, 0, 0.19, 0, 0, 0
ATT, 54684256, 0, -0.15, 0, -0.46, 53.85, 53.85, 0, 1
RATE, 54684262, 0.6988887, -0.001515927, 0.001584669, 2.092831, 0.06949498, 0.004778692, 0.0005741254, -0.003719795, -9.480367E-05, 362.0808, -0.7770538, 0
NKF1, 54684270, -0.15, -0.46, 53.85, 0.129814, 0.1500395, 0.008940267, 0, 0, 0, -0.05443083, -0.02, 0.03, -0.01
NKF2, 54684270, 0, 0, 0, 0, 0, 0, 0, 0, 0, 0, 0, 0, 0
NKF3, 54684270, 0, 0, 0, 0.28, 0.3, 0, 0, 0, 0, 0, 0
NKF4, 54684270, 0, 0, 0, 0, 0, 1.175469E-05, 0, 0, 0, 19, 229, 0, 0
NKF5, 54684270, 0, 0, 0, 0, 0.19, 0.13, 0, 0.19, 0.5, 6.967295E-05, 0.008807541, 0.02001065
NKQ1, 54684270, 0.8915337, -0.005017739, 0.007585625, 0.4528632
AHR2, 54684313, -0.1, -0.23, 49.17, -0.14, 0, 0, 0.9093397, 1.926888E-05, -0.0022751, 0.4160482
MOTB, 54684320, 1, 1, 0, 1
RCIN, 54684324, 0, 0, 0, 0, 0, 0, 0, 0, 0, 0, 0, 0, 0, 0
RCOU, 54684329, 1101, 1101, 1101, 1101, 0, 0, 0, 0, 0, 0, 0, 0, 0, 0
VIBE, 54684338, 0.02334113, 0.01895753, 0.03143572, 0, 0, 0
CTRL, 54684344, 0.001649818, 0.0001764195, 0.004943056, 0.0002322923, 9.390384E-05
PRX, 54684375, 2, 0.63, 0, 0.5, 0, 0.99, 0, 2.52, 0, 0, 90, 0.5
IMU, 54704331, 0.0008714151, 0.001216801, 0.001027004, 0.2284107, 0.03436567, -9.821795, 0, 0, 36.62819, 1, 1, 1000, 1000
RFND, 54734152, 0.2, 25, 0, 0
IMU, 54743615, -0.001814467, 0.0005019138, -0.003068957, 0.2320132, 0.02621974, -9.80087, 0, 0, 36.62973, 1, 1, 1000, 1000
MAG, 54783769, 397, 583, 410, 0, 0, 0, 0, 0, 0, 1, 54783760
RFND, 54783798, 0.2, 25, 0, 0
BARO, 54783838, -0.1243317, 993.5123, 34.64, -0.6809738, 54783, 0, 35
CTUN, 54783852, 0, 0, 0, 0.3210891, 0.05428977, 0.05428977, -0.12, 0, 0.19, 0, 0, 0
DU32, 54783893, 7, 50389208
ATT, 54783993, 0, -0.15, 0, -0.46, 53.86, 53.85, 0, 1
RATE, 54783999, 0.7185225, -0.09273472, 0.00225771, 2.082397, 0.04039914, 0.004262944, 0.002541288, 0.0595603, -1.06596E-05, 364.6696, -1.115227, 0
NKF1, 54784007, -0.15, -0.46, 53.85, 0.1324643, 0.1544858, 0.009004186, 0, 0, 0, -0.05428977, -0.02, 0.03, -0.01
NKF2, 54784007, 0, 0, 0, 0, 0, 0, 0, 0, 0, 0, 0, 0, 0
NKF3, 54784007, 0, 0, 0, 0.28, 0.3, 0, 0, 0, 0, 0, 0
NKF4, 54784007, 0, 0, 0, 0, 0, 1.282315E-05, 0, 0, 0, 19, 229, 0, 0
NKF5, 54784007, 0, 0, 0, 0, 0.19, 0.13, 0, 0.19, 0.5, 6.389081E-05, 0.008682773, 0.01959096
NKQ1, 54784007, 0.8915311, -0.005059746, 0.007585806, 0.4528676
AHR2, 54784188, -0.11, -0.23, 49.17, -0.12, 0, 0, 0.9093407, -4.945029E-05, -0.002259079, 0.4160463
MOTB, 54784197, 1, 1, 0, 1
RCIN, 54784202, 0, 0, 0, 0, 0, 0, 0, 0, 0, 0, 0, 0, 0, 0
RCOU, 54784208, 1101, 1101, 1101, 1101, 0, 0, 0, 0, 0, 0, 0, 0, 0, 0
VIBE, 54784216, 0.01997538, 0.02118936, 0.02935225, 0, 0, 0
CTRL, 54784222, 0.001675717, 0.0001982613, 0.004935957, 0.0002574506, 9.165008E-05
PRX, 54784253, 2, 0.63, 0, 0.5, 0, 3.6, 0, 2.55, 0, 0, 90, 0.5
IMU, 54784260, -0.002045127, 0.001268409, 0.0007294927, 0.2220567, 0.02518266, -9.800087, 0, 0, 36.63028, 1, 1, 1000, 1000
EV, 54798187, 57
IMU, 54824025, -0.001020572, 0.0004636403, 0.0002704783, 0.2189348, 0.0188106, -9.795126, 0, 0, 36.63026, 1, 1, 1000, 1000
RFND, 54833580, 0.2, 25, 0, 0
IMU, 54863532, -0.0003329612, 0.0004722254, -0.0005235679, 0.2195593, 0.02321173, -9.795616, 0, 0, 36.63042, 1, 1, 1000, 1000
MAG, 54883497, 405, 579, 413, 0, 0, 0, 0, 0, 0, 1, 54883488
RFND, 54883530, 0.2, 25, 0, 0
BARO, 54883566, 0.01130288, 993.4971, 34.65, -0.4434209, 54883, 0, 35
CTUN, 54883579, 0, 0, 0, 0.3210891, 0.05430507, 0.05430507, 0.01, 0, 0.19, 0, 0, 0
ATT, 54883771, 0, -0.16, 0, -0.46, 53.86, 53.85, 0, 1
RATE, 54883778, 0.7226072, 0.03336044, 0.0016547, 2.08289, -0.003317588, 0.004887887, 0.002833314, -0.02523805, 1.271067E-05, 376.2183, -0.09365082, 0
NKF1, 54883787, -0.16, -0.46, 53.85, 0.1345915, 0.157982, 0.009289341, 0, 0, 0, -0.05430507, -0.02, 0.03, -0.01
NKF2, 54883787, 0, 0, 0, 0, 0, 0, 0, 0, 0, 0, 0, 0, 0
NKF3, 54883787, 0, 0, 0, 0.3, 0.32, 0.01, 0, 0, 0, 0, 0
NKF4, 54883787, 0, 0, 0, 0, 0, 1.436054E-05, 0, 0, 0, 19, 229, 0, 0
NKF5, 54883787, 0, 0, 0, 0, 0.19, 0.13, 0, 0.19, 0.5, 7.498134E-05, 0.007910094, 0.01765847
NKQ1, 54883787, 0.8915306, -0.00506785, 0.007581674, 0.4528689
AHR2, 54883833, -0.11, -0.23, 49.17, 0.01, 0, 0, 0.9093432, -8.410073E-05, -0.002249348, 0.4160407
MOTB, 54883840, 1, 1, 0, 1
RCIN, 54883844, 0, 0, 0, 0, 0, 0, 0, 0, 0, 0, 0, 0, 0, 0
RCOU, 54883850, 1120, 1120, 1120, 1120, 0, 0, 0, 0, 0, 0, 0, 0, 0, 0
VIBE, 54883858, 0.01938406, 0.01743067, 0.03243211, 0, 0, 0
CTRL, 54883865, 0.001703515, 0.0001791618, 0.004925677, 0.0003165192, 7.986881E-05
PRX, 54883895, 2, 0.63, 0, 0.49, 0, 3.6, 0, 2.51, 0, 0, 90, 0.49
IMU, 54903587, 0.001052117, 2.186357E-05, 0.0002787866, 0.2263701, 0.03541235, -9.796348, 0, 0, 36.62978, 1, 1, 1000, 1000
RFND, 54933465, 0.2, 25, 0, 0
IMU, 54943544, -0.001002251, -0.001915756, 8.618013E-06, 0.2333052, 0.01281981, -9.807739, 0, 0, 36.62855, 1, 1, 1000, 1000
MAG, 54983557, 396, 577, 409, 0, 0, 0, 0, 0, 0, 1, 54983548
RFND, 54983586, 0.2, 25, 0, 0
BARO, 54983624, 0.02543148, 993.4955, 34.65, 0.05033312, 54983, 0, 35
CTUN, 54983707, 0, 0, 0, 0.3210891, 0.05409573, 0.05409573, 0.02, 0, 0.19, 0, 0, 0
ATT, 54983942, 0, -0.15, 0, -0.46, 53.86, 53.85, 0, 1
RATE, 54983950, 0.7169098, 0.03381611, 0.001433069, 2.103752, -0.005417989, 0.004950602, 0.002956377, -0.008691841, -6.988889E-06, 382.3857, -0.8395195, 0
NKF1, 54983958, -0.15, -0.46, 53.85, 0.1368247, 0.1619669, 0.009441621, 0, 0, 0, -0.05409573, -0.02, 0.03, -0.01
NKF2, 54983958, 0, 0, 0, 0, 0, 0, 0, 0, 0, 0, 0, 0, 0
NKF3, 54983958, 0, 0, 0, 0.32, 0.35, 0.01, 0, 0, 0, 0, 0
NKF4, 54983958, 0, 0, 0, 0, 0, 1.556651E-05, 0, 0, 0, 19, 229, 0, 0
NKF5, 54983958, 0, 0, 0, 0, 0.19, 0.13, 0, 0.19, 0.5, 8.785215E-05, 0.006912986, 0.01517513
NKQ1, 54983958, 0.8915275, -0.005039278, 0.007549334, 0.4528758
AHR2, 54984007, -0.11, -0.23, 49.17, 0.02, 0, 0, 0.9093435, -8.199232E-05, -0.002267618, 0.41604
MOTB, 54984014, 1, 1, 0, 1
RCIN, 54984018, 0, 0, 0, 0, 0, 0, 0, 0, 0, 0, 0, 0, 0, 0
RCOU, 54984024, 1144, 1144, 1144, 1144, 0, 0, 0, 0, 0, 0, 0, 0, 0, 0
VIBE, 54984032, 0.02061285, 0.02130906, 0.03224094, 0, 0, 0
CTRL, 54984039, 0.001693625, 0.0001763789, 0.004968498, 0.0003384699, 6.615475E-05
PRX, 54984070, 2, 0.63, 0, 0.5, 0, 3.6, 0, 2.52, 0, 0, 90, 0.5
IMU, 54984076, 0.0001643019, 0.0004667506, -0.000459853, 0.2104581, 0.03289644, -9.803003, 0, 0, 36.62828, 1, 1, 1000, 1000
IMU, 55023620, -1.299274E-05, 0.0005277309, 0.0001608989, 0.2271426, 0.02542171, -9.818159, 0, 0, 36.62989, 1, 1, 1000, 1000
RFND, 55033848, 0.2, 25, 0, 0
IMU, 55063824, -0.0002974504, -0.001211567, 0.001145939, 0.2251088, 0.03147476, -9.80418, 0, 0, 36.63223, 1, 1, 1000, 1000
MAG, 55083601, 401, 576, 410, 0, 0, 0, 0, 0, 0, 1, 55083592
RFND, 55083708, 0.2, 25, 0, 0
BARO, 55083748, 0.04238579, 993.4938, 34.65, 0.4541963, 55083, 0, 35
CTUN, 55083867, 0, 0, 0, 0.3210891, 0.05411113, 0.05411113, 0.04, 0, 0.19, 0, 0, 0
ATT, 55083954, 0, -0.15, 0, -0.47, 53.86, 53.86, 0, 1
RATE, 55083960, 0.7156224, -0.02679703, 0.001876828, 2.130366, -0.0833675, 0.005276019, 0.002956558, 0.01470274, -0.0001285169, 372.7864, -0.4137993, 0
NKF1, 55083968, -0.15, -0.47, 53.86, 0.1391146, 0.1658774, 0.009204602, 0, 0, 0, -0.05411113, -0.02, 0.03, -0.01
NKF2, 55083968, 0, 0, 0, 0, 0, 0, 0, 0, 0, 0, 0, 0, 0
NKF3, 55083968, 0, 0, 0, 0.32, 0.35, 0.01, 0, 0, 0, 0, 0
NKF4, 55083968, 0, 0, 0, 0, 0, 1.748337E-05, 0, 0, 0, 19, 229, 0, 0
NKF5, 55083968, 0, 0, 0, 0, 0.19, 0.13, 0, 0.19, 0.5, 8.028412E-05, 0.007085691, 0.01545687
NKQ1, 55083968, 0.8915117, -0.005013772, 0.007505847, 0.4529078
AHR2, 55084014, -0.11, -0.23, 49.17, 0.04, 0, 0, 0.9093315, -8.191275E-05, -0.002298489, 0.416066
MOTB, 55084022, 1, 1, 0, 1
RCIN, 55084027, 0, 0, 0, 0, 0, 0, 0, 0, 0, 0, 0, 0, 0, 0
RCOU, 55084032, 1168, 1168, 1168, 1168, 0, 0, 0, 0, 0, 0, 0, 0, 0, 0
VIBE, 55084041, 0.02089787, 0.01863618, 0.03164874, 0, 0, 0
CTRL, 55084048, 0.00168098, 0.0001557774, 0.005025127, 0.0002981886, 7.007192E-05
PRX, 55084079, 2, 0.63, 0, 0.5, 0, 3.6, 0, 2.51, 0, 0, 90, 0.5
IMU, 55104302, 3.376544E-05, 0.0009720263, -0.0004622843, 0.2239377, 0.03151286, -9.797112, 0, 0, 36.63389, 1, 1, 1000, 1000
RFND, 55133555, 0.2, 25, 0, 0
IMU, 55143627, 0.000258124, 0.001211783, 0.003836441, 0.2144283, 0.01115051, -9.818239, 0, 0, 36.63538, 1, 1, 1000, 1000
MAG, 55183523, 400, 580, 410, 0, 0, 0, 0, 0, 0, 1, 55183514
RFND, 55183556, 0.2, 25, 0, 0
BARO, 55183591, 0.02543148, 993.4955, 34.65, 0.510971, 55183, 0, 35
CTUN, 55183604, 0, 0, 0, 0.3210891, 0.05398197, 0.05398197, 0.02, 0, 0.19, 0, 0, 0
ATT, 55183747, 0, -0.15, 0, -0.47, 53.86, 53.85, 0, 1
RATE, 55183753, 0.7050714, 0.04327952, 0.001435654, 2.135725, -0.03217125, 0.004587215, 0.002925805, -0.3275674, 0.0004152, 388.8004, -1.616669, 0
NKF1, 55183762, -0.15, -0.47, 53.85, 0.1409588, 0.1695763, 0.009600011, 0, 0, 0, -0.05398197, -0.02, 0.03, -0.01
NKF2, 55183762, 0, 0, 0, 0, 0, 0, 0, 0, 0, 0, 0, 0, 0
NKF3, 55183762, 0, 0, 0, 0.35, 0.38, 0.01, 0, 0, 0, 0, 0
NKF4, 55183762, 0, 0, 0, 0, 0, 1.908015E-05, 0, 0, 0, 19, 229, 0, 0
NKF5, 55183762, 0, 0, 0, 0, 0.19, 0.13, 0, 0.19, 0.5, 9.602316E-05, 0.006060564, 0.01283772
NKQ1, 55183762, 0.8915271, -0.004996105, 0.007503867, 0.4528778
AHR2, 55183911, -0.11, -0.23, 49.16, 0.02, 0, 0, 0.9093488, -8.904104E-05, -0.00228902, 0.4160283
MOTB, 55183921, 1, 1, 0, 1
RCIN, 55183925, 0, 0, 0, 0, 0, 0, 0, 0, 0, 0, 0, 0, 0, 0
RCOU, 55183930, 1192, 1192, 1192, 1192, 0, 0, 0, 0, 0, 0, 0, 0, 0, 0
VIBE, 55183939, 0.1111327, 0.149335, 0.1537161, 0, 0, 0
CTRL, 55183945, 0.001677343, 0.0002033815, 0.005050898, 0.0003129211, 0.0001071848
PRX, 55183976, 2, 0.63, 0, 0.5, 0, 3.6, 0, 2.52, 0, 0, 90, 0.5
IMU, 55183983, 0.0003284464, 4.858775E-07, -0.006025155, 0.2229999, 0.02964701, -9.795021, 0, 0, 36.63685, 1, 1, 1000, 1000
IMU, 55223553, -0.0008351073, 0.001943207, -0.01269755, 0.4336275, 0.03298257, -9.946356, 0, 0, 36.63799, 1, 1, 1000, 1000
RFND, 55233483, 0.2, 25, 0, 0
IMU, 55263480, -0.004024995, 0.005226165, 0.02626541, 0.08962484, 0.0402928, -9.827749, 0, 0, 36.63873, 1, 1, 1000, 1000
MAG, 55283896, 405, 568, 412, 0, 0, 0, 0, 0, 0, 1, 55283888
RFND, 55283929, 0.2, 25, 0, 0
BARO, 55283965, -0.02260576, 993.5008, 34.65, 0.2729205, 55283, 0, 35
CTUN, 55283978, 0, 0, 0, 0.3210891, 0.05395088, 0.05395088, -0.02, 0, 0.19, 0, 0, 0
ATT, 55284341, 0, -0.16, 0, -0.45, 53.86, 53.86, 0, 1
RATE, 55284349, 0.7439429, -0.1883799, 0.001655825, 2.050509, -0.127036, 0.005478552, 0.003017714, -1.920321, -0.0001833873, 297.467, 7.04546, 0
NKF1, 55284358, -0.16, -0.45, 53.86, 0.1452469, 0.1717173, 0.007344864, 0, 0, 0, -0.05395088, -0.02, 0.03, -0.01
NKF2, 55284358, 0, 0, 0, 0, 0, 0, 0, 0, 0, 0, 0, 0, 0
NKF3, 55284358, 0, 0, 0, 0.35, 0.38, 0.01, 0, 0, 0, 0, 0
NKF4, 55284358, 0, 0, 0, 0, 0, 2.114555E-05, 0, 0, 0, 19, 229, 0, 0
NKF5, 55284358, 0, 0, 0, 0, 0.19, 0.13, 0, 0.19, 0.5, 8.679192E-05, 0.006331027, 0.01343101
NKQ1, 55284358, 0.8915043, -0.0051645, 0.007614979, 0.452919
AHR2, 55284467, -0.13, -0.21, 49.17, -0.02, 0, 0, 0.9093317, -0.0002765383, -0.002158598, 0.4160663
MOTB, 55284479, 1, 1, 0, 1
RCIN, 55284483, 0, 0, 0, 0, 0, 0, 0, 0, 0, 0, 0, 0, 0, 0
RCOU, 55284489, 1216, 1216, 1216, 1216, 0, 0, 0, 0, 0, 0, 0, 0, 0, 0
VIBE, 55284497, 0.3892255, 0.3732363, 0.4702882, 0, 0, 0
CTRL, 55284504, 0.001843325, 0.0005533878, 0.004909802, 0.000698586, 0.0005983039
PRX, 55284536, 2, 0.63, 0, 0.5, 0, 3.6, 0, 2.52, 0, 0, 90, 0.5
IMU, 55303640, 0.003541141, 0.009310173, -0.007839514, 0.2163139, 0.08757961, -9.748161, 0, 0, 36.63839, 1, 1, 1000, 1000
RFND, 55333533, 0.2, 25, 0, 0
IMU, 55343968, -0.001648781, 0.003068709, -0.01615284, 0.3348847, 0.01847468, -9.874876, 0, 0, 36.63849, 1, 1, 1000, 1000
MAG, 55383980, 408, 577, 407, 0, 0, 0, 0, 0, 0, 1, 55383972
RFND, 55384013, 0.2, 25, 0, 0
BARO, 55384051, -0.03956007, 993.5029, 34.65, -0.01593875, 55384, 0, 35
CTUN, 55384064, 0, 0, 0, 0.3210891, 0.05391818, 0.05391818, -0.03, 0, 0.19, 0, 0, 0
ATT, 55384196, 0, -0.17, 0, -0.45, 53.88, 53.87, 0, 1
RATE, 55384202, 0.7898719, -0.2937289, 0.004460014, 2.033256, -0.5836703, 0.009871945, 0.003171519, 0.4011699, -0.000161347, 369.1122, -2.067947, 0
NKF1, 55384210, -0.17, -0.45, 53.87, 0.1463641, 0.1761034, 0.009113882, 0, 0, 0, -0.05391818, -0.02, 0.03, -0.01
NKF2, 55384210, 0, 0, 0, 0, 0, 0, 0, 0, 0, 0, 0, 0, 0
NKF3, 55384210, 0, 0, 0, 0.37, 0.4, 0.01, 0, 0, 0, 0, 0
NKF4, 55384210, 0, 0, 0, 0, 0, 2.313959E-05, 0, 0, 0, 19, 229, 0, 0
NKF5, 55384210, 0, 0, 0, 0, 0.19, 0.13, 0, 0.19, 0.5, 0.0001055777, 0.00527624, 0.01066611
NKQ1, 55384210, 0.8914527, -0.005222068, 0.007608217, 0.4530196
AHR2, 55384255, -0.13, -0.2, 49.18, -0.03, 0, 0, 0.9092872, -0.0003603077, -0.002141903, 0.4161636
MOTB, 55384263, 1, 1, 0, 1
RCIN, 55384267, 0, 0, 0, 0, 0, 0, 0, 0, 0, 0, 0, 0, 0, 0
RCOU, 55384306, 1237, 1228, 1245, 1221, 0, 0, 0, 0, 0, 0, 0, 0, 0, 0
VIBE, 55384315, 0.4628265, 0.3922253, 0.6369902, 0, 0, 0
CTRL, 55384321, 0.001827699, 0.0007946927, 0.004776785, 0.001394566, 0.0005610797
PRX, 55384353, 2, 0.63, 0, 0.5, 0, 3.6, 0, 2.51, 0, 0, 90, 0.5
IMU, 55384360, -0.005552851, -0.009626579, 0.006695152, 0.1730384, -0.004345055, -9.791459, 0, 0, 36.63848, 1, 1, 1000, 1000
IMU, 55424194, 0.006533605, 0.008986922, -0.01164394, 0.1303472, -0.01810396, -9.815891, 0, 0, 36.63852, 1, 1, 1000, 1000
RFND, 55433900, 0.2, 25, 0, 0
IMU, 55463644, 0.004239383, 0.0161213, -0.02533907, 0.1905321, 0.02314874, -9.801779, 0, 0, 36.6385, 1, 1, 1000, 1000
MAG, 55483649, 406, 578, 417, 0, 0, 0, 0, 0, 0, 1, 55483640
RFND, 55483684, 0.2, 25, 0, 0
BARO, 55483720, -0.1186802, 993.5117, 34.65, -0.2232059, 55483, 0, 35
CTUN, 55483734, 0, 0, 0, 0.3210891, 0.05379862, 0.05379862, -0.11, 0, 0.19, 0, 0, -1
ATT, 55483944, 0, -0.16, 0, -0.41, 53.86, 53.85, 0, 1
RATE, 55483951, 0.7275313, 0.3414625, 0.0008329459, 1.879288, 0.4095849, 0.005072692, 0.00255517, 0.7623174, 0.0008597302, 440.0538, -6.931973, 0
NKF1, 55483959, -0.16, -0.41, 53.85, 0.1478425, 0.1806801, 0.01086553, 0, 0, 0, -0.05379862, -0.02, 0.03, -0.01
NKF2, 55483959, 0, 0, 0, 0, 0, 0, 0, 0, 0, 0, 0, 0, 0
NKF3, 55483959, 0, 0, 0, 0.37, 0.4, 0.01, 0, 0, 0, 0, 0
NKF4, 55483959, 0, 0, 0, 0, 0, 2.527128E-05, 0, 0, 0, 19, 229, 0, 0
NKF5, 55483959, 0, 0, 0, 0, 0.18, 0.13, 0, 0.19, 0.5, 9.414809E-05, 0.005648726, 0.01156453
NKQ1, 55483959, 0.8915274, -0.005243346, 0.007931315, 0.452867
AHR2, 55484004, -0.12, -0.16, 49.16, -0.11, 0, 0, 0.9093619, -0.0003968852, -0.001800209, 0.4160019
MOTB, 55484011, 1, 1, 0, 1
RCIN, 55484015, 0, 0, 0, 0, 0, 0, 0, 0, 0, 0, 0, 0, 0, 0
RCOU, 55484021, 1231, 1224, 1231, 1221, 0, 0, 0, 0, 0, 0, 0, 0, 0, 0
VIBE, 55484029, 0.3632131, 0.3413358, 0.513429, 0, 0, 0
CTRL, 55484036, 0.001794746, 0.0009736232, 0.004614, 0.001904268, 0.0005779469
PRX, 55484067, 2, 0.63, 0, 0.5, 0, 3.6, 0, 2.5, 0, 0, 90, 0.5
IMU, 55504071, -0.008676955, -0.011822, -0.002129887, 0.2474781, 0.05291701, -9.779066, 0, 0, 36.63845, 1, 1, 1000, 1000
RFND, 55533548, 0.2, 25, 0, 0
IMU, 55543674, -0.0001958627, 0.004957047, 0.004848392, 0.2170533, 0.05352464, -9.745226, 0, 0, 36.63968, 1, 1, 1000, 1000
MAG, 55583869, 405, 582, 412, 0, 0, 0, 0, 0, 0, 1, 55583860
RFND, 55583942, 0.2, 25, 0, 0
BARO, 55583984, -0.1638917, 993.5167, 34.65, -0.3615401, 55583, 0, 35
CTUN, 55583997, 0, 0, 0, 0.3210891, 0.05363259, 0.05363259, -0.16, 0, 0.19, 0, 0, -1
ATT, 55584128, 0, -0.16, 0, -0.4, 53.81, 53.81, 0, 1
RATE, 55584134, 0.7191503, 0.548911, -0.001900885, 1.811835, 1.262923, -0.002633906, 0.002554689, -1.977044, 0.001391979, 501.0168, -4.601002, 0
NKF1, 55584142, -0.16, -0.4, 53.81, 0.1510605, 0.1838839, 0.01237078, 0, 0, 0, -0.05363259, -0.02, 0.03, -0.01
NKF2, 55584142, 0, 0, 0, 0, 0, 0, 0, 0, 0, 0, 0, 0, 0
NKF3, 55584142, 0, 0, 0, 0.39, 0.43, 0.01, 0, 0, 0, 0, 0
NKF4, 55584142, 0, 0, 0, 0, 0, 2.771589E-05, 0, 0, 0, 19, 229, 0, 0
NKF5, 55584142, 0, 0, 0, 0, 0.19, 0.13, 0, 0.19, 0.5, 0.0001164791, 0.00455767, 0.008622592
NKQ1, 55584142, 0.8917117, -0.005325164, 0.008053608, 0.4525011
AHR2, 55584188, -0.13, -0.15, 49.11, -0.16, 0, 0, 0.9095346, -0.0004898989, -0.001668569, 0.4156246
MOTB, 55584196, 1, 1, 0, 1
RCIN, 55584200, 0, 0, 0, 0, 0, 0, 0, 0, 0, 0, 0, 0, 0, 0
RCOU, 55584206, 1226, 1228, 1221, 1229, 0, 0, 0, 0, 0, 0, 0, 0, 0, 0
VIBE, 55584215, 0.3474276, 0.4667232, 0.5472766, 0, 0, 0
CTRL, 55584221, 0.001907332, 0.001618529, 0.004609156, 0.002670004, 0.0005692889
PRX, 55584252, 2, 0.63, 0, 0.5, 0, 3.6, 0, 2.52, 0, 0, 90, 0.5
IMU, 55584259, 0.009152861, 0.02260313, -0.03481216, 0.2785133, 0.1073244, -9.763862, 0, 0, 36.64121, 1, 1, 1000, 1000
IMU, 55623599, -0.008688619, -0.00282634, 0.0002116303, 0.2885041, 0.00751374, -9.840752, 0, 0, 36.64346, 1, 1, 1000, 1000
RFND, 55633994, 0.2, 25, 0, 0
IMU, 55663700, -0.003508234, -0.01459641, 0.009737344, 0.009980714, 0.004846051, -9.77762, 0, 0, 36.64608, 1, 1, 1000, 1000
MAG, 55683610, 408, 584, 412, 0, 0, 0, 0, 0, 0, 1, 55683601
RFND, 55683645, 0.2, 25, 0, 0
BARO, 55683683, -0.1073773, 993.51, 34.65, -0.4335713, 55683, 0, 35
CTUN, 55683697, 0, 0, 0, 0.3210891, 0.0532584, 0.0532584, -0.1, 0, 0.19, 0, 0, -1
ATT, 55683961, 0, -0.17, 0, -0.39, 53.86, 53.85, 0, 1
RATE, 55683968, 0.7738038, -0.3322964, 0.003476073, 1.773648, 0.3296297, -0.001407347, 0.002693073, -0.5507247, -0.0002072939, 502.7418, 0.3834724, 0
NKF1, 55683976, -0.17, -0.39, 53.85, 0.1530354, 0.1888646, 0.01241338, 0, 0, 0, -0.05325839, -0.02, 0.03, -0.01
NKF2, 55683976, 0, 0, 0, 0, 0, 0, 0, 0, 0, 0, 0, 0, 0
NKF3, 55683976, 0, 0, 0, 0.39, 0.43, 0.01, 0, 0, 0, 0, 0
NKF4, 55683976, 0, 0, 0, 0, 0, 2.992988E-05, 0, 0, 0, 19, 229, 0, 0
NKF5, 55683976, 0, 0, 0, 0, 0.18, 0.13, 0, 0.19, 0.5, 0.0001019861, 0.005032997, 0.009872974
NKQ1, 55683976, 0.8915284, -0.005435556, 0.008071676, 0.4528604
AHR2, 55684021, -0.14, -0.14, 49.16, -0.09999999, 0, 0, 0.9093689, -0.0006047047, -0.00163495, 0.415987
MOTB, 55684029, 1, 1, 0, 1
RCIN, 55684034, 0, 0, 0, 0, 0, 0, 0, 0, 0, 0, 0, 0, 0, 0
RCOU, 55684039, 1221, 1229, 1227, 1223, 0, 0, 0, 0, 0, 0, 0, 0, 0, 0
VIBE, 55684048, 0.4141775, 0.4470333, 0.5508319, 0, 0, 0
CTRL, 55684054, 0.001938743, 0.001618122, 0.004560485, 0.002997551, 0.0005988646
PRX, 55684086, 2, 0.63, 0, 0.5, 0, 3.6, 0, 2.52, 0, 0, 90, 0.5
IMU, 55704071, 0.01276052, 0.01510188, 0.02677591, 0.1225592, 0.04754767, -9.834553, 0, 0, 36.64766, 1, 1, 1000, 1000
RFND, 55733543, 0.2, 25, 0, 0
IMU, 55743630, 0.005912442, 0.002942326, -0.006529646, 0.5253558, 0.08496608, -9.830448, 0, 0, 36.64781, 1, 1, 1000, 1000
MAG, 55784257, 402, 578, 414, 0, 0, 0, 0, 0, 0, 1, 55784247
RFND, 55784291, 0.2, 25, 0, 0
BARO, 55784329, -0.1525889, 993.5154, 34.66, -0.3567477, 55784, 0, 35
CTUN, 55784342, 0, 0, 0, 0.3210891, 0.0530667, 0.0530667, -0.15, 0, 0.19, 0, 0, -1
DU32, 55784380, 7, 33611992
ATT, 55784587, 0, -0.16, 0, -0.4, 53.88, 53.87, 0, 1
RATE, 55784596, 0.7485067, -0.8658012, 0.008566519, 1.799888, -0.5549042, 0.007592514, 0.002616221, 0.166418, -3.51955E-05, 523.2212, -7.617569, 0
NKF1, 55784604, -0.16, -0.4, 53.87, 0.1551514, 0.189799, 0.01291904, 0, 0, 0, -0.0530667, -0.02, 0.03, -0.01
NKF2, 55784604, 0, 0, 0, 0, 0, 0, 0, 0, 0, 0, 0, 0, 0
NKF3, 55784604, 0, 0, 0, 0.42, 0.46, 0.01, 0, 0, 0, 0, 0
NKF4, 55784604, 0, 0, 0, 0, 0, 3.290041E-05, 0, 0, 0, 19, 229, 0, 0
NKF5, 55784604, 0, 0, 0, 0, 0.18, 0.13, 0, 0.19, 0.5, 0.0001276947, 0.003904217, 0.006779193
NKQ1, 55784604, 0.8914481, -0.005359788, 0.00804833, 0.4530197
AHR2, 55784652, -0.13, -0.14, 49.18, -0.15, 0, 0, 0.9092971, -0.000534558, -0.001653785, 0.416144
MOTB, 55784660, 1, 1, 0, 1
RCIN, 55784665, 0, 0, 0, 0, 0, 0, 0, 0, 0, 0, 0, 0, 0, 0
RCOU, 55784670, 1234, 1235, 1248, 1221, 0, 0, 0, 0, 0, 0, 0, 0, 0, 0
VIBE, 55784679, 0.5063732, 0.4695478, 0.5373539, 0, 0, 0
CTRL, 55784685, 0.001899582, 0.001968616, 0.004473906, 0.003089155, 0.0006600897
PRX, 55784716, 2, 0.63, 0, 0.5, 0, 3.6, 0, 2.52, 0, 0, 90, 0.5
IMU, 55784723, -0.01553877, -0.009124663, 0.002599449, 0.3414971, 0.08480686, -9.732514, 0, 0, 36.64775, 1, 1, 1000, 1000
PM, 55784736, 52, 4000, 6795, 10, 0, 0, 24, 262144
IMU, 55824083, -0.003118845, 0.002354508, 0.007794017, 0.05205815, -0.04682455, -9.823879, 0, 0, 36.64789, 1, 1, 1000, 1000
RFND, 55834414, 0.2, 25, 0, 0
IMU, 55863666, 0.008425436, 0.007765592, -0.01229625, 0.4277035, 0.02055946, -9.808905, 0, 0, 36.64758, 1, 1, 1000, 1000
MAG, 55883970, 401, 578, 410, 0, 0, 0, 0, 0, 0, 1, 55883961
RFND, 55884004, 0.2, 25, 0, 0
BARO, 55884042, -0.06216583, 993.5049, 34.65, -0.1359672, 55884, 0, 35
CTUN, 55884056, 0, 0, 0, 0.3210891, 0.05255325, 0.05255325, -0.06, 0, 0.19, 0, 0, -1
ATT, 55884135, 0, -0.15, 0, -0.4, 53.88, 53.87, 0, 1
RATE, 55884141, 0.6882993, -0.08149046, 0.003596, 1.797451, -0.1687675, 0.00685634, 0.002415953, 0.9250033, -9.124003E-05, 552.9604, 1.706791, 0
NKF1, 55884149, -0.15, -0.4, 53.87, 0.1567293, 0.1940193, 0.01365334, 0, 0, 0, -0.05255325, -0.02, 0.03, -0.01
NKF2, 55884149, 0, 0, 0, 0, 0, 0, 0, 0, 0, 0, 0, 0, 0
NKF3, 55884149, 0, 0, 0, 0.44, 0.49, 0.01, 0, 0, 0, 0, 0
NKF4, 55884149, 0, 0, 0, 0, 0, 3.517688E-05, 0, 0, 0, 19, 229, 0, 0
NKF5, 55884149, 0, 0, 0, 0, 0.19, 0.13, 0, 0.19, 0.5, 0.0001552247, 0.002323105, 0.002541207
NKQ1, 55884149, 0.8914405, -0.00524702, 0.008105757, 0.4530351
AHR2, 55884196, -0.12, -0.14, 49.18, -0.06, 0, 0, 0.9092932, -0.0004272116, -0.00159381, 0.4161528
MOTB, 55884203, 1, 1, 0, 1
RCIN, 55884207, 0, 0, 0, 0, 0, 0, 0, 0, 0, 0, 0, 0, 0, 0
RCOU, 55884213, 1232, 1227, 1239, 1221, 0, 0, 0, 0, 0, 0, 0, 0, 0, 0
VIBE, 55884221, 0.4760632, 0.4516601, 0.5421367, 0, 0, 0
CTRL, 55884228, 0.001851194, 0.002059516, 0.004414439, 0.002726355, 0.0005465476
PRX, 55884259, 2, 0.63, 0, 0.5, 0, 3.6, 0, 2.5, 0, 0, 90, 0.5
IMU, 55903720, -0.00610273, -0.002416096, -0.00244738, 0.2586712, 0.03627525, -9.811821, 0, 0, 36.64595, 1, 1, 1000, 1000
RFND, 55933583, 0.2, 25, 0, 0
