FMT, 128, 89, FMT, BBnNZ, Type,Length,Name,Format,Columns
FMT, 129, 31, PARM, QNf, TimeUS,Name,Value
FMT, 130, 46, GPS, QBIHBcLLefffB, TimeUS,Status,GMS,GWk,NSats,HDop,Lat,Lng,Alt,Spd,GCrs,VZ,U
FMT, 131, 46, GPS2, QBIHBcLLefffB, TimeUS,Status,GMS,GWk,NSats,HDop,Lat,Lng,Alt,Spd,GCrs,VZ,U
FMT, 132, 46, GPSB, QBIHBcLLefffB, TimeUS,Status,GMS,GWk,NSats,HDop,Lat,Lng,Alt,Spd,GCrs,VZ,U
FMT, 193, 24, GPA, QCCCCBI, TimeUS,VDop,HAcc,VAcc,SAcc,VV,SMS
FMT, 194, 24, GPA2, QCCCCBI, TimeUS,VDop,HAcc,VAcc,SAcc,VV,SMS
FMT, 195, 24, GPAB, QCCCCBI, TimeUS,VDop,HAcc,VAcc,SAcc,VV,SMS
FMT, 133, 53, IMU, QffffffIIfBBHH, TimeUS,GyrX,GyrY,GyrZ,AccX,AccY,AccZ,EG,EA,T,GH,AH,GHz,AHz
FMT, 134, 75, MSG, QZ, TimeUS,Message
FMT, 135, 39, RCIN, QHHHHHHHHHHHHHH, TimeUS,C1,C2,C3,C4,C5,C6,C7,C8,C9,C10,C11,C12,C13,C14
FMT, 136, 39, RCOU, QHHHHHHHHHHHHHH, TimeUS,C1,C2,C3,C4,C5,C6,C7,C8,C9,C10,C11,C12,C13,C14
FMT, 137, 15, RSSI, Qf, TimeUS,RXRSSI
FMT, 139, 37, BARO, QffcfIff, TimeUS,Alt,Press,Temp,CRt,SMS,Offset,GndTemp
FMT, 140, 22, POWR, QffHB, TimeUS,Vcc,VServo,Flags,Safety
FMT, 143, 45, CMD, QHHHfffffff, TimeUS,CTot,CNum,CId,Prm1,Prm2,Prm3,Prm4,Lat,Lng,Alt
FMT, 144, 20, RAD, QBBBBBHH, TimeUS,RSSI,RemRSSI,TxBuf,Noise,RemNoise,RxErrors,Fixed
FMT, 146, 43, CAM, QIHLLeeeccC, TimeUS,GPSTime,GPSWeek,Lat,Lng,Alt,RelAlt,GPSAlt,Roll,Pitch,Yaw
FMT, 232, 43, TRIG, QIHLLeeeccC, TimeUS,GPSTime,GPSWeek,Lat,Lng,Alt,RelAlt,GPSAlt,Roll,Pitch,Yaw
FMT, 162, 30, ARSP, QffcffB, TimeUS,Airspeed,DiffPress,Temp,RawPress,Offset,U
FMT, 164, 45, CURR, QfffcHHHHHHHHHH, TimeUS,Volt,Curr,CurrTot,Temp,V1,V2,V3,V4,V5,V6,V7,V8,V9,V10
FMT, 165, 45, CUR2, QfffcHHHHHHHHHH, TimeUS,Volt,Curr,CurrTot,Temp,V1,V2,V3,V4,V5,V6,V7,V8,V9,V10
FMT, 163, 27, ATT, QccccCCCC, TimeUS,DesRoll,Roll,DesPitch,Pitch,DesYaw,Yaw,ErrRP,ErrYaw
FMT, 166, 34, MAG, QhhhhhhhhhBI, TimeUS,MagX,MagY,MagZ,OfsX,OfsY,OfsZ,MOfsX,MOfsY,MOfsZ,Health,S
FMT, 169, 14, MODE, QMBB, TimeUS,Mode,ModeNum,Rsn
FMT, 196, 17, RFND, QCBCB, TimeUS,Dist1,Orient1,Dist2,Orient2
FMT, 223, 33, DMS, IIIIIBBBBBBBBBB, TimeMS,N,Dp,RT,RS,Er,Fa,Fmn,Fmx,Pa,Pmn,Pmx,Sa,Smn,Smx
FMT, 240, 41, BCN, QBBfffffff, TimeUS,Health,Cnt,D0,D1,D2,D3,PosX,PosY,PosZ
FMT, 138, 53, IMU2, QffffffIIfBBHH, TimeUS,GyrX,GyrY,GyrZ,AccX,AccY,AccZ,EG,EA,T,GH,AH,GHz,AHz
FMT, 147, 53, IMU3, QffffffIIfBBHH, TimeUS,GyrX,GyrY,GyrZ,AccX,AccY,AccZ,EG,EA,T,GH,AH,GHz,AHz
FMT, 141, 45, AHR2, QccCfLLffff, TimeUS,Roll,Pitch,Yaw,Alt,Lat,Lng,Q1,Q2,Q3,Q4
FMT, 180, 31, POS, QLLfff, TimeUS,Lat,Lng,Alt,RelHomeAlt,RelOriginAlt
FMT, 142, 45, SIM, QccCfLLffff, TimeUS,Roll,Pitch,Yaw,Alt,Lat,Lng,Q1,Q2,Q3,Q4
FMT, 198, 51, NKF1, QccCfffffffccc, TimeUS,Roll,Pitch,Yaw,VN,VE,VD,dPD,PN,PE,PD,GX,GY,GZ
FMT, 199, 35, NKF2, QbccccchhhhhhB, TimeUS,AZbias,GSX,GSY,GSZ,VWN,VWE,MN,ME,MD,MX,MY,MZ,MI
FMT, 200, 33, NKF3, Qcccccchhhcc, TimeUS,IVN,IVE,IVD,IPN,IPE,IPD,IMX,IMY,IMZ,IYAW,IVT
FMT, 201, 35, NKF4, QcccccfbbHBHHb, TimeUS,SV,SP,SH,SM,SVT,errRP,OFN,OFE,FS,TS,SS,GPS,PI
FMT, 202, 40, NKF5, QBhhhcccCCfff, TimeUS,NI,FIX,FIY,AFI,HAGL,offset,RI,rng,Herr,eAng,eVel,ePos
FMT, 203, 51, NKF6, QccCfffffffccc, TimeUS,Roll,Pitch,Yaw,VN,VE,VD,dPD,PN,PE,PD,GX,GY,GZ
FMT, 204, 35, NKF7, QbccccchhhhhhB, TimeUS,AZbias,GSX,GSY,GSZ,VWN,VWE,MN,ME,MD,MX,MY,MZ,MI
FMT, 205, 33, NKF8, Qcccccchhhcc, TimeUS,IVN,IVE,IVD,IPN,IPE,IPD,IMX,IMY,IMZ,IYAW,IVT
FMT, 206, 35, NKF9, QcccccfbbHBHHb, TimeUS,SV,SP,SH,SM,SVT,errRP,OFN,OFE,FS,TS,SS,GPS,PI
FMT, 207, 36, NKF0, QBccCCcccccccc, TimeUS,ID,rng,innov,SIV,TR,BPN,BPE,BPD,OFH,OFL,OFN,OFE,OFD
FMT, 208, 27, NKQ1, Qffff, TimeUS,Q1,Q2,Q3,Q4
FMT, 209, 27, NKQ2, Qffff, TimeUS,Q1,Q2,Q3,Q4
FMT, 210, 51, XKF1, QccCfffffffccc, TimeUS,Roll,Pitch,Yaw,VN,VE,VD,dPD,PN,PE,PD,GX,GY,GZ
FMT, 211, 34, XKF2, QccccchhhhhhB, TimeUS,AX,AY,AZ,VWN,VWE,MN,ME,MD,MX,MY,MZ,MI
FMT, 212, 33, XKF3, Qcccccchhhcc, TimeUS,IVN,IVE,IVD,IPN,IPE,IPD,IMX,IMY,IMZ,IYAW,IVT
FMT, 213, 35, XKF4, QcccccfbbHBHHb, TimeUS,SV,SP,SH,SM,SVT,errRP,OFN,OFE,FS,TS,SS,GPS,PI
FMT, 214, 40, XKF5, QBhhhcccCCfff, TimeUS,NI,FIX,FIY,AFI,HAGL,offset,RI,rng,Herr,eAng,eVel,ePos
FMT, 215, 51, XKF6, QccCfffffffccc, TimeUS,Roll,Pitch,Yaw,VN,VE,VD,dPD,PN,PE,PD,GX,GY,GZ
FMT, 216, 34, XKF7, QccccchhhhhhB, TimeUS,AX,AY,AZ,VWN,VWE,MN,ME,MD,MX,MY,MZ,MI
FMT, 217, 33, XKF8, Qcccccchhhcc, TimeUS,IVN,IVE,IVD,IPN,IPE,IPD,IMX,IMY,IMZ,IYAW,IVT
FMT, 218, 35, XKF9, QcccccfbbHBHHb, TimeUS,SV,SP,SH,SM,SVT,errRP,OFN,OFE,FS,TS,SS,GPS,PI
FMT, 219, 36, XKF0, QBccCCcccccccc, TimeUS,ID,rng,innov,SIV,TR,BPN,BPE,BPD,OFH,OFL,OFN,OFE,OFD
FMT, 220, 27, XKQ1, Qffff, TimeUS,Q1,Q2,Q3,Q4
FMT, 221, 27, XKQ2, Qffff, TimeUS,Q1,Q2,Q3,Q4
FMT, 222, 35, XKFD, Qffffff, TimeUS,IX,IY,IZ,IVX,IVY,IVZ
FMT, 148, 34, TERR, QBLLHffHH, TimeUS,Status,Lat,Lng,Spacing,TerrH,CHeight,Pending,Loaded
FMT, 149, 18, UBX1, QBHBBH, TimeUS,Instance,noisePerMS,jamInd,aPower,agcCnt
FMT, 150, 16, UBX2, QBbBbB, TimeUS,Instance,ofsI,magI,ofsQ,magQ
FMT, 151, 18, UBY1, QBHBBH, TimeUS,Instance,noisePerMS,jamInd,aPower,agcCnt
FMT, 152, 16, UBY2, QBbBbB, TimeUS,Instance,ofsI,magI,ofsQ,magQ
FMT, 170, 42, GRAW, QIHBBddfBbB, TimeUS,WkMS,Week,numSV,sv,cpMes,prMes,doMes,mesQI,cno,lli
FMT, 171, 24, GRXH, QdHbBB, TimeUS,rcvTime,week,leapS,numMeas,recStat
FMT, 172, 41, GRXS, QddfBBBHBBBBB, TimeUS,prMes,cpMes,doMes,gnss,sv,freq,lock,cno,prD,cpD,doD,trk
FMT, 173, 63, SBFE, QIHBBdddfffff, TimeUS,TOW,WN,Mode,Err,Lat,Lng,Height,Undul,Vn,Ve,Vu,COG
FMT, 153, 19, ESC1, Qcccc, TimeUS,RPM,Volt,Curr,Temp
FMT, 154, 19, ESC2, Qcccc, TimeUS,RPM,Volt,Curr,Temp
FMT, 155, 19, ESC3, Qcccc, TimeUS,RPM,Volt,Curr,Temp
FMT, 156, 19, ESC4, Qcccc, TimeUS,RPM,Volt,Curr,Temp
FMT, 157, 19, ESC5, Qcccc, TimeUS,RPM,Volt,Curr,Temp
FMT, 158, 19, ESC6, Qcccc, TimeUS,RPM,Volt,Curr,Temp
FMT, 159, 19, ESC7, Qcccc, TimeUS,RPM,Volt,Curr,Temp
FMT, 160, 19, ESC8, Qcccc, TimeUS,RPM,Volt,Curr,Temp
FMT, 167, 34, MAG2, QhhhhhhhhhBI, TimeUS,MagX,MagY,MagZ,OfsX,OfsY,OfsZ,MOfsX,MOfsY,MOfsZ,Health,S
FMT, 168, 34, MAG3, QhhhhhhhhhBI, TimeUS,MagX,MagY,MagZ,OfsX,OfsY,OfsZ,MOfsX,MOfsY,MOfsZ,Health,S
FMT, 174, 31, ACC1, QQfff, TimeUS,SampleUS,AccX,AccY,AccZ
FMT, 175, 31, ACC2, QQfff, TimeUS,SampleUS,AccX,AccY,AccZ
FMT, 176, 31, ACC3, QQfff, TimeUS,SampleUS,AccX,AccY,AccZ
FMT, 177, 31, GYR1, QQfff, TimeUS,SampleUS,GyrX,GyrY,GyrZ
FMT, 178, 31, GYR2, QQfff, TimeUS,SampleUS,GyrX,GyrY,GyrZ
FMT, 179, 31, GYR3, QQfff, TimeUS,SampleUS,GyrX,GyrY,GyrZ
FMT, 181, 35, PIDR, Qffffff, TimeUS,Des,P,I,D,FF,AFF
FMT, 182, 35, PIDP, Qffffff, TimeUS,Des,P,I,D,FF,AFF
FMT, 183, 35, PIDY, Qffffff, TimeUS,Des,P,I,D,FF,AFF
FMT, 184, 35, PIDA, Qffffff, TimeUS,Des,P,I,D,FF,AFF
FMT, 185, 35, PIDS, Qffffff, TimeUS,Des,P,I,D,FF,AFF
FMT, 186, 35, PIDL, Qffffff, TimeUS,Des,P,I,D,FF,AFF
FMT, 161, 37, BAR2, QffcfIff, TimeUS,Alt,Press,Temp,CRt,SMS,Offset,GndTemp
FMT, 197, 37, BAR3, QffcfIff, TimeUS,Alt,Press,Temp,CRt,SMS,Offset,GndTemp
FMT, 187, 35, VIBE, QfffIII, TimeUS,VibeX,VibeY,VibeZ,Clip0,Clip1,Clip2
FMT, 188, 47, IMT, Qfffffffff, TimeUS,DelT,DelvT,DelaT,DelAX,DelAY,DelAZ,DelVX,DelVY,DelVZ
FMT, 189, 47, IMT2, Qfffffffff, TimeUS,DelT,DelvT,DelaT,DelAX,DelAY,DelAZ,DelVX,DelVY,DelVZ
FMT, 190, 47, IMT3, Qfffffffff, TimeUS,DelT,DelvT,DelaT,DelAX,DelAY,DelAZ,DelVX,DelVY,DelVZ
FMT, 191, 24, ORGN, QBLLe, TimeUS,Type,Lat,Lng,Alt
FMT, 192, 19, RPM, Qff, TimeUS,rpm1,rpm2
FMT, 233, 47, GMB1, Iffffffffff, TimeMS,dt,dax,day,daz,dvx,dvy,dvz,jx,jy,jz
FMT, 234, 44, GMB2, IBfffffffff, TimeMS,es,ex,ey,ez,rx,ry,rz,tx,ty,tz
FMT, 235, 13, GMB3, Ihhh, TimeMS,rl_torque_cmd,el_torque_cmd,az_torque_cmd
FMT, 236, 59, RATE, Qffffffffffff, TimeUS,RDes,R,ROut,PDes,P,POut,YDes,Y,YOut,ADes,A,AOut
FMT, 237, 23, RALY, QBBLLh, TimeUS,Tot,Seq,Lat,Lng,Alt
FMT, 238, 43, VISO, Qffffffff, TimeUS,dt,AngDX,AngDY,AngDZ,PosDX,PosDY,PosDZ,conf
FMT, 224, 23, SBPH, QIII, TimeUS,CrcError,LastInject,IARhyp
FMT, 229, 80, SBR1, QHHBZ, TimeUS,msg_type,sender_id,msg_len,d1
FMT, 230, 205, SBR2, QHZZZ, TimeUS,msg_type,d2,d3,d4
FMT, 25, 41, ATUN, QBBfffffff, TimeUS,Axis,TuneStep,Targ,Min,Max,RP,RD,SP,ddt
FMT, 26, 19, ATDE, Qff, TimeUS,Angle,Rate
FMT, 31, 22, PTUN, QBfHHH, TimeUS,Param,TunVal,CtrlIn,TunLo,TunHi
FMT, 12, 28, OF, QBffff, TimeUS,Qual,flowX,flowY,bodyX,bodyY
FMT, 5, 51, NTUN, Qffffffffff, TimeUS,DPosX,DPosY,PosX,PosY,DVelX,DVelY,VelX,VelY,DAccX,DAccY
FMT, 4, 51, CTUN, Qffffffeccfhh, TimeUS,ThI,ABst,ThO,ThH,DAlt,Alt,BAlt,DSAlt,SAlt,TAlt,DCRt,CRt
FMT, 6, 32, PM, QHHIhBHII, TimeUS,NLon,NLoop,MaxT,PMT,I2CErr,INSErr,LogDrop,Mem
FMT, 30, 27, MOTB, Qffff, TimeUS,LiftMax,BatVolt,BatRes,ThLimit
FMT, 13, 12, EV, QB, TimeUS,Id
FMT, 20, 14, D16, QBh, TimeUS,Id,Value
FMT, 21, 14, DU16, QBH, TimeUS,Id,Value
FMT, 22, 16, D32, QBi, TimeUS,Id,Value
FMT, 23, 16, DU32, QBI, TimeUS,Id,Value
FMT, 24, 16, DFLT, QBf, TimeUS,Id,Value
FMT, 19, 13, ERR, QBB, TimeUS,Subsys,ECode
FMT, 32, 19, HELI, Qff, TimeUS,DRRPM,ERRPM
FMT, 33, 29, PL, QBBffff, TimeUS,Heal,TAcq,pX,pY,vX,vY
FMT, 34, 36, GUID, QBffffff, TimeUS,Type,pX,pY,pZ,vX,vY,vZ
FMT, 35, 32, THRO, QBffffbbbb, TimeUS,Stage,Vel,VelZ,Acc,AccEfZ,Throw,AttOk,HgtOk,PosOk
FMT, 36, 56, PRX, QBfffffffffff, TimeUS,Health,D0,D45,D90,D135,D180,D225,D270,D315,DUp,CAn,CDis
MODE, 37837209, 100, 100, 2
DU32, 37889246, 7, 50389208
FMT, 254, 47, NKT1, QIffffffff, TimeUS,Cnt,IMUMin,IMUMax,EKFMin,EKFMax,AngMin,AngMax,VelMin,VelM
FMT, 253, 31, CTRL, Qfffff, TimeUS,RMSRollP,RMSRollD,RMSPitchP,RMSPitchD,RMSYaw
MSG, 37998583, APM:Copter V3.5.7 (38483450)
MSG, 37998588, New mission
MSG, 37998601, Frame: QUAD
MODE, 37998606, Autonomous, 100, 2
IMU, 38012748, -0.001339285, -0.0003126825, -0.001038095, 0.1828638, 0.01176983, -9.851623, 0, 0, 33.09489, 1, 1, 1000, 1000
RFND, 38042669, 3.8, 25, 0, 0
IMU, 38052771, -0.0001624762, -1.252482E-05, 0.0002317083, 0.1844647, 0.01166328, -9.840117, 0, 0, 33.09652, 1, 1, 1000, 1000
MAG, 38092614, 396, 533, 356, 0, 0, 0, 0, 0, 0, 1, 38092585
RFND, 38092647, 3.8, 25, 0, 0
BARO, 38092684, -0.4890312, 993.5355, 31.03, -0.2867483, 38092, 0, 29.86
CTUN, 38092697, 0, 0, 0, 0.2735043, 0.008767463, 0.008767463, -0.48, 0, 3.79, 0, 0, 1
ATT, 38092780, 0, -0.11, 0, -0.66, 95.15, 95.14, 0, 1
RATE, 38092787, 0.5305716, 0.04458148, 0.0009979906, 2.979738, 0.07163057, 0.006633962, 0.002333473, 0.1782229, -0.000578206, -460.598, 1.882362, 0
NKF1, 38092794, -0.11, -0.66, 95.14, -0.008553697, 0.1093181, -0.01137279, 0, 0, 0, -0.008767463, 0, 0.02, -0.2
NKF2, 38092794, -4, 0, 0, 0, 0, 0, 0, 0, 0, 0, 0, 0, 0
NKF3, 38092794, 0, 0, 0, -0.02, 0.11, 0, 0, 0, 0, 0, 0
NKF4, 38092794, 0, 0, 0, 0, 0, 0.00043739, 0, 0, 0, 19, 229, 0, 0
NKF5, 38092794, 0, 0, 0, 0, 0.13, 0.13, 0, 0.13, 0.5, 0.0007578484, 0.004147944, 0.009899422
NKQ1, 38092794, 0.6746036, -0.005878293, 0.004414064, 0.7381437
AHR2, 38092838, -0.05, -0.54, 89.66, -0.48, 0, 0, 0.7091607, 0.003022716, -0.003743251, 0.7050305
MOTB, 38092846, 1, 1, 0, 1
RCIN, 38092850, 0, 0, 0, 0, 0, 0, 0, 0, 0, 0, 0, 0, 0, 0
RCOU, 38092856, 1101, 1101, 1101, 1101, 0, 0, 0, 0, 0, 0, 0, 0, 0, 0
VIBE, 38092864, 0.02009379, 0.0196937, 0.03275039, 0, 0, 0
CTRL, 38092871, 0.001235874, 0.0002135689, 0.007268695, 0.000187386, 0.0006313251
PRX, 38092901, 2, 0.58, 0, 0.63, 0, 0.66, 0, 2.42, 0, 0, 0, 0.58
IMU, 38092908, 0.0008937006, 0.001667607, -0.000397127, 0.1816781, 0.01546389, -9.869938, 0, 0, 33.09838, 1, 1, 1000, 1000
IMU, 38132728, 0.0004473591, -0.0003663562, -0.0001501223, 0.1795026, 0.01211834, -9.874535, 0, 0, 33.10067, 1, 1, 1000, 1000
RFND, 38142855, 7.65, 25, 0, 0
IMU, 38172663, 0.0003964524, -0.001832916, 0.0008629716, 0.1862905, 0.01241069, -9.868751, 0, 0, 33.10292, 1, 1, 1000, 1000
MAG, 38192661, 393, 541, 357, 0, 0, 0, 0, 0, 0, 1, 38192652
RFND, 38192694, 7.65, 25, 0, 0
BARO, 38192730, -0.4779168, 993.5342, 31.03, -0.2866451, 38192, 0, 29.86
CTUN, 38192744, 0, 0, 0, 0.2735043, 0.009315362, 0.009315362, -0.47, 0, 7.64, 0, 0, 1
ATT, 38192822, 0, -0.11, 0, -0.66, 95.16, 95.16, 0, 1
RATE, 38192828, 0.5348282, -0.005910959, 0.00133795, 2.985625, -0.148229, 0.007520043, 0.002164484, 0.1792186, -0.00065768, -511.3099, 1.237106, 0
NKF1, 38192835, -0.11, -0.66, 95.16, -0.007626549, 0.1091215, -0.01262494, 0, 0, 0, -0.009315362, 0, 0.02, -0.2
NKF2, 38192835, -4, 0, 0, 0, 0, 0, 0, 0, 0, 0, 0, 0, 0
NKF3, 38192835, 0, 0, 0, -0.02, 0.11, 0, 0, 0, 0, 0, 0
NKF4, 38192835, 0, 0, 0, 0, 0, 0.000269353, 0, 0, 0, 19, 229, 0, 0
NKF5, 38192835, 0, 0, 0, 0, 0.13, 0.13, 0, 0.13, 0.5, 0.000540277, 0.006266039, 0.01460229
NKQ1, 38192835, 0.6744998, -0.005874604, 0.004397605, 0.7382386
AHR2, 38192879, -0.05, -0.55, 89.66, -0.47, 0, 0, 0.7091582, 0.00306523, -0.003779317, 0.7050327
MOTB, 38192887, 1, 1, 0, 1
RCIN, 38192891, 0, 0, 0, 0, 0, 0, 0, 0, 0, 0, 0, 0, 0, 0
RCOU, 38192897, 1101, 1101, 1101, 1101, 0, 0, 0, 0, 0, 0, 0, 0, 0, 0
VIBE, 38192905, 0.01968714, 0.01998556, 0.0303986, 0, 0, 0
CTRL, 38192911, 0.001242558, 0.0002004635, 0.007234137, 0.0002042283, 0.0006203234
PRX, 38192942, 2, 0.58, 0, 0.62, 0, 3.6, 0, 2.44, 0, 0, 0, 0.58
IMU, 38212655, 0.001430403, -0.002108382, 0.0004239714, 0.1807779, 0.01090342, -9.858706, 0, 0, 33.10474, 1, 1, 1000, 1000
RFND, 38243940, 7.65, 25, 0, 0
IMU, 38252794, 0.000633238, -0.0004451587, 0.0004487416, 0.1855828, 0.009796216, -9.865591, 0, 0, 33.10662, 1, 1, 1000, 1000
MAG, 38292648, 394, 532, 351, 0, 0, 0, 0, 0, 0, 1, 38292640
RFND, 38292683, 7.65, 25, 0, 0
BARO, 38292720, -0.5446029, 993.5417, 31.04, -0.1695605, 38292, 0, 29.86
CTUN, 38292733, 0, 0, 0, 0.2735043, 0.009879273, 0.009879273, -0.54, 0, 7.64, 0, 0, 1
ATT, 38292812, 0, -0.11, 0, -0.66, 95.18, 95.18, 0, 1
RATE, 38292818, 0.5177575, 0.04167334, 0.0009722703, 2.996566, -0.05142754, 0.007304766, 0.001734342, 0.2197407, -0.0006415125, -535.2101, 0.810051, 0
NKF1, 38292825, -0.11, -0.66, 95.18, -0.006743735, 0.1103472, -0.01321506, 0, 0, 0, -0.009879273, 0, 0.02, -0.2
NKF2, 38292825, -4, 0, 0, 0, 0, 0, 0, 0, 0, 0, 0, 0, 0
NKF3, 38292825, 0, 0, 0, -0.02, 0.14, 0, 0, 0, 0, 0, 0
NKF4, 38292825, 0, 0, 0, 0, 0, 0.0001808394, 0, 0, 0, 19, 229, 0, 0
NKF5, 38292825, 0, 0, 0, 0, 0.13, 0.13, 0, 0.13, 0.5, 0.0003659089, 0.008141011, 0.01886434
NKQ1, 38292825, 0.6743836, -0.005836911, 0.004407857, 0.738345
AHR2, 38292870, -0.05, -0.56, 89.66, -0.54, 0, 0, 0.7091554, 0.003131068, -0.003780786, 0.7050352
MOTB, 38292877, 1, 1, 0, 1
RCIN, 38292881, 0, 0, 0, 0, 0, 0, 0, 0, 0, 0, 0, 0, 0, 0
RCOU, 38292887, 1101, 1101, 1101, 1101, 0, 0, 0, 0, 0, 0, 0, 0, 0, 0
VIBE, 38292895, 0.01818853, 0.01692478, 0.03220081, 0, 0, 0
CTRL, 38292902, 0.001218547, 0.0001797206, 0.007231377, 0.0001824902, 0.0006260644
PRX, 38292933, 2, 0.58, 0, 0.63, 0, 3.6, 0, 2.44, 0, 0, 0, 0.58
IMU, 38292940, 0.0008438879, -0.0004768311, 0.0002990675, 0.1723551, 0.003339275, -9.859761, 0, 0, 33.10854, 1, 1, 1000, 1000
IMU, 38332668, -0.0001862159, -0.001198807, -0.0001823287, 0.1716964, 0.001467498, -9.865799, 0, 0, 33.11028, 1, 1, 1000, 1000
RFND, 38342668, 7.65, 25, 0, 0
IMU, 38372784, 0.0002676363, -0.001024757, 0.001141023, 0.1869108, 0.01907861, -9.859302, 0, 0, 33.11196, 1, 1, 1000, 1000
MAG, 38393079, 394, 534, 351, 0, 0, 0, 0, 0, 0, 1, 38393071
RFND, 38393113, 7.65, 25, 0, 0
BARO, 38393151, -0.4612453, 993.532, 31.04, -0.06480994, 38393, 0, 29.86
CTUN, 38393164, 0, 0, 0, 0.2735043, 0.0104518, 0.0104518, -0.46, 0, 7.64, 0, 0, 1
ATT, 38393246, 0, -0.11, 0, -0.66, 95.2, 95.2, 0, 1
RATE, 38393252, 0.5205286, -0.04062975, 0.0014034, 3.005333, -0.01275457, 0.006820852, -0.0001404692, 0.2666942, -0.0006939472, -560.3186, 0.9357452, 0
NKF1, 38393259, -0.11, -0.66, 95.2, -0.006587368, 0.112492, -0.01383503, 0, 0, 0, -0.0104518, 0, 0.02, -0.2
NKF2, 38393259, -4, 0, 0, 0, 0, 0, 0, 0, 0, 0, 0, 0, 0
NKF3, 38393259, 0, 0, 0, -0.02, 0.14, 0, 0, 0, 0, 0, 0
NKF4, 38393259, 0, 0, 0, 0, 0, 0.0001217306, 0, 0, 0, 19, 229, 0, 0
NKF5, 38393259, 0, 0, 0, 0, 0.13, 0.13, 0, 0.13, 0.5, 0.0002230334, 0.009439572, 0.02191283
NKQ1, 38393259, 0.6742529, -0.005828681, 0.004393068, 0.7384645
AHR2, 38393418, -0.05, -0.56, 89.66, -0.46, 0, 0, 0.7091442, 0.00315888, -0.003799052, 0.7050462
MOTB, 38393431, 1, 1, 0, 1
RCIN, 38393435, 0, 0, 0, 0, 0, 0, 0, 0, 0, 0, 0, 0, 0, 0
RCOU, 38393441, 1101, 1101, 1101, 1101, 0, 0, 0, 0, 0, 0, 0, 0, 0, 0
VIBE, 38393450, 0.01790103, 0.02111131, 0.03477752, 0, 0, 0
CTRL, 38393457, 0.001216795, 0.000187691, 0.007223915, 0.0001861357, 0.0006330134
PRX, 38393488, 2, 0.58, 0, 0.63, 0, 3.6, 0, 2.42, 0, 0, 0, 0.58
IMU, 38412643, -0.0003816716, 0.0008415454, -0.001301855, 0.1831028, 0.01078811, -9.872497, 0, 0, 33.11345, 1, 1, 1000, 1000
RFND, 38442666, 7.65, 25, 0, 0
IMU, 38452912, 0.0001700298, -0.0004373617, 0.0003849483, 0.1757541, 0.01481557, -9.833755, 0, 0, 33.1147, 1, 1, 1000, 1000
MAG, 38492808, 390, 539, 361, 0, 0, 0, 0, 0, 0, 1, 38492800
RFND, 38492842, 7.65, 25, 0, 0
BARO, 38492878, -0.4001164, 993.5253, 31.04, -0.01058731, 38492, 0, 29.86
CTUN, 38492891, 0, 0, 0, 0.2735043, 0.01119248, 0.01119248, -0.4, 0, 7.64, 0, 0, 1
ATT, 38492970, 0, -0.11, 0, -0.66, 95.22, 95.22, 0, 1
RATE, 38492976, 0.5262765, 0.03895239, 0.001037748, 3.001697, 0.07702283, 0.006405535, 0.001857305, 0.1974457, -0.0006160933, -527.2944, -2.039051, 0
NKF1, 38492983, -0.11, -0.66, 95.22, -0.006293816, 0.1153044, -0.01301961, 0, 0, 0, -0.01119248, 0, 0.02, -0.2
NKF2, 38492983, -4, 0, 0, 0, 0, 0, 0, 0, 0, 0, 0, 0, 0
NKF3, 38492983, 0, 0, 0, -0.03, 0.16, 0, 0, 0, 0, 0, 0
NKF4, 38492983, 0, 0, 0, 0, 0, 8.217638E-05, 0, 0, 0, 19, 229, 0, 0
NKF5, 38492983, 0, 0, 0, 0, 0.13, 0.13, 0, 0.13, 0.5, 0.0001220152, 0.01021262, 0.02391272
NKQ1, 38492983, 0.6741393, -0.005843214, 0.004387558, 0.7385681
AHR2, 38493027, -0.05, -0.56, 89.66, -0.4, 0, 0, 0.7091554, 0.003155281, -0.003801155, 0.705035
MOTB, 38493034, 1, 1, 0, 1
RCIN, 38493038, 0, 0, 0, 0, 0, 0, 0, 0, 0, 0, 0, 0, 0, 0
RCOU, 38493043, 1101, 1101, 1101, 1101, 0, 0, 0, 0, 0, 0, 0, 0, 0, 0
VIBE, 38493052, 0.01863838, 0.01892568, 0.03399186, 0, 0, 0
CTRL, 38493058, 0.001238268, 0.0001670969, 0.007192438, 0.0001934809, 0.0006362131
PRX, 38493089, 2, 0.58, 0, 0.62, 0, 3.6, 0, 2.42, 0, 0, 0, 0.58
IMU, 38493096, 0.0007970716, 0.00176737, -0.0001101938, 0.1830469, -0.002768362, -9.831409, 0, 0, 33.11577, 1, 1, 1000, 1000
IMU, 38532682, -0.0004052325, -0.000298912, 0.0007786107, 0.1860459, 0.005905631, -9.839745, 0, 0, 33.1164, 1, 1, 1000, 1000
RFND, 38542683, 7.65, 25, 0, 0
IMU, 38572719, -0.0004688753, -0.0002530002, -0.000376381, 0.186338, 0.008446634, -9.86302, 0, 0, 33.11668, 1, 1, 1000, 1000
MAG, 38592606, 394, 531, 353, 0, 0, 0, 0, 0, 0, 1, 38592597
RFND, 38592639, 7.65, 25, 0, 0
BARO, 38592674, -0.4334595, 993.5287, 31.04, 0.1579025, 38592, 0, 29.86
CTUN, 38592688, 0, 0, 0, 0.2735043, 0.01149571, 0.01149571, -0.43, 0, 7.64, 0, 0, 1
ATT, 38592767, 0, -0.11, 0, -0.67, 95.24, 95.24, 0, 1
RATE, 38592773, 0.5322157, 0.01142261, 0.001141644, 3.021714, -0.08474384, 0.007596409, 0.001181298, 0.2418959, -0.0006324985, -511.9299, 0.2705574, 0
NKF1, 38592780, -0.11, -0.67, 95.24, -0.006364823, 0.1184433, -0.01264024, 0, 0, 0, -0.01149571, 0, 0.02, -0.2
NKF2, 38592780, -4, 0, 0, 0, 0, 0, 0, 0, 0, 0, 0, 0, 0
NKF3, 38592780, 0, 0, 0, -0.03, 0.16, 0, 0, 0, 0, 0, 0
NKF4, 38592780, 0, 0, 0, 0, 0, 5.603658E-05, 0, 0, 0, 19, 229, 0, 0
NKF5, 38592780, 0, 0, 0, 0, 0.13, 0.13, 0, 0.13, 0.5, 5.671475E-05, 0.01067824, 0.02511713
NKQ1, 38592780, 0.6740126, -0.005822663, 0.0043531, 0.7386841
AHR2, 38592823, -0.05, -0.56, 89.66, -0.43, 0, 0, 0.7091576, 0.003177617, -0.003830142, 0.7050324
MOTB, 38592830, 1, 1, 0, 1
RCIN, 38592834, 0, 0, 0, 0, 0, 0, 0, 0, 0, 0, 0, 0, 0, 0
RCOU, 38592839, 1101, 1101, 1101, 1101, 0, 0, 0, 0, 0, 0, 0, 0, 0, 0
VIBE, 38592848, 0.01990332, 0.01952543, 0.02896582, 0, 0, 0
CTRL, 38592854, 0.001251764, 0.0001606955, 0.007182231, 0.0001952632, 0.0006274413
PRX, 38592886, 2, 0.58, 0, 0.62, 0, 3.6, 0, 2.46, 0, 0, 0, 0.58
IMU, 38612656, 0.000912633, -0.001154318, 0.0002651743, 0.1707251, 0.01325896, -9.848408, 0, 0, 33.11643, 1, 1, 1000, 1000
RFND, 38642684, 7.65, 25, 0, 0
IMU, 38652802, -3.290973E-05, -0.001792665, 0.0002378507, 0.1889362, 0.009678678, -9.856066, 0, 0, 33.11672, 1, 1, 1000, 1000
MAG, 38692925, 394, 536, 354, 0, 0, 0, 0, 0, 0, 1, 38692916
RFND, 38692958, 7.65, 25, 0, 0
BARO, 38692995, -0.4223451, 993.5278, 31.05, 0.3021713, 38692, 0, 29.86
CTUN, 38693009, 0, 0, 0, 0.2735043, 0.01204665, 0.01204665, -0.42, 0, 7.64, 0, 0, 1
ATT, 38693091, 0, -0.11, 0, -0.67, 95.26, 95.26, 0, 1
RATE, 38693097, 0.536379, -0.03967853, 0.001308681, 3.052306, -0.02234106, 0.006954913, 0.001319908, 0.230208, -0.0006150559, -495.3315, -1.321602, 0
NKF1, 38693105, -0.11, -0.67, 95.26, -0.0065318, 0.1221737, -0.01223041, 0, 0, 0, -0.01204665, 0, 0.02, -0.2
NKF2, 38693105, -4, 0, 0, 0, 0, 0, 0, 0, 0, 0, 0, 0, 0
NKF3, 38693105, 0, 0, 0, -0.03, 0.16, 0, 0, 0, 0, 0, 0
NKF4, 38693105, 0, 0, 0, 0, 0, 3.854408E-05, 0, 0, 0, 19, 229, 0, 0
NKF5, 38693105, 0, 0, 0, 0, 0.14, 0.13, 0, 0.13, 0.5, 3.174882E-05, 0.01087864, 0.02571794
NKQ1, 38693105, 0.6738827, -0.005784518, 0.004305102, 0.7388033
AHR2, 38693149, -0.05, -0.57, 89.66, -0.42, 0, 0, 0.7091606, 0.003212877, -0.003870138, 0.7050291
MOTB, 38693156, 1, 1, 0, 1
RCIN, 38693160, 0, 0, 0, 0, 0, 0, 0, 0, 0, 0, 0, 0, 0, 0
RCOU, 38693165, 1101, 1101, 1101, 1101, 0, 0, 0, 0, 0, 0, 0, 0, 0, 0
VIBE, 38693173, 0.01920305, 0.01919586, 0.02933132, 0, 0, 0
CTRL, 38693180, 0.001265922, 0.0001676662, 0.007243474, 0.0001780144, 0.0006298124
PRX, 38693211, 2, 0.58, 0, 0.62, 0, 3.6, 0, 2.45, 0, 0, 0, 0.58
IMU, 38693217, -0.0005750871, 3.389984E-05, 0.0004552538, 0.1838439, 0.0121639, -9.838644, 0, 0, 33.11644, 1, 1, 1000, 1000
IMU, 38732790, -9.751202E-05, 0.0001014237, -0.0004652612, 0.1730455, 0.01354231, -9.871927, 0, 0, 33.11671, 1, 1, 1000, 1000
RFND, 38742659, 7.65, 25, 0, 0
IMU, 38772653, -0.00106229, -0.001294502, 0.001321645, 0.1775184, 0.01363416, -9.855041, 0, 0, 33.11681, 1, 1, 1000, 1000
MAG, 38792625, 390, 531, 350, 0, 0, 0, 0, 0, 0, 1, 38792616
RFND, 38792660, 7.65, 25, 0, 0
BARO, 38792695, -0.4001164, 993.5252, 31.05, 0.2207685, 38792, 0, 29.86
CTUN, 38792709, 0, 0, 0, 0.2735043, 0.01228884, 0.01228884, -0.4, 0, 7.64, 0, 0, 1
ATT, 38792789, 0, -0.12, 0, -0.68, 95.28, 95.28, 0, 1
RATE, 38792795, 0.5485257, 0.006133588, 0.001160402, 3.076036, -0.04190924, 0.007414824, -0.0005547791, 0.2453234, -0.0007048281, -517.3115, 2.056694, 0
NKF1, 38792803, -0.12, -0.68, 95.28, -0.006824974, 0.1262089, -0.01277312, 0, 0, 0, -0.01228884, 0, 0.02, -0.2
NKF2, 38792803, -4, 0, 0, 0, 0, 0, 0, 0, 0, 0, 0, 0, 0
NKF3, 38792803, 0, 0, 0, -0.03, 0.19, -0.01, 0, 0, 0, 0, 0
NKF4, 38792803, 0, 0, 0, 0, 0, 2.711953E-05, 0, 0, 0, 19, 229, 0, 0
NKF5, 38792803, 0, 0, 0, 0, 0.14, 0.13, 0, 0.13, 0.5, 3.248101E-05, 0.01080054, 0.02572175
NKQ1, 38792803, 0.6737323, -0.005767413, 0.004256362, 0.7389408
AHR2, 38792847, -0.05, -0.57, 89.66, -0.4, 0, 0, 0.7091441, 0.003224653, -0.003907149, 0.7050454
MOTB, 38792854, 1, 1, 0, 1
RCIN, 38792858, 0, 0, 0, 0, 0, 0, 0, 0, 0, 0, 0, 0, 0, 0
RCOU, 38792863, 1101, 1101, 1101, 1101, 0, 0, 0, 0, 0, 0, 0, 0, 0, 0
VIBE, 38792871, 0.0196559, 0.01880646, 0.03236218, 0, 0, 0
CTRL, 38792878, 0.001300622, 0.0001813265, 0.007268445, 0.0001851112, 0.0006370136
PRX, 38792908, 2, 0.58, 0, 0.62, 0, 3.6, 0, 2.42, 0, 0, 0, 0.58
IMU, 38812671, -0.001135514, -0.000450014, 0.0005728169, 0.183156, 0.005616223, -9.860893, 0, 0, 33.11691, 1, 1, 1000, 1000
RFND, 38843544, 7.65, 25, 0, 0
IMU, 38853158, -0.001084868, -0.0001323458, 0.0007644789, 0.1823501, 0.007866556, -9.858084, 0, 0, 33.11684, 1, 1, 1000, 1000
DU32, 38890015, 7, 50389208
MAG, 38892617, 391, 538, 352, 0, 0, 0, 0, 0, 0, 1, 38892609
RFND, 38892650, 7.65, 25, 0, 0
BARO, 38892686, -0.3000873, 993.5139, 31.06, 0.1182815, 38892, 0, 29.86
CTUN, 38892699, 0, 0, 0, 0.2735043, 0.01267876, 0.01267876, -0.3, 0, 7.64, 0, 0, 1
ATT, 38892777, 0, -0.12, 0, -0.68, 95.31, 95.3, 0, 1
RATE, 38892782, 0.5551031, 0.01019132, 0.001354477, 3.090289, -0.04421, 0.007486762, 0.001581487, 0.1826287, -0.0007065122, -538.4794, 0.1475334, 0
NKF1, 38892790, -0.12, -0.68, 95.3, -0.006774288, 0.1302802, -0.01329579, 0, 0, 0, -0.01267876, 0, 0.02, -0.2
NKF2, 38892790, -4, 0, 0, 0, 0, 0, 0, 0, 0, 0, 0, 0, 0
NKF3, 38892790, 0, 0, 0, -0.03, 0.19, -0.01, 0, 0, 0, 0, 0
NKF4, 38892790, 0, 0, 0, 0, 0, 1.962761E-05, 0, 0, 0, 19, 229, 0, 0
NKF5, 38892790, 0, 0, 0, 0, 0.14, 0.13, 0, 0.13, 0.5, 3.286429E-05, 0.01068168, 0.02552316
NKQ1, 38892790, 0.6735898, -0.005756885, 0.004225455, 0.739071
AHR2, 38892835, -0.05, -0.57, 89.66, -0.3, 0, 0, 0.7091348, 0.003229709, -0.003925376, 0.7050548
MOTB, 38892842, 1, 1, 0, 1
RCIN, 38892846, 0, 0, 0, 0, 0, 0, 0, 0, 0, 0, 0, 0, 0, 0
RCOU, 38892851, 1101, 1101, 1101, 1101, 0, 0, 0, 0, 0, 0, 0, 0, 0, 0
VIBE, 38892860, 0.02085028, 0.0185011, 0.03455693, 0, 0, 0
CTRL, 38892866, 0.001312251, 0.0001796938, 0.007299634, 0.000169489, 0.0006651109
PRX, 38892897, 2, 0.58, 0, 0.63, 0, 3.6, 0, 2.45, 0, 0, 0, 0.58
IMU, 38892904, 0.0002958925, -0.000345824, -0.0003925838, 0.1839695, 0.009369708, -9.853601, 0, 0, 33.11674, 1, 1, 1000, 1000
IMU, 38932667, 0.0002550103, -0.0002517834, -0.0004242114, 0.1820172, 0.01405831, -9.831333, 0, 0, 33.11654, 1, 1, 1000, 1000
RFND, 38942664, 7.65, 25, 0, 0
IMU, 38972771, 0.001682368, -0.0003628804, 0.0004422627, 0.1770129, 0.00981845, -9.871847, 0, 0, 33.11656, 1, 1, 1000, 1000
MAG, 38992621, 398, 532, 352, 0, 0, 0, 0, 0, 0, 1, 38992612
RFND, 38992697, 7.65, 25, 0, 0
BARO, 38992737, -0.3167588, 993.5162, 31.06, 0.2223623, 38992, 0, 29.86
CTUN, 38992751, 0, 0, 0, 0.2735043, 0.01307006, 0.01307006, -0.31, 0, 7.64, 0, 0, 1
ATT, 38992832, 0, -0.12, 0, -0.69, 95.33, 95.32, 0, 1
RATE, 38992837, 0.5474483, -0.007362928, 0.00138157, 3.119724, -0.05707875, 0.007280495, 0.002042845, 0.2017888, -0.0006744391, -507.2147, -1.856041, 0
NKF1, 38992846, -0.12, -0.69, 95.32, -0.006856895, 0.1344604, -0.01252382, 0, 0, 0, -0.01307006, 0, 0.02, -0.2
NKF2, 38992846, -4, 0, 0, 0, 0, 0, 0, 0, 0, 0, 0, 0, 0
NKF3, 38992846, 0, 0, 0, -0.03, 0.22, -0.01, 0, 0, 0, 0, 0
NKF4, 38992846, 0, 0, 0, 0, 0, 1.47045E-05, 0, 0, 0, 19, 229, 0, 0
NKF5, 38992846, 0, 0, 0, 0, 0.14, 0.13, 0, 0.13, 0.5, 2.993595E-05, 0.01031233, 0.02482731
NKQ1, 38992846, 0.6734512, -0.005704858, 0.004196916, 0.7391977
AHR2, 38992888, -0.05, -0.58, 89.67, -0.31, 0, 0, 0.7091306, 0.00327479, -0.003941887, 0.7050585
MOTB, 38992895, 1, 1, 0, 1
RCIN, 38992899, 0, 0, 0, 0, 0, 0, 0, 0, 0, 0, 0, 0, 0, 0
RCOU, 38992904, 1101, 1101, 1101, 1101, 0, 0, 0, 0, 0, 0, 0, 0, 0, 0
VIBE, 38992913, 0.01607217, 0.0189481, 0.03324974, 0, 0, 0
CTRL, 38992919, 0.001305009, 0.0001940999, 0.007362755, 0.0001680383, 0.0006681221
PRX, 38992951, 2, 0.58, 0, 0.62, 0, 0.66, 0, 2.45, 0, 0, 0, 0.58
IMU, 39012715, -0.0005255128, 0.0007381103, 0.0009443582, 0.183822, 0.01286856, -9.852649, 0, 0, 33.11651, 1, 1, 1000, 1000
RFND, 39042875, 7.65, 25, 0, 0
IMU, 39052719, 0.0006509351, 0.0002546859, 0.0008780127, 0.1850283, 0.008441015, -9.852636, 0, 0, 33.11649, 1, 1, 1000, 1000
MAG, 39092616, 389, 534, 351, 0, 0, 0, 0, 0, 0, 1, 39092608
RFND, 39092646, 7.65, 25, 0, 0
BARO, 39092683, -0.3501019, 993.5198, 31.07, 0.3525332, 39092, 0, 29.86
CTUN, 39092697, 0, 0, 0, 0.2735043, 0.01320844, 0.01320844, -0.35, 0, 7.64, 0, 0, 1
ATT, 39092775, 0, -0.12, 0, -0.69, 95.35, 95.35, 0, 1
RATE, 39092781, 0.5554032, -0.05039992, 0.001473543, 3.127208, -0.01998407, 0.007265402, 0.002749826, 0.2684192, -0.0007667885, -524.9239, 2.09465, 0
NKF1, 39092788, -0.12, -0.69, 95.35, -0.007212394, 0.1389904, -0.01296108, 0, 0, 0, -0.01320844, 0, 0.02, -0.2
NKF2, 39092788, -4, 0, 0, 0, 0, 0, 0, 0, 0, 0, 0, 0, 0
NKF3, 39092788, 0, 0, 0, -0.03, 0.22, -0.01, 0, 0, 0, 0, 0
NKF4, 39092788, 0, 0, 0, 0, 0, 1.188231E-05, 0, 0, 0, 19, 229, 0, 0
NKF5, 39092788, 0, 0, 0, 0, 0.14, 0.13, 0, 0.13, 0.5, 2.833788E-05, 0.01005696, 0.02422446
NKQ1, 39092788, 0.6732886, -0.005704038, 0.004175287, 0.7393461
AHR2, 39092830, -0.05, -0.58, 89.67, -0.35, 0, 0, 0.7091029, 0.003269905, -0.003948996, 0.7050864
MOTB, 39092838, 1, 1, 0, 1
RCIN, 39092842, 0, 0, 0, 0, 0, 0, 0, 0, 0, 0, 0, 0, 0, 0
RCOU, 39092847, 1101, 1101, 1101, 1101, 0, 0, 0, 0, 0, 0, 0, 0, 0, 0
VIBE, 39092856, 0.01790956, 0.01826121, 0.03140627, 0, 0, 0
CTRL, 39092863, 0.001312476, 0.0001789837, 0.007378615, 0.0001790065, 0.000684804
PRX, 39092893, 2, 0.58, 0, 0.62, 0, 0.66, 0, 2.45, 0, 0, 0, 0.58
IMU, 39092900, -0.0007614046, 7.757911E-05, 0.001098548, 0.1755046, 0.01235962, -9.873304, 0, 0, 33.11651, 1, 1, 1000, 1000
IMU, 39132708, -0.001903031, -0.001565174, -0.0002209361, 0.1717973, 0.008856989, -9.866978, 0, 0, 33.1166, 1, 1, 1000, 1000
RFND, 39142644, 7.65, 25, 0, 0
IMU, 39172664, 0.0002936321, -0.0001816489, -0.000200326, 0.1875206, 0.0004681802, -9.856901, 0, 0, 33.11649, 1, 1, 1000, 1000
MAG, 39192686, 393, 532, 350, 0, 0, 0, 0, 0, 0, 1, 39192677
RFND, 39192717, 7.65, 25, 0, 0
BARO, 39192755, -0.3667734, 993.5219, 31.07, 0.2413896, 39192, 0, 29.86
CTUN, 39192769, 0, 0, 0, 0.2735043, 0.01370973, 0.01370973, -0.36, 0, 7.64, 0, 0, 1
ATT, 39192849, 0, -0.12, 0, -0.7, 95.37, 95.37, 0, 1
RATE, 39192855, 0.5754308, -0.01759368, 0.001499338, 3.151392, -0.07263207, 0.007873449, 0.0005984997, 0.2799229, -0.0006636739, -529.8306, 0.4200935, 0
NKF1, 39192862, -0.12, -0.7, 95.37, -0.006891153, 0.1435383, -0.01308224, 0, 0, 0, -0.01370973, 0, 0.02, -0.2
NKF2, 39192862, -4, 0, 0, 0, 0, 0, 0, 0, 0, 0, 0, 0, 0
NKF3, 39192862, 0, 0, 0, -0.03, 0.22, -0.01, 0, 0, 0, 0, 0
NKF4, 39192862, 0, 0, 0, 0, 0, 1.000915E-05, 0, 0, 0, 19, 229, 0, 0
NKF5, 39192862, 0, 0, 0, 0, 0.14, 0.13, 0, 0.13, 0.5, 2.884861E-05, 0.009751698, 0.02352307
NKQ1, 39192862, 0.6731555, -0.005696141, 0.004114351, 0.7394676
AHR2, 39192907, -0.05, -0.58, 89.67, -0.36, 0, 0, 0.7091042, 0.003269528, -0.003995723, 0.7050848
MOTB, 39192915, 1, 1, 0, 1
RCIN, 39192918, 0, 0, 0, 0, 0, 0, 0, 0, 0, 0, 0, 0, 0, 0
RCOU, 39192924, 1101, 1101, 1101, 1101, 0, 0, 0, 0, 0, 0, 0, 0, 0, 0
VIBE, 39192932, 0.01850407, 0.01916932, 0.02778162, 0, 0, 0
CTRL, 39192939, 0.001357393, 0.0001904145, 0.007425163, 0.0002176679, 0.0006824001
PRX, 39192969, 2, 0.58, 0, 0.62, 0, 3.6, 0, 2.43, 0, 0, 0, 0.58
IMU, 39213427, -0.0009112291, -0.00021069, -0.0008975874, 0.1808184, 0.01025178, -9.867568, 0, 0, 33.11653, 1, 1, 1000, 1000
RFND, 39242734, 7.65, 25, 0, 0
IMU, 39252654, 0.0004455401, 0.0003059601, 0.001568751, 0.1764589, 0.01308207, -9.863798, 0, 0, 33.11659, 1, 1, 1000, 1000
MAG, 39292614, 388, 539, 354, 0, 0, 0, 0, 0, 0, 1, 39292606
RFND, 39292766, 7.65, 25, 0, 0
BARO, 39292806, -0.2500727, 993.5084, 31.07, 0.01736614, 39292, 0, 29.86
CTUN, 39292821, 0, 0, 0, 0.2735043, 0.01378322, 0.01378322, -0.25, 0, 7.64, 0, 0, 1
ATT, 39292905, 0, -0.12, 0, -0.7, 95.39, 95.39, 0, 1
RATE, 39292911, 0.5775747, -0.008662233, 0.00144118, 3.163554, 0.02371289, 0.007501808, 0.001874142, 0.1882367, -0.0006728895, -546.9102, 0.4236221, 0
NKF1, 39292919, -0.12, -0.7, 95.39, -0.006972425, 0.1480545, -0.01350395, 0, 0, 0, -0.01378322, 0, 0.02, -0.2
NKF2, 39292919, -4, 0, 0, 0, 0, 0, 0, 0, 0, 0, 0, 0, 0
NKF3, 39292919, 0, 0, 0, -0.03, 0.25, -0.01, 0, 0, 0, 0, 0
NKF4, 39292919, 0, 0, 0, 0, 0, 9.336207E-06, 0, 0, 0, 19, 229, 0, 0
NKF5, 39292919, 0, 0, 0, 0, 0.14, 0.13, 0, 0.13, 0.5, 3.634391E-05, 0.009234906, 0.02235282
NKQ1, 39292919, 0.6730201, -0.005684618, 0.004093852, 0.739591
AHR2, 39292963, -0.05, -0.58, 89.67, -0.25, 0, 0, 0.709102, 0.00327614, -0.004002867, 0.705087
MOTB, 39292971, 1, 1, 0, 1
RCIN, 39292975, 0, 0, 0, 0, 0, 0, 0, 0, 0, 0, 0, 0, 0, 0
RCOU, 39292980, 1101, 1101, 1101, 1101, 0, 0, 0, 0, 0, 0, 0, 0, 0, 0
VIBE, 39292989, 0.01849533, 0.01686478, 0.03219417, 0, 0, 0
CTRL, 39292995, 0.001369272, 0.0001906482, 0.007456741, 0.0002209646, 0.0006807416
PRX, 39293025, 2, 0.58, 0, 0.62, 0, 3.6, 0, 2.44, 0, 0, 0, 0.58
IMU, 39293032, -3.300399E-05, 0.0008397409, -0.0002985254, 0.176689, 0.007341607, -9.856588, 0, 0, 33.11667, 1, 1, 1000, 1000
IMU, 39332852, -0.0005768932, -6.136928E-06, 0.001148518, 0.1711777, 0.0189688, -9.840687, 0, 0, 33.11667, 1, 1, 1000, 1000
RFND, 39342653, 7.65, 25, 0, 0
IMU, 39372733, -0.0003523809, -0.0009931843, 0.002038324, 0.178973, 0.00840121, -9.853686, 0, 0, 33.11683, 1, 1, 1000, 1000
MAG, 39392930, 391, 535, 350, 0, 0, 0, 0, 0, 0, 1, 39392921
RFND, 39392960, 7.65, 25, 0, 0
BARO, 39393392, -0.2834158, 993.5121, 31.07, 0.02077871, 39393, 0, 29.86
CTUN, 39393409, 0, 0, 0, 0.2735043, 0.01414575, 0.01414575, -0.28, 0, 7.64, 0, 0, 1
ATT, 39393493, 0, -0.12, 0, -0.7, 95.42, 95.41, 0, 1
RATE, 39393499, 0.5799897, 0.005241495, 0.001237534, 3.179361, 0.02726404, 0.007008757, 0.001997241, 0.1974517, -0.0007494006, -554.7333, 1.78566, 0
NKF1, 39393508, -0.12, -0.7, 95.41, -0.007041801, 0.1525848, -0.01369712, 0, 0, 0, -0.01414575, 0, 0.02, -0.2
NKF2, 39393508, -4, 0, 0, 0, 0, 0, 0, 0, 0, 0, 0, 0, 0
NKF3, 39393508, 0, 0, 0, -0.03, 0.25, -0.01, 0, 0, 0, 0, 0
NKF4, 39393508, 0, 0, 0, 0, 0, 9.004879E-06, 0, 0, 0, 19, 229, 0, 0
NKF5, 39393508, 0, 0, 0, 0, 0.14, 0.13, 0, 0.13, 0.5, 3.956361E-05, 0.008932987, 0.02158744
NKQ1, 39393508, 0.6728685, -0.005665292, 0.004068163, 0.7397293
AHR2, 39393558, -0.05, -0.59, 89.67, -0.28, 0, 0, 0.7090837, 0.003292506, -0.004014679, 0.7051052
MOTB, 39393565, 1, 1, 0, 1
RCIN, 39393570, 0, 0, 0, 0, 0, 0, 0, 0, 0, 0, 0, 0, 0, 0
RCOU, 39393576, 1101, 1101, 1101, 1101, 0, 0, 0, 0, 0, 0, 0, 0, 0, 0
VIBE, 39393584, 0.01869714, 0.02031882, 0.03126271, 0, 0, 0
CTRL, 39393591, 0.001378301, 0.0001680578, 0.007503335, 0.000230053, 0.0006890148
PRX, 39393622, 2, 0.58, 0, 0.62, 0, 3.6, 0, 2.43, 0, 0, 0, 0.58
IMU, 39413209, -0.0003291817, 0.0003041944, -0.0009844091, 0.19176, 0.0144496, -9.865798, 0, 0, 33.11781, 1, 1, 1000, 1000
RFND, 39443289, 7.65, 25, 0, 0
IMU, 39453208, -0.0005482337, -0.0003174836, 0.0009427932, 0.1814577, 0.01332866, -9.835335, 0, 0, 33.11917, 1, 1, 1000, 1000
MAG, 39493107, 387, 537, 351, 0, 0, 0, 0, 0, 0, 1, 39493098
RFND, 39493137, 7.65, 25, 0, 0
BARO, 39493175, -0.288973, 993.5129, 31.08, 0.2013378, 39493, 0, 29.86
CTUN, 39493188, 0, 0, 0, 0.2735043, 0.01437093, 0.01437093, -0.28, 0, 7.64, 0, 0, 1
ATT, 39493269, 0, -0.13, 0, -0.71, 95.44, 95.44, 0, 1
RATE, 39493275, 0.5915195, 0.03089744, 0.0008567171, 3.202098, -0.07169548, 0.007765178, 0.002197222, 0.2794991, -0.0007529996, -530.7045, 0.584507, 0
NKF1, 39493283, -0.13, -0.71, 95.44, -0.007205168, 0.1576269, -0.01310381, 0, 0, 0, -0.01437093, 0, 0.02, -0.2
NKF2, 39493283, -4, 0, 0, 0, 0, 0, 0, 0, 0, 0, 0, 0, 0
NKF3, 39493283, 0, 0, 0, -0.04, 0.29, -0.01, 0, 0, 0, 0, 0
NKF4, 39493283, 0, 0, 0, 0, 0, 9.192509E-06, 0, 0, 0, 19, 229, 0, 0
NKF5, 39493283, 0, 0, 0, 0, 0.14, 0.13, 0, 0.13, 0.5, 5.089147E-05, 0.008327655, 0.02016849
NKQ1, 39493283, 0.6727161, -0.005647042, 0.004022183, 0.7398682
AHR2, 39493406, -0.05, -0.59, 89.68, -0.28, 0, 0, 0.7090643, 0.003306754, -0.004047203, 0.7051245
MOTB, 39493414, 1, 1, 0, 1
RCIN, 39493418, 0, 0, 0, 0, 0, 0, 0, 0, 0, 0, 0, 0, 0, 0
RCOU, 39493424, 1101, 1101, 1101, 1101, 0, 0, 0, 0, 0, 0, 0, 0, 0, 0
VIBE, 39493433, 0.01992159, 0.01813379, 0.03119561, 0, 0, 0
CTRL, 39493439, 0.001411638, 0.0001788094, 0.007544179, 0.0002206879, 0.0006932692
PRX, 39493471, 2, 0.58, 0, 0.62, 0, 3.6, 0, 2.46, 0, 0, 0, 0.58
IMU, 39493478, 0.000657603, -0.0008252342, 0.001290123, 0.1758024, 0.008205151, -9.858302, 0, 0, 33.12067, 1, 1, 1000, 1000
IMU, 39533043, 0.001167045, -0.001464422, 0.0005810932, 0.1764419, 0.0119872, -9.849775, 0, 0, 33.12218, 1, 1, 1000, 1000
RFND, 39543113, 7.65, 25, 0, 0
IMU, 39573052, -0.0006134581, 0.0008447782, 4.784166E-05, 0.1811274, 0.01024013, -9.852063, 0, 0, 33.12362, 1, 1, 1000, 1000
MAG, 39593104, 396, 534, 353, 0, 0, 0, 0, 0, 0, 1, 39593095
RFND, 39593133, 7.65, 25, 0, 0
BARO, 39593172, -0.3112017, 993.515, 31.08, 0.2075526, 39593, 0, 29.86
CTUN, 39593186, 0, 0, 0, 0.2735043, 0.01450996, 0.01450996, -0.31, 0, 7.64, 0, 0, 1
ATT, 39593268, 0, -0.13, 0, -0.71, 95.46, 95.46, 0, 1
RATE, 39593274, 0.5892009, -0.06144823, 0.001665187, 3.233313, -0.06152872, 0.007990767, 0.002197535, 0.14347, -0.0006479972, -537.5787, 0.9013176, 0
NKF1, 39593282, -0.13, -0.71, 95.46, -0.006985917, 0.1624194, -0.01327355, 0, 0, 0, -0.01450996, 0, 0.02, -0.2
NKF2, 39593282, -4, 0, 0, 0, 0, 0, 0, 0, 0, 0, 0, 0, 0
NKF3, 39593282, 0, 0, 0, -0.04, 0.29, -0.01, 0, 0, 0, 0, 0
NKF4, 39593282, 0, 0, 0, 0, 0, 9.809437E-06, 0, 0, 0, 19, 229, 0, 0
NKF5, 39593282, 0, 0, 0, 0, 0.14, 0.13, 0, 0.13, 0.5, 5.129092E-05, 0.008081819, 0.01947686
NKQ1, 39593282, 0.6725913, -0.005602228, 0.003981457, 0.7399822
AHR2, 39593403, -0.05, -0.6, 89.67, -0.31, 0, 0, 0.709071, 0.003345195, -0.004076882, 0.7051173
MOTB, 39593410, 1, 1, 0, 1
RCIN, 39593414, 0, 0, 0, 0, 0, 0, 0, 0, 0, 0, 0, 0, 0, 0
RCOU, 39593420, 1101, 1101, 1101, 1101, 0, 0, 0, 0, 0, 0, 0, 0, 0, 0
VIBE, 39593428, 0.01967819, 0.01833321, 0.03199651, 0, 0, 0
CTRL, 39593435, 0.001395225, 0.000176236, 0.00761599, 0.0002211569, 0.0006986058
PRX, 39593466, 2, 0.58, 0, 0.62, 0, 3.6, 0, 2.46, 0, 0, 0, 0.58
IMU, 39613241, 7.96893E-05, 0.0004621089, 0.0006043959, 0.1856871, -0.004028559, -9.876731, 0, 0, 33.12489, 1, 1, 1000, 1000
RFND, 39643148, 7.65, 25, 0, 0
IMU, 39653154, 0.0006928031, -0.001001938, 0.0004230497, 0.1872429, 0.009495485, -9.845295, 0, 0, 33.12561, 1, 1, 1000, 1000
MAG, 39693404, 391, 531, 348, 0, 0, 0, 0, 0, 0, 1, 39693394
RFND, 39693434, 5.52, 25, 0, 0
BARO, 39693473, -0.2945302, 993.5137, 31.08, 0.02614949, 39693, 0, 29.86
CTUN, 39693488, 0, 0, 0, 0.2735043, 0.0149476, 0.0149476, -0.29, 0, 5.51, 0, 0, 1
ATT, 39693568, 0, -0.13, 0, -0.72, 95.48, 95.48, 0, 1
RATE, 39693574, 0.590751, 0.03504377, 0.00116657, 3.242826, -0.0846449, 0.008288265, 0.0002459076, 0.2505639, -0.0007159179, -555.2196, -0.01745224, 0
NKF1, 39693581, -0.13, -0.72, 95.48, -0.006937487, 0.1676715, -0.01370913, 0, 0, 0, -0.0149476, 0, 0.02, -0.2
NKF2, 39693581, -4, 0, 0, 0, 0, 0, 0, 0, 0, 0, 0, 0, 0
NKF3, 39693581, 0, 0, 0, -0.04, 0.33, -0.01, 0, 0, 0, 0, 0
NKF4, 39693581, 0, 0, 0, 0, 0, 1.022738E-05, 0, 0, 0, 19, 229, 0, 0
NKF5, 39693581, 0, 0, 0, 0, 0.14, 0.13, 0, 0.13, 0.5, 6.381756E-05, 0.007367369, 0.01779398
NKQ1, 39693581, 0.6724369, -0.00558914, 0.003967057, 0.7401228
AHR2, 39693653, -0.05, -0.6, 89.68, -0.29, 0, 0, 0.709051, 0.003353745, -0.004077474, 0.7051374
MOTB, 39693660, 1, 1, 0, 1
RCIN, 39693664, 0, 0, 0, 0, 0, 0, 0, 0, 0, 0, 0, 0, 0, 0
RCOU, 39693670, 1101, 1101, 1101, 1101, 0, 0, 0, 0, 0, 0, 0, 0, 0, 0
VIBE, 39693678, 0.01776381, 0.01905532, 0.03005911, 0, 0, 0
CTRL, 39693684, 0.001405241, 0.0001799022, 0.007638629, 0.0002419034, 0.0006885284
PRX, 39693714, 2, 0.58, 0, 0.62, 0, 3.6, 0, 2.44, 0, 0, 0, 0.58
IMU, 39693722, 0.0007298429, -0.001052162, 0.0007897517, 0.1791188, 0.01425541, -9.852208, 0, 0, 33.12618, 1, 1, 1000, 1000
IMU, 39733127, -0.0003365706, 0.0003005003, -2.896558E-05, 0.1775944, 0.0003455527, -9.848024, 0, 0, 33.12767, 1, 1, 1000, 1000
RFND, 39743054, 5.52, 25, 0, 0
IMU, 39773188, -6.203407E-05, 0.0001700749, -0.0005664945, 0.1844402, 0.007665873, -9.868793, 0, 0, 33.12915, 1, 1, 1000, 1000
MAG, 39793102, 392, 534, 346, 0, 0, 0, 0, 0, 0, 1, 39793093
RFND, 39793133, 7.65, 25, 0, 0
BARO, 39793171, -0.2278441, 993.5061, 31.09, -0.05550541, 39793, 0, 29.86
CTUN, 39793185, 0, 0, 0, 0.2735043, 0.01489687, 0.01489687, -0.22, 0, 7.64, 0, 0, 1
ATT, 39793264, 0, -0.12, 0, -0.72, 95.5, 95.5, 0, 1
RATE, 39793270, 0.5815971, 0.0391332, 0.001402001, 3.239581, 0.007384468, 0.007491966, 0.001721212, 0.143336, -0.000584084, -556.3331, 1.359749, 0
NKF1, 39793277, -0.12, -0.72, 95.5, -0.00667024, 0.1724484, -0.01373662, 0, 0, 0, -0.01489687, 0, 0.02, -0.2
NKF2, 39793277, -4, 0, 0, 0, 0, 0, 0, 0, 0, 0, 0, 0, 0
NKF3, 39793277, 0, 0, 0, -0.04, 0.33, -0.01, 0, 0, 0, 0, 0
NKF4, 39793277, 0, 0, 0, 0, 0, 1.162688E-05, 0, 0, 0, 19, 229, 0, 0
NKF5, 39793277, 0, 0, 0, 0, 0.14, 0.13, 0, 0.13, 0.5, 6.106968E-05, 0.007215068, 0.01726555
NKQ1, 39793277, 0.6723217, -0.005585126, 0.003982636, 0.7402273
AHR2, 39793404, -0.05, -0.59, 89.68, -0.22, 0, 0, 0.7090655, 0.003356243, -0.004045675, 0.7051231
MOTB, 39793412, 1, 1, 0, 1
RCIN, 39793416, 0, 0, 0, 0, 0, 0, 0, 0, 0, 0, 0, 0, 0, 0
RCOU, 39793422, 1101, 1101, 1101, 1101, 0, 0, 0, 0, 0, 0, 0, 0, 0, 0
VIBE, 39793430, 0.01795809, 0.01947398, 0.03095623, 0, 0, 0
CTRL, 39793437, 0.001384097, 0.0001821159, 0.007648582, 0.0002085259, 0.0006839326
PRX, 39793468, 2, 0.58, 0, 0.62, 0, 3.6, 0, 2.44, 0, 0, 0, 0.58
IMU, 39813059, -0.001627783, 0.001676403, 0.001146691, 0.1780546, 0.00886702, -9.852657, 0, 0, 33.13113, 1, 1, 1000, 1000
EV, 39840065, 57
RFND, 39843103, 7.65, 25, 0, 0
IMU, 39853103, 0.0001107762, -0.0009370582, 0.0001464498, 0.1821664, 0.008523137, -9.856394, 0, 0, 33.13335, 1, 1, 1000, 1000
DU32, 39890889, 7, 33611992
MAG, 39893026, 389, 533, 350, 0, 0, 0, 0, 0, 0, 1, 39893017
RFND, 39893054, 7.65, 25, 0, 0
BARO, 39893093, -0.288973, 993.5129, 31.09, 0.04864547, 39893, 0, 29.86
CTUN, 39893107, 0, 0, 0, 0.2735043, 0.0152928, 0.0152928, -0.28, 0, 7.64, 0, 0, 1
ATT, 39893187, 0, -0.13, 0, -0.72, 95.53, 95.52, 0, 1
RATE, 39893193, 0.6093644, -0.1324627, 0.002050375, 3.247946, 0.01871284, 0.007388323, 0.003795895, 0.2583243, -0.0007188178, -580.4094, 0.4745483, 0
NKF1, 39893202, -0.13, -0.72, 95.52, -0.006646192, 0.1772402, -0.0143311, 0, 0, 0, -0.0152928, 0, 0.02, -0.2
NKF2, 39893202, -4, 0, 0, 0, 0, 0, 0, 0, 0, 0, 0, 0, 0
NKF3, 39893202, 0, 0, 0, -0.04, 0.33, -0.01, 0, 0, 0, 0, 0
NKF4, 39893202, 0, 0, 0, 0, 0, 1.256338E-05, 0, 0, 0, 19, 229, 0, 0
NKF5, 39893202, 0, 0, 0, 0, 0.14, 0.13, 0, 0.13, 0.5, 5.806294E-05, 0.007034878, 0.0167086
NKQ1, 39893202, 0.6721641, -0.005607383, 0.003931757, 0.7403705
AHR2, 39893247, -0.05, -0.6, 89.68, -0.28, 0, 0, 0.709039, 0.003329441, -0.004078391, 0.7051496
MOTB, 39893254, 1, 1, 0, 1
RCIN, 39893258, 0, 0, 0, 0, 0, 0, 0, 0, 0, 0, 0, 0, 0, 0
RCOU, 39893264, 1113, 1113, 1113, 1113, 0, 0, 0, 0, 0, 0, 0, 0, 0, 0
VIBE, 39893272, 0.01985314, 0.01937836, 0.03231754, 0, 0, 0
CTRL, 39893279, 0.001432153, 0.0002050981, 0.007669368, 0.0002190063, 0.0006793271
PRX, 39893403, 2, 0.58, 0, 0.62, 0, 3.6, 0, 2.43, 0, 0, 0, 0.58
IMU, 39893414, -0.002193101, 0.0007539142, 0.0009071319, 0.1801982, 0.01380081, -9.857355, 0, 0, 33.13472, 1, 1, 1000, 1000
IMU, 39933169, -0.0006818981, -6.163913E-05, -0.0003861889, 0.1799425, 0.01421466, -9.863644, 0, 0, 33.13621, 1, 1, 1000, 1000
RFND, 39942972, 7.65, 25, 0, 0
IMU, 39973188, -0.0002137011, -0.001323332, -0.0004278519, 0.190554, 0.01251363, -9.853948, 0, 0, 33.13715, 1, 1, 1000, 1000
MAG, 39993045, 390, 535, 348, 0, 0, 0, 0, 0, 0, 1, 39993036
RFND, 39993076, 7.65, 25, 0, 0
BARO, 39993113, -0.2500727, 993.5086, 31.1, 0.1406659, 39993, 0, 29.86
CTUN, 39993126, 0, 0, 0, 0.2735043, 0.01546641, 0.01546641, -0.25, 0, 7.64, 0, 0, 1
ATT, 39993204, 0, -0.13, 0, -0.72, 95.55, 95.54, 0, 1
RATE, 39993210, 0.6125099, 0.008976167, 0.00148594, 3.274097, -0.02565707, 0.007709327, 0.003857612, 0.2474387, -0.0005919944, -610.1992, 0.4045486, 0
NKF1, 39993218, -0.13, -0.72, 95.54, -0.006862009, 0.182697, -0.01506665, 0, 0, 0, -0.01546641, 0, 0.02, -0.2
NKF2, 39993218, -4, 0, 0, 0, 0, 0, 0, 0, 0, 0, 0, 0, 0
NKF3, 39993218, 0, 0, 0, -0.04, 0.36, -0.01, 0, 0, 0, 0, 0
NKF4, 39993218, 0, 0, 0, 0, 0, 1.408833E-05, 0, 0, 0, 19, 229, 0, 0
NKF5, 39993218, 0, 0, 0, 0, 0.14, 0.13, 0, 0.13, 0.5, 7.083877E-05, 0.006327722, 0.01494856
NKQ1, 39993218, 0.6720413, -0.005575488, 0.003893052, 0.7404824
AHR2, 39993262, -0.05, -0.6, 89.68, -0.25, 0, 0, 0.7090495, 0.003356181, -0.004103632, 0.7051389
MOTB, 39993269, 1, 1, 0, 1
RCIN, 39993273, 0, 0, 0, 0, 0, 0, 0, 0, 0, 0, 0, 0, 0, 0
RCOU, 39993279, 1137, 1137, 1137, 1137, 0, 0, 0, 0, 0, 0, 0, 0, 0, 0
VIBE, 39993287, 0.02011988, 0.01801455, 0.03269025, 0, 0, 0
CTRL, 39993294, 0.001451102, 0.0001890001, 0.007719102, 0.0002054296, 0.0006646735
PRX, 39993400, 2, 0.58, 0, 0.62, 0, 3.6, 0, 2.46, 0, 0, 0, 0.58
IMU, 40013194, -0.0003603217, -0.001586875, 0.001352787, 0.1879062, 0.002611178, -9.853649, 0, 0, 33.1382, 1, 1, 1000, 1000
RFND, 40043131, 7.65, 25, 0, 0
IMU, 40053113, 1.569006E-07, 0.0004259275, -0.0004292867, 0.1854644, 0.003970079, -9.856695, 0, 0, 33.14021, 1, 1, 1000, 1000
MAG, 40093012, 397, 530, 355, 0, 0, 0, 0, 0, 0, 1, 40093003
RFND, 40093041, 7.65, 25, 0, 0
BARO, 40093079, -0.2222869, 993.5056, 31.1, 0.1059336, 40093, 0, 29.86
CTUN, 40093093, 0, 0, 0, 0.2735043, 0.01577784, 0.01577784, -0.22, 0, 7.64, 0, 0, 1
ATT, 40093171, 0, -0.13, 0, -0.73, 95.57, 95.56, 0, 1
RATE, 40093178, 0.6151988, -0.07109123, 0.001798747, 3.288091, 0.003505918, 0.007688608, 0.003857744, 0.1761184, -0.000582974, -604.2482, 0.4797935, 0
NKF1, 40093186, -0.13, -0.73, 95.56, -0.007068587, 0.1881377, -0.01491971, 0, 0, 0, -0.01577784, 0, 0.02, -0.2
NKF2, 40093186, -4, 0, 0, 0, 0, 0, 0, 0, 0, 0, 0, 0, 0
NKF3, 40093186, 0, 0, 0, -0.04, 0.36, -0.01, 0, 0, 0, 0, 0
NKF4, 40093186, 0, 0, 0, 0, 0, 1.556219E-05, 0, 0, 0, 19, 229, 0, 0
NKF5, 40093186, 0, 0, 0, 0, 0.14, 0.13, 0, 0.13, 0.5, 6.554971E-05, 0.006252886, 0.01463081
NKQ1, 40093186, 0.6719154, -0.005560408, 0.003868207, 0.7405971
AHR2, 40093230, -0.05, -0.6, 89.68, -0.22, 0, 0, 0.7090546, 0.003366782, -0.004114426, 0.7051336
MOTB, 40093237, 1, 1, 0, 1
RCIN, 40093241, 0, 0, 0, 0, 0, 0, 0, 0, 0, 0, 0, 0, 0, 0
RCOU, 40093246, 1161, 1161, 1161, 1161, 0, 0, 0, 0, 0, 0, 0, 0, 0, 0
VIBE, 40093255, 0.01988387, 0.0194198, 0.03194904, 0, 0, 0
CTRL, 40093261, 0.001453492, 0.0001818575, 0.007758549, 0.0001994807, 0.0006531851
PRX, 40093292, 2, 0.58, 0, 0.63, 0, 3.6, 0, 2.44, 0, 0, 0, 0.58
IMU, 40093299, -0.001122337, 0.0004865963, -0.0005155111, 0.1879072, 0.01998855, -9.85718, 0, 0, 33.14295, 1, 1, 1000, 1000
IMU, 40133046, 0.0006879652, -0.0001559141, 0.0002347939, 0.176515, 0.01219814, -9.857641, 0, 0, 33.14571, 1, 1, 1000, 1000
RFND, 40143183, 4.36, 25, 0, 0
IMU, 40173239, 0.001566102, 0.0002477589, 0.004126519, 0.1729868, 0.02509841, -9.856193, 0, 0, 33.14843, 1, 1, 1000, 1000
MAG, 40193081, 393, 533, 352, 0, 0, 0, 0, 0, 0, 1, 40193072
RFND, 40193111, 4.36, 25, 0, 0
BARO, 40193149, -0.1500437, 993.4973, 31.1, 0.1059337, 40193, 0, 29.86
CTUN, 40193162, 0, 0, 0, 0.2735043, 0.01613251, 0.01613251, -0.15, 0, 4.35, 0, 0, 1
ATT, 40193245, 0, -0.13, 0, -0.73, 95.58, 95.58, 0, 1
RATE, 40193250, 0.5946531, 0.04861216, 0.001382904, 3.296665, 0.001255819, 0.007610395, 0.003827135, -0.09861208, -0.000623353, -592.3273, -0.3988266, 0
NKF1, 40193258, -0.13, -0.73, 95.58, -0.007517442, 0.1933568, -0.01462536, 0, 0, 0, -0.01613251, 0, 0.02, -0.2
NKF2, 40193258, -4, 0, 0, 0, 0, 0, 0, 0, 0, 0, 0, 0, 0
NKF3, 40193258, 0, 0, 0, -0.04, 0.41, -0.01, 0, 0, 0, 0, 0
NKF4, 40193258, 0, 0, 0, 0, 0, 1.691717E-05, 0, 0, 0, 19, 229, 0, 0
NKF5, 40193258, 0, 0, 0, 0, 0.14, 0.13, 0, 0.13, 0.5, 8.263737E-05, 0.005391132, 0.01247297
NKQ1, 40193258, 0.6718118, -0.005527719, 0.003882054, 0.7406912
AHR2, 40193303, -0.05, -0.6, 89.67, -0.15, 0, 0, 0.7090815, 0.003392083, -0.004086254, 0.7051066
MOTB, 40193410, 1, 1, 0, 1
RCIN, 40193415, 0, 0, 0, 0, 0, 0, 0, 0, 0, 0, 0, 0, 0, 0
RCOU, 40193421, 1185, 1185, 1185, 1185, 0, 0, 0, 0, 0, 0, 0, 0, 0, 0
VIBE, 40193429, 0.07169357, 0.1063143, 0.06090097, 0, 0, 0
CTRL, 40193436, 0.001427772, 0.0001770004, 0.007781449, 0.0001921782, 0.0006457089
PRX, 40193467, 2, 0.58, 0, 0.62, 0, 3.6, 0, 2.45, 0, 0, 0, 0.58
IMU, 40213200, -0.002590749, 0.0003515879, 0.01483381, 0.1642415, 0.01430855, -9.867188, 0, 0, 33.15009, 1, 1, 1000, 1000
RFND, 40243035, 7.65, 25, 0, 0
IMU, 40253092, -0.0007224471, 0.002126753, -0.000454557, 0.1992239, 0.02531727, -9.877499, 0, 0, 33.15242, 1, 1, 1000, 1000
MAG, 40293042, 392, 534, 350, 0, 0, 0, 0, 0, 0, 1, 40293033
RFND, 40293072, 0.2, 25, 0, 0
BARO, 40293111, -0.1778295, 993.5002, 31.11, 0.2379165, 40293, 0, 29.86
CTUN, 40293124, 0, 0, 0, 0.2735043, 0.01625499, 0.01625499, -0.17, 0, 0.19, 0, 0, 1
ATT, 40293204, 0, -0.13, 0, -0.73, 95.62, 95.62, 0, 1
RATE, 40293210, 0.6211938, -0.003181822, 0.0009771704, 3.292992, -0.1109643, 0.008529074, 0.003934612, 0.2311325, -0.0009442659, -616.3689, 1.361942, 0
NKF1, 40293218, -0.13, -0.73, 95.62, -0.007139715, 0.1991615, -0.01521898, 0, 0, 0, -0.01625499, 0, 0.02, -0.2
NKF2, 40293218, -4, 0, 0, 0, 0, 0, 0, 0, 0, 0, 0, 0, 0
NKF3, 40293218, 0, 0, 0, -0.04, 0.41, -0.01, 0, 0, 0, 0, 0
NKF4, 40293218, 0, 0, 0, 0, 0, 1.909736E-05, 0, 0, 0, 19, 229, 0, 0
NKF5, 40293218, 0, 0, 0, 0, 0.14, 0.13, 0, 0.13, 0.5, 7.558753E-05, 0.005445445, 0.0124739
NKQ1, 40293218, 0.6715484, -0.005562764, 0.003852329, 0.7409299
AHR2, 40293262, -0.05, -0.6, 89.69, -0.17, 0, 0, 0.7089552, 0.003350367, -0.004097386, 0.7052336
MOTB, 40293270, 1, 1, 0, 1
RCIN, 40293274, 0, 0, 0, 0, 0, 0, 0, 0, 0, 0, 0, 0, 0, 0
RCOU, 40293280, 1208, 1208, 1208, 1208, 0, 0, 0, 0, 0, 0, 0, 0, 0, 0
VIBE, 40293288, 0.2736423, 0.22727, 0.1771485, 0, 0, 0
CTRL, 40293295, 0.001480156, 0.0002861832, 0.007772642, 0.0002602988, 0.0007362398
PRX, 40293418, 2, 0.58, 0, 0.62, 0, 3.6, 0, 2.44, 0, 0, 0, 0.58
IMU, 40293426, 6.299689E-05, -0.001511668, 0.0004428895, 0.2144294, 0.003410891, -9.865743, 0, 0, 33.15576, 1, 1, 1000, 1000
IMU, 40333083, 0.001426546, 0.001502509, -0.01901065, 0.1262586, 0.04218019, -9.856789, 0, 0, 33.15992, 1, 1, 1000, 1000
RFND, 40343036, 2.39, 25, 0, 0
IMU, 40373107, -0.00285068, 0.001563551, 0.01611589, 0.0875909, -0.003596295, -9.84626, 0, 0, 33.16368, 1, 1, 1000, 1000
MAG, 40393033, 395, 536, 353, 0, 0, 0, 0, 0, 0, 1, 40393024
RFND, 40393062, 2.39, 25, 0, 0
BARO, 40393100, -0.161158, 993.4984, 31.11, 0.3160642, 40393, 0, 29.86
CTUN, 40393113, 0, 0, 0, 0.2735043, 0.01677206, 0.01677206, -0.16, 0, 2.38, 0, 0, 1
ATT, 40393195, 0, -0.14, 0, -0.71, 95.64, 95.63, 0, 1
RATE, 40393200, 0.6235609, -0.03266539, 0.001228385, 3.233033, 0.2152629, 0.006370128, 0.003949329, -0.6055969, -0.0007907331, -644.6719, 0.8981705, 0
NKF1, 40393208, -0.14, -0.71, 95.63, -0.008630428, 0.2019117, -0.01591782, 0, 0, 0, -0.01677206, 0, 0.02, -0.2
NKF2, 40393208, -4, 0, 0, 0, 0, 0, 0, 0, 0, 0, 0, 0, 0
NKF3, 40393208, 0, 0, 0, -0.04, 0.41, -0.01, 0, 0, 0, 0, 0
NKF4, 40393208, 0, 0, 0, 0, 0, 2.058632E-05, 0, 0, 0, 19, 229, 0, 0
NKF5, 40393208, 0, 0, 0, 0, 0.14, 0.13, 0, 0.13, 0.5, 6.953545E-05, 0.005438269, 0.01237347
NKQ1, 40393208, 0.6714448, -0.005668352, 0.003912603, 0.7410226
AHR2, 40393253, -0.06, -0.58, 89.69, -0.16, 0, 0, 0.7089823, 0.003237577, -0.004023456, 0.7052073
MOTB, 40393260, 1, 1, 0, 1
RCIN, 40393264, 0, 0, 0, 0, 0, 0, 0, 0, 0, 0, 0, 0, 0, 0
RCOU, 40393270, 1230, 1221, 1234, 1221, 0, 0, 0, 0, 0, 0, 0, 0, 0, 0
VIBE, 40393278, 0.4201525, 0.5492832, 0.5138748, 0, 0, 0
CTRL, 40393285, 0.001516037, 0.0004011661, 0.007679096, 0.0004867699, 0.0007951846
PRX, 40393409, 2, 0.58, 0, 0.62, 0, 0.69, 0, 2.45, 0, 0, 0, 0.58
IMU, 40413220, -0.002132684, -0.0005422232, 0.01276221, 0.2292954, -0.01329018, -9.842413, 0, 0, 33.16748, 1, 1, 1000, 1000
RFND, 40442964, 7.65, 25, 0, 0
IMU, 40453087, 0.002526682, 0.007388366, -0.03187555, 0.1832855, 0.1008548, -9.79681, 0, 0, 33.17154, 1, 1, 1000, 1000
MAG, 40493010, 395, 537, 352, 0, 0, 0, 0, 0, 0, 1, 40493001
RFND, 40493041, 7.65, 25, 0, 0
BARO, 40493079, -0.2278441, 993.5059, 31.11, 0.1997109, 40493, 0, 29.86
CTUN, 40493092, 0, 0, 0, 0.2735043, 0.01671229, 0.01671229, -0.22, 0, 7.64, 0, 0, 1
ATT, 40493176, 0, -0.14, 0, -0.7, 95.64, 95.63, 0, 1
RATE, 40493181, 0.656254, 0.07588474, -0.0001090989, 3.162083, -0.006953192, 0.007521005, 0.00417901, -1.129569, -0.001135552, -638.3722, 11.28502, 0
NKF1, 40493188, -0.14, -0.7, 95.63, -0.008222596, 0.207976, -0.01576228, 0, 0, 0, -0.01671229, 0, 0.02, -0.2
NKF2, 40493188, -4, 0, 0, 0, 0, 0, 0, 0, 0, 0, 0, 0, 0
NKF3, 40493188, 0, 0, 0, -0.05, 0.45, -0.01, 0, 0, 0, 0, 0
NKF4, 40493188, 0, 0, 0, 0, 0, 2.321215E-05, 0, 0, 0, 19, 229, 0, 0
NKF5, 40493188, 0, 0, 0, 0, 0.14, 0.13, 0, 0.13, 0.5, 8.908442E-05, 0.004583169, 0.01015291
NKQ1, 40493188, 0.671463, -0.005822849, 0.003950809, 0.7410046
AHR2, 40493232, -0.07, -0.57, 89.67, -0.22, 0, 0, 0.7091256, 0.003073407, -0.003970151, 0.7050644
MOTB, 40493239, 1, 1, 0, 1
RCIN, 40493243, 0, 0, 0, 0, 0, 0, 0, 0, 0, 0, 0, 0, 0, 0
RCOU, 40493248, 1234, 1221, 1236, 1223, 0, 0, 0, 0, 0, 0, 0, 0, 0, 0
VIBE, 40493257, 0.4396921, 0.4444831, 0.4680378, 0, 0, 0
CTRL, 40493263, 0.001646084, 0.00070391, 0.007522652, 0.0006949165, 0.0008589106
PRX, 40493295, 2, 0.58, 0, 0.62, 0, 0.69, 0, 2.44, 0, 0, 0, 0.58
IMU, 40493301, 0.001442772, 0.0003021022, -0.02329883, 0.2794292, 0.008686578, -9.963982, 0, 0, 33.17505, 1, 1, 1000, 1000
IMU, 40533530, 0.0006098718, -0.001984832, 0.01152275, 0.1619952, 0.06069624, -9.837202, 0, 0, 33.17816, 1, 1, 1000, 1000
RFND, 40543277, 7.65, 25, 0, 0
IMU, 40573183, 0.003689156, 0.002910364, -0.02186272, 0.150594, -0.03771804, -9.899376, 0, 0, 33.18118, 1, 1, 1000, 1000
MAG, 40593113, 394, 535, 352, 0, 0, 0, 0, 0, 0, 1, 40593103
RFND, 40593142, 7.65, 25, 0, 0
BARO, 40593179, -0.2778586, 993.5114, 31.12, -0.03299572, 40593, 0, 29.86
CTUN, 40593193, 0, 0, 0, 0.2735043, 0.01696207, 0.01696207, -0.27, 0, 7.64, 0, 0, 1
ATT, 40593272, 0, -0.15, 0, -0.69, 95.64, 95.64, 0, 1
RATE, 40593278, 0.6891663, -0.326711, 0.003448332, 3.129865, -0.2839338, 0.009187285, 0.004147981, 0.963854, 0.0004976121, -562.632, -1.768208, 0
NKF1, 40593285, -0.15, -0.69, 95.64, -0.009904462, 0.2114773, -0.01389215, 0, 0, 0, -0.01696207, 0, 0.02, -0.2
NKF2, 40593285, -4, 0, 0, 0, 0, 0, 0, 0, 0, 0, 0, 0, 0
NKF3, 40593285, 0, 0, 0, -0.05, 0.45, -0.01, 0, 0, 0, 0, 0
NKF4, 40593285, 0, 0, 0, 0, 0, 2.529388E-05, 0, 0, 0, 19, 229, 0, 0
NKF5, 40593285, 0, 0, 0, 0, 0.14, 0.13, 0, 0.13, 0.5, 8.073619E-05, 0.004713041, 0.0104152
NKQ1, 40593285, 0.67142, -0.005871579, 0.003975334, 0.7410431
AHR2, 40593412, -0.07, -0.56, 89.65, -0.27, 0, 0, 0.7092086, 0.003009008, -0.003920177, 0.7049814
MOTB, 40593420, 1, 1, 0, 1
RCIN, 40593425, 0, 0, 0, 0, 0, 0, 0, 0, 0, 0, 0, 0, 0, 0
RCOU, 40593430, 1237, 1228, 1242, 1221, 0, 0, 0, 0, 0, 0, 0, 0, 0, 0
VIBE, 40593438, 0.4350481, 0.475462, 0.4904547, 0, 0, 0
CTRL, 40593445, 0.001638928, 0.0008848428, 0.007429278, 0.001052954, 0.0007664032
PRX, 40593476, 2, 0.58, 0, 0.62, 0, 3.6, 0, 2.43, 0, 0, 0, 0.58
IMU, 40613185, 0.003675155, 0.004438185, 0.03278931, 0.1906654, 0.04285239, -9.852609, 0, 0, 33.18373, 1, 1, 1000, 1000
RFND, 40643092, 7.65, 25, 0, 0
IMU, 40653191, 0.00782383, -0.005901111, -0.00136535, 0.3446706, 0.0005171586, -9.862215, 0, 0, 33.1866, 1, 1, 1000, 1000
MAG, 40695497, 395, 536, 354, 0, 0, 0, 0, 0, 0, 1, 40695488
RFND, 40695527, 7.65, 25, 0, 0
BARO, 40695566, -0.2167297, 993.5048, 31.12, -0.2361856, 40695, 0, 29.86
CTUN, 40695578, 0, 0, 0, 0.2735043, 0.01704157, 0.01704157, -0.21, 0, 7.64, 0, 0, 1
ATT, 40695659, 0, -0.14, 0, -0.7, 95.69, 95.68, 0, 1
RATE, 40695665, 0.6510925, 0.2999186, 0.0003459352, 3.151819, -0.04534621, 0.008214643, 0.00397919, -0.2574942, -0.0009919214, -551.6974, -2.614784, 0
NKF1, 40695672, -0.14, -0.7, 95.68, -0.01030661, 0.215664, -0.01362216, 0, 0, 0, -0.01704157, 0, 0.02, -0.2
NKF2, 40695672, -4, 0, 0, 0, 0, 0, 0, 0, 0, 0, 0, 0, 0
NKF3, 40695672, 0, 0, 0, -0.05, 0.49, -0.01, 0, 0, 0, 0, 0
NKF4, 40695672, 0, 0, 0, 0, 0, 2.767824E-05, 0, 0, 0, 19, 229, 0, 0
NKF5, 40695672, 0, 0, 0, 0, 0.14, 0.13, 0, 0.13, 0.5, 0.000106849, 0.003644628, 0.007633079
NKQ1, 40695672, 0.6711197, -0.005815841, 0.003981733, 0.7413155
AHR2, 40695717, -0.06, -0.56, 89.68, -0.21, 0, 0, 0.7090513, 0.003050254, -0.003893934, 0.7051396
MOTB, 40695724, 1, 1, 0, 1
RCIN, 40695729, 0, 0, 0, 0, 0, 0, 0, 0, 0, 0, 0, 0, 0, 0
RCOU, 40695734, 1234, 1221, 1237, 1222, 0, 0, 0, 0, 0, 0, 0, 0, 0, 0
VIBE, 40695743, 0.4288566, 0.4800204, 0.5537649, 0, 0, 0
CTRL, 40695749, 0.001668338, 0.001385885, 0.007447798, 0.001139504, 0.0009325381
PRX, 40695780, 2, 0.58, 0, 0.62, 0, 3.6, 0, 2.45, 0, 0, 0, 0.58
IMU, 40695787, 0.005352456, -0.000370602, -0.008063697, 0.1877673, 0.08107067, -9.825965, 0, 0, 33.18864, 1, 1, 1000, 1000
IMU, 40735780, -0.007273515, 0.004060307, -0.00493797, 0.07294804, -0.0132574, -9.810261, 0, 0, 33.19034, 1, 1, 1000, 1000
RFND, 40745958, 7.65, 25, 0, 0
IMU, 40775114, -0.00137422, -0.001494311, 0.0009992265, -0.01851566, -0.04870805, -9.852604, 0, 0, 33.1915, 1, 1, 1000, 1000
MAG, 40795072, 395, 541, 354, 0, 0, 0, 0, 0, 0, 1, 40795063
RFND, 40795102, 7.65, 25, 0, 0
BARO, 40795140, -0.3167588, 993.5156, 31.13, -0.2826535, 40795, 0, 29.86
CTUN, 40795153, 0, 0, 0, 0.2735043, 0.01693967, 0.01693967, -0.31, 0, 7.64, 0, 0, 1
ATT, 40795233, 0, -0.14, 0, -0.7, 95.69, 95.69, 0, 1
RATE, 40795239, 0.6430827, -0.3738823, 0.004046631, 3.188454, 0.1564546, 0.008275851, 0.003964207, -0.260094, -0.0003793733, -532.9033, -4.018688, 0
NKF1, 40795247, -0.14, -0.7, 95.69, -0.01116427, 0.2195119, -0.01315811, 0, 0, 0, -0.01693967, 0, 0.02, -0.2
NKF2, 40795247, -4, 0, 0, 0, 0, 0, 0, 0, 0, 0, 0, 0, 0
NKF3, 40795247, 0, 0, 0, -0.05, 0.49, -0.01, 0, 0, 0, 0, 0
NKF4, 40795247, 0, 0, 0, 0, 0, 3.062009E-05, 0, 0, 0, 19, 229, 0, 0
NKF5, 40795247, 0, 0, 0, 0, 0.14, 0.13, 0, 0.13, 0.5, 9.661823E-05, 0.003938007, 0.008265131
NKQ1, 40795247, 0.6710775, -0.005753862, 0.003946234, 0.7413545
AHR2, 40795291, -0.07, -0.57, 89.66, -0.31, 0, 0, 0.7091339, 0.003078126, -0.00396654, 0.7050561
MOTB, 40795298, 1, 1, 0, 1
RCIN, 40795302, 0, 0, 0, 0, 0, 0, 0, 0, 0, 0, 0, 0, 0, 0
RCOU, 40795399, 1234, 1227, 1242, 1221, 0, 0, 0, 0, 0, 0, 0, 0, 0, 0
VIBE, 40795410, 0.4563511, 0.4666313, 0.5998727, 0, 0, 0
CTRL, 40795418, 0.001604584, 0.001403223, 0.007558078, 0.001372256, 0.0009119476
PRX, 40795449, 2, 0.58, 0, 0.63, 0, 3.6, 0, 2.46, 0, 0, 0, 0.58
IMU, 40815091, 0.009189757, -0.004796053, 0.007927986, 0.2635292, 0.06181075, -9.877965, 0, 0, 33.19345, 1, 1, 1000, 1000
RFND, 40845102, 7.65, 25, 0, 0
IMU, 40855628, -0.001930521, 0.005586522, -0.01177986, 0.3785609, 0.07326271, -9.754514, 0, 0, 33.1954, 1, 1, 1000, 1000
DU32, 40892474, 7, 33611992
MAG, 40895156, 388, 537, 349, 0, 0, 0, 0, 0, 0, 1, 40895146
RFND, 40895185, 7.65, 25, 0, 0
BARO, 40895223, -0.2222869, 993.5051, 31.12, -0.1901859, 40895, 0, 29.86
CTUN, 40895237, 0, 0, 0, 0.2735043, 0.01705362, 0.01705362, -0.22, 0, 7.64, 0, 0, 0
ATT, 40895415, 0, -0.13, 0, -0.71, 95.72, 95.72, 0, 1
RATE, 40895422, 0.627745, -0.3995599, 0.00515154, 3.207623, 0.08107811, 0.007431986, 0.00384158, 0.9600891, -0.0005132775, -403.497, -2.622318, 0
NKF1, 40895430, -0.13, -0.71, 95.72, -0.01140745, 0.2230269, -0.009962888, 0, 0, 0, -0.01705362, 0, 0.02, -0.2
NKF2, 40895430, -4, 0, 0, 0, 0, 0, 0, 0, 0, 0, 0, 0, 0
NKF3, 40895430, 0, 0, 0, -0.05, 0.54, -0.01, 0, 0, 0, 0, 0
NKF4, 40895430, 0, 0, 0, 0, 0, 3.25649E-05, 0, 0, 0, 19, 229, 0, 0
NKF5, 40895430, 0, 0, 0, 0, 0.14, 0.13, 0, 0.13, 0.5, 0.0001312311, 0.00266484, 0.005226336
NKQ1, 40895430, 0.6708961, -0.00568265, 0.00395899, 0.741519
AHR2, 40895477, -0.06, -0.57, 89.67, -0.22, 0, 0, 0.7090854, 0.003119944, -0.003988716, 0.7051045
MOTB, 40895485, 1, 1, 0, 1
RCIN, 40895489, 0, 0, 0, 0, 0, 0, 0, 0, 0, 0, 0, 0, 0, 0
RCOU, 40895494, 1233, 1229, 1242, 1221, 0, 0, 0, 0, 0, 0, 0, 0, 0, 0
VIBE, 40895502, 0.5552986, 0.526435, 0.6843439, 0, 0, 0
CTRL, 40895509, 0.001572559, 0.001522519, 0.007607237, 0.001402776, 0.000794939
PRX, 40895540, 2, 0.58, 0, 0.62, 0, 3.6, 0, 2.42, 0, 0, 0, 0.58
IMU, 40895547, -0.006855564, 0.001835341, 0.01318275, 0.118438, -0.03316943, -9.827178, 0, 0, 33.19508, 1, 1, 1000, 1000
IMU, 40935116, 0.005456219, -0.007720079, -0.005567584, 0.1653128, -0.007596217, -9.913738, 0, 0, 33.19276, 1, 1, 1000, 1000
RFND, 40945102, 7.65, 25, 0, 0
IMU, 40975219, -0.004246268, -0.004404176, -0.009912943, 0.2989287, 0.08271039, -9.838996, 0, 0, 33.19009, 1, 1, 1000, 1000
MAG, 40995059, 391, 534, 351, 0, 0, 0, 0, 0, 0, 1, 40995050
RFND, 40995090, 7.65, 25, 0, 0
BARO, 40995127, -0.2723015, 993.5109, 31.13, -0.08788484, 40995, 0, 29.86
CTUN, 40995141, 0, 0, 0, 0.2735043, 0.01642668, 0.01642668, -0.27, 0, 7.64, 0, 0, 0
ATT, 40995219, 0, -0.12, 0, -0.73, 95.73, 95.73, 0, 1
RATE, 40995225, 0.5674219, 0.4743102, -0.001590385, 3.287004, -0.1734004, 0.008294228, 0.003611983, 0.1673133, -0.0007759701, -399.3141, 2.618122, 0
NKF1, 40995232, -0.12, -0.73, 95.73, -0.01301305, 0.2332751, -0.009859608, 0, 0, 0, -0.01642668, 0, 0.02, -0.2
NKF2, 40995232, -4, 0, 0, 0, 0, 0, 0, 0, 0, 0, 0, 0, 0
NKF3, 40995232, 0, 0, 0, -0.05, 0.54, -0.01, 0, 0, 0, 0, 0
NKF4, 40995232, 0, 0, 0, 0, 0, 3.664001E-05, 0, 0, 0, 19, 229, 0, 0
NKF5, 40995232, 0, 0, 0, 0, 0.14, 0.13, 0, 0.13, 0.5, 0.0001175178, 0.003070782, 0.005885472
NKQ1, 40995232, 0.6708573, -0.005506097, 0.003931017, 0.7415557
AHR2, 40995275, -0.06, -0.59, 89.66, -0.27, 0, 0, 0.7091707, 0.003280015, -0.004054846, 0.7050176
MOTB, 40995283, 1, 1, 0, 1
