FMT, 128, 89, FMT, BBnNZ, Type,Length,Name,Format,Columns
FMT, 129, 31, PARM, QNf, TimeUS,Name,Value
FMT, 130, 46, GPS, QBIHBcLLefffB, TimeUS,Status,GMS,GWk,NSats,HDop,Lat,Lng,Alt,Spd,GCrs,VZ,U
FMT, 131, 46, GPS2, QBIHBcLLefffB, TimeUS,Status,GMS,GWk,NSats,HDop,Lat,Lng,Alt,Spd,GCrs,VZ,U
FMT, 132, 46, GPSB, QBIHBcLLefffB, TimeUS,Status,GMS,GWk,NSats,HDop,Lat,Lng,Alt,Spd,GCrs,VZ,U
FMT, 193, 24, GPA, QCCCCBI, TimeUS,VDop,HAcc,VAcc,SAcc,VV,SMS
FMT, 194, 24, GPA2, QCCCCBI, TimeUS,VDop,HAcc,VAcc,SAcc,VV,SMS
FMT, 195, 24, GPAB, QCCCCBI, TimeUS,VDop,HAcc,VAcc,SAcc,VV,SMS
FMT, 133, 53, IMU, QffffffIIfBBHH, TimeUS,GyrX,GyrY,GyrZ,AccX,AccY,AccZ,EG,EA,T,GH,AH,GHz,AHz
FMT, 134, 75, MSG, QZ, TimeUS,Message
FMT, 135, 39, RCIN, QHHHHHHHHHHHHHH, TimeUS,C1,C2,C3,C4,C5,C6,C7,C8,C9,C10,C11,C12,C13,C14
FMT, 136, 39, RCOU, QHHHHHHHHHHHHHH, TimeUS,C1,C2,C3,C4,C5,C6,C7,C8,C9,C10,C11,C12,C13,C14
FMT, 137, 15, RSSI, Qf, TimeUS,RXRSSI
FMT, 139, 37, BARO, QffcfIff, TimeUS,Alt,Press,Temp,CRt,SMS,Offset,GndTemp
FMT, 140, 22, POWR, QffHB, TimeUS,Vcc,VServo,Flags,Safety
FMT, 143, 45, CMD, QHHHfffffff, TimeUS,CTot,CNum,CId,Prm1,Prm2,Prm3,Prm4,Lat,Lng,Alt
FMT, 144, 20, RAD, QBBBBBHH, TimeUS,RSSI,RemRSSI,TxBuf,Noise,RemNoise,RxErrors,Fixed
FMT, 146, 43, CAM, QIHLLeeeccC, TimeUS,GPSTime,GPSWeek,Lat,Lng,Alt,RelAlt,GPSAlt,Roll,Pitch,Yaw
FMT, 232, 43, TRIG, QIHLLeeeccC, TimeUS,GPSTime,GPSWeek,Lat,Lng,Alt,RelAlt,GPSAlt,Roll,Pitch,Yaw
FMT, 162, 30, ARSP, QffcffB, TimeUS,Airspeed,DiffPress,Temp,RawPress,Offset,U
FMT, 164, 45, CURR, QfffcHHHHHHHHHH, TimeUS,Volt,Curr,CurrTot,Temp,V1,V2,V3,V4,V5,V6,V7,V8,V9,V10
FMT, 165, 45, CUR2, QfffcHHHHHHHHHH, TimeUS,Volt,Curr,CurrTot,Temp,V1,V2,V3,V4,V5,V6,V7,V8,V9,V10
FMT, 163, 27, ATT, QccccCCCC, TimeUS,DesRoll,Roll,DesPitch,Pitch,DesYaw,Yaw,ErrRP,ErrYaw
FMT, 166, 34, MAG, QhhhhhhhhhBI, TimeUS,MagX,MagY,MagZ,OfsX,OfsY,OfsZ,MOfsX,MOfsY,MOfsZ,Health,S
FMT, 169, 14, MODE, QMBB, TimeUS,Mode,ModeNum,Rsn
FMT, 196, 17, RFND, QCBCB, TimeUS,Dist1,Orient1,Dist2,Orient2
FMT, 223, 33, DMS, IIIIIBBBBBBBBBB, TimeMS,N,Dp,RT,RS,Er,Fa,Fmn,Fmx,Pa,Pmn,Pmx,Sa,Smn,Smx
FMT, 240, 41, BCN, QBBfffffff, TimeUS,Health,Cnt,D0,D1,D2,D3,PosX,PosY,PosZ
FMT, 138, 53, IMU2, QffffffIIfBBHH, TimeUS,GyrX,GyrY,GyrZ,AccX,AccY,AccZ,EG,EA,T,GH,AH,GHz,AHz
FMT, 147, 53, IMU3, QffffffIIfBBHH, TimeUS,GyrX,GyrY,GyrZ,AccX,AccY,AccZ,EG,EA,T,GH,AH,GHz,AHz
FMT, 141, 45, AHR2, QccCfLLffff, TimeUS,Roll,Pitch,Yaw,Alt,Lat,Lng,Q1,Q2,Q3,Q4
FMT, 180, 31, POS, QLLfff, TimeUS,Lat,Lng,Alt,RelHomeAlt,RelOriginAlt
FMT, 142, 45, SIM, QccCfLLffff, TimeUS,Roll,Pitch,Yaw,Alt,Lat,Lng,Q1,Q2,Q3,Q4
FMT, 198, 51, NKF1, QccCfffffffccc, TimeUS,Roll,Pitch,Yaw,VN,VE,VD,dPD,PN,PE,PD,GX,GY,GZ
FMT, 199, 35, NKF2, QbccccchhhhhhB, TimeUS,AZbias,GSX,GSY,GSZ,VWN,VWE,MN,ME,MD,MX,MY,MZ,MI
FMT, 200, 33, NKF3, Qcccccchhhcc, TimeUS,IVN,IVE,IVD,IPN,IPE,IPD,IMX,IMY,IMZ,IYAW,IVT
FMT, 201, 35, NKF4, QcccccfbbHBHHb, TimeUS,SV,SP,SH,SM,SVT,errRP,OFN,OFE,FS,TS,SS,GPS,PI
FMT, 202, 40, NKF5, QBhhhcccCCfff, TimeUS,NI,FIX,FIY,AFI,HAGL,offset,RI,rng,Herr,eAng,eVel,ePos
FMT, 203, 51, NKF6, QccCfffffffccc, TimeUS,Roll,Pitch,Yaw,VN,VE,VD,dPD,PN,PE,PD,GX,GY,GZ
FMT, 204, 35, NKF7, QbccccchhhhhhB, TimeUS,AZbias,GSX,GSY,GSZ,VWN,VWE,MN,ME,MD,MX,MY,MZ,MI
FMT, 205, 33, NKF8, Qcccccchhhcc, TimeUS,IVN,IVE,IVD,IPN,IPE,IPD,IMX,IMY,IMZ,IYAW,IVT
FMT, 206, 35, NKF9, QcccccfbbHBHHb, TimeUS,SV,SP,SH,SM,SVT,errRP,OFN,OFE,FS,TS,SS,GPS,PI
FMT, 207, 36, NKF0, QBccCCcccccccc, TimeUS,ID,rng,innov,SIV,TR,BPN,BPE,BPD,OFH,OFL,OFN,OFE,OFD
FMT, 208, 27, NKQ1, Qffff, TimeUS,Q1,Q2,Q3,Q4
FMT, 209, 27, NKQ2, Qffff, TimeUS,Q1,Q2,Q3,Q4
FMT, 210, 51, XKF1, QccCfffffffccc, TimeUS,Roll,Pitch,Yaw,VN,VE,VD,dPD,PN,PE,PD,GX,GY,GZ
FMT, 211, 34, XKF2, QccccchhhhhhB, TimeUS,AX,AY,AZ,VWN,VWE,MN,ME,MD,MX,MY,MZ,MI
FMT, 212, 33, XKF3, Qcccccchhhcc, TimeUS,IVN,IVE,IVD,IPN,IPE,IPD,IMX,IMY,IMZ,IYAW,IVT
FMT, 213, 35, XKF4, QcccccfbbHBHHb, TimeUS,SV,SP,SH,SM,SVT,errRP,OFN,OFE,FS,TS,SS,GPS,PI
FMT, 214, 40, XKF5, QBhhhcccCCfff, TimeUS,NI,FIX,FIY,AFI,HAGL,offset,RI,rng,Herr,eAng,eVel,ePos
FMT, 215, 51, XKF6, QccCfffffffccc, TimeUS,Roll,Pitch,Yaw,VN,VE,VD,dPD,PN,PE,PD,GX,GY,GZ
FMT, 216, 34, XKF7, QccccchhhhhhB, TimeUS,AX,AY,AZ,VWN,VWE,MN,ME,MD,MX,MY,MZ,MI
FMT, 217, 33, XKF8, Qcccccchhhcc, TimeUS,IVN,IVE,IVD,IPN,IPE,IPD,IMX,IMY,IMZ,IYAW,IVT
FMT, 218, 35, XKF9, QcccccfbbHBHHb, TimeUS,SV,SP,SH,SM,SVT,errRP,OFN,OFE,FS,TS,SS,GPS,PI
FMT, 219, 36, XKF0, QBccCCcccccccc, TimeUS,ID,rng,innov,SIV,TR,BPN,BPE,BPD,OFH,OFL,OFN,OFE,OFD
FMT, 220, 27, XKQ1, Qffff, TimeUS,Q1,Q2,Q3,Q4
FMT, 221, 27, XKQ2, Qffff, TimeUS,Q1,Q2,Q3,Q4
FMT, 222, 35, XKFD, Qffffff, TimeUS,IX,IY,IZ,IVX,IVY,IVZ
FMT, 148, 34, TERR, QBLLHffHH, TimeUS,Status,Lat,Lng,Spacing,TerrH,CHeight,Pending,Loaded
FMT, 149, 18, UBX1, QBHBBH, TimeUS,Instance,noisePerMS,jamInd,aPower,agcCnt
FMT, 150, 16, UBX2, QBbBbB, TimeUS,Instance,ofsI,magI,ofsQ,magQ
FMT, 151, 18, UBY1, QBHBBH, TimeUS,Instance,noisePerMS,jamInd,aPower,agcCnt
FMT, 152, 16, UBY2, QBbBbB, TimeUS,Instance,ofsI,magI,ofsQ,magQ
FMT, 170, 42, GRAW, QIHBBddfBbB, TimeUS,WkMS,Week,numSV,sv,cpMes,prMes,doMes,mesQI,cno,lli
FMT, 171, 24, GRXH, QdHbBB, TimeUS,rcvTime,week,leapS,numMeas,recStat
FMT, 172, 41, GRXS, QddfBBBHBBBBB, TimeUS,prMes,cpMes,doMes,gnss,sv,freq,lock,cno,prD,cpD,doD,trk
FMT, 173, 63, SBFE, QIHBBdddfffff, TimeUS,TOW,WN,Mode,Err,Lat,Lng,Height,Undul,Vn,Ve,Vu,COG
FMT, 153, 19, ESC1, Qcccc, TimeUS,RPM,Volt,Curr,Temp
FMT, 154, 19, ESC2, Qcccc, TimeUS,RPM,Volt,Curr,Temp
FMT, 155, 19, ESC3, Qcccc, TimeUS,RPM,Volt,Curr,Temp
FMT, 156, 19, ESC4, Qcccc, TimeUS,RPM,Volt,Curr,Temp
FMT, 157, 19, ESC5, Qcccc, TimeUS,RPM,Volt,Curr,Temp
FMT, 158, 19, ESC6, Qcccc, TimeUS,RPM,Volt,Curr,Temp
FMT, 159, 19, ESC7, Qcccc, TimeUS,RPM,Volt,Curr,Temp
FMT, 160, 19, ESC8, Qcccc, TimeUS,RPM,Volt,Curr,Temp
FMT, 167, 34, MAG2, QhhhhhhhhhBI, TimeUS,MagX,MagY,MagZ,OfsX,OfsY,OfsZ,MOfsX,MOfsY,MOfsZ,Health,S
FMT, 168, 34, MAG3, QhhhhhhhhhBI, TimeUS,MagX,MagY,MagZ,OfsX,OfsY,OfsZ,MOfsX,MOfsY,MOfsZ,Health,S
FMT, 174, 31, ACC1, QQfff, TimeUS,SampleUS,AccX,AccY,AccZ
FMT, 175, 31, ACC2, QQfff, TimeUS,SampleUS,AccX,AccY,AccZ
FMT, 176, 31, ACC3, QQfff, TimeUS,SampleUS,AccX,AccY,AccZ
FMT, 177, 31, GYR1, QQfff, TimeUS,SampleUS,GyrX,GyrY,GyrZ
FMT, 178, 31, GYR2, QQfff, TimeUS,SampleUS,GyrX,GyrY,GyrZ
FMT, 179, 31, GYR3, QQfff, TimeUS,SampleUS,GyrX,GyrY,GyrZ
FMT, 181, 35, PIDR, Qffffff, TimeUS,Des,P,I,D,FF,AFF
FMT, 182, 35, PIDP, Qffffff, TimeUS,Des,P,I,D,FF,AFF
FMT, 183, 35, PIDY, Qffffff, TimeUS,Des,P,I,D,FF,AFF
FMT, 184, 35, PIDA, Qffffff, TimeUS,Des,P,I,D,FF,AFF
FMT, 185, 35, PIDS, Qffffff, TimeUS,Des,P,I,D,FF,AFF
FMT, 186, 35, PIDL, Qffffff, TimeUS,Des,P,I,D,FF,AFF
FMT, 161, 37, BAR2, QffcfIff, TimeUS,Alt,Press,Temp,CRt,SMS,Offset,GndTemp
FMT, 197, 37, BAR3, QffcfIff, TimeUS,Alt,Press,Temp,CRt,SMS,Offset,GndTemp
FMT, 187, 35, VIBE, QfffIII, TimeUS,VibeX,VibeY,VibeZ,Clip0,Clip1,Clip2
FMT, 188, 47, IMT, Qfffffffff, TimeUS,DelT,DelvT,DelaT,DelAX,DelAY,DelAZ,DelVX,DelVY,DelVZ
FMT, 189, 47, IMT2, Qfffffffff, TimeUS,DelT,DelvT,DelaT,DelAX,DelAY,DelAZ,DelVX,DelVY,DelVZ
FMT, 190, 47, IMT3, Qfffffffff, TimeUS,DelT,DelvT,DelaT,DelAX,DelAY,DelAZ,DelVX,DelVY,DelVZ
FMT, 191, 24, ORGN, QBLLe, TimeUS,Type,Lat,Lng,Alt
FMT, 192, 19, RPM, Qff, TimeUS,rpm1,rpm2
FMT, 233, 47, GMB1, Iffffffffff, TimeMS,dt,dax,day,daz,dvx,dvy,dvz,jx,jy,jz
FMT, 234, 44, GMB2, IBfffffffff, TimeMS,es,ex,ey,ez,rx,ry,rz,tx,ty,tz
FMT, 235, 13, GMB3, Ihhh, TimeMS,rl_torque_cmd,el_torque_cmd,az_torque_cmd
FMT, 236, 59, RATE, Qffffffffffff, TimeUS,RDes,R,ROut,PDes,P,POut,YDes,Y,YOut,ADes,A,AOut
FMT, 237, 23, RALY, QBBLLh, TimeUS,Tot,Seq,Lat,Lng,Alt
FMT, 238, 43, VISO, Qffffffff, TimeUS,dt,AngDX,AngDY,AngDZ,PosDX,PosDY,PosDZ,conf
FMT, 224, 23, SBPH, QIII, TimeUS,CrcError,LastInject,IARhyp
FMT, 229, 80, SBR1, QHHBZ, TimeUS,msg_type,sender_id,msg_len,d1
FMT, 230, 205, SBR2, QHZZZ, TimeUS,msg_type,d2,d3,d4
FMT, 25, 41, ATUN, QBBfffffff, TimeUS,Axis,TuneStep,Targ,Min,Max,RP,RD,SP,ddt
FMT, 26, 19, ATDE, Qff, TimeUS,Angle,Rate
FMT, 31, 22, PTUN, QBfHHH, TimeUS,Param,TunVal,CtrlIn,TunLo,TunHi
FMT, 12, 28, OF, QBffff, TimeUS,Qual,flowX,flowY,bodyX,bodyY
FMT, 5, 51, NTUN, Qffffffffff, TimeUS,DPosX,DPosY,PosX,PosY,DVelX,DVelY,VelX,VelY,DAccX,DAccY
FMT, 4, 51, CTUN, Qffffffeccfhh, TimeUS,ThI,ABst,ThO,ThH,DAlt,Alt,BAlt,DSAlt,SAlt,TAlt,DCRt,CRt
FMT, 6, 32, PM, QHHIhBHII, TimeUS,NLon,NLoop,MaxT,PMT,I2CErr,INSErr,LogDrop,Mem
FMT, 30, 27, MOTB, Qffff, TimeUS,LiftMax,BatVolt,BatRes,ThLimit
FMT, 13, 12, EV, QB, TimeUS,Id
FMT, 20, 14, D16, QBh, TimeUS,Id,Value
FMT, 21, 14, DU16, QBH, TimeUS,Id,Value
FMT, 22, 16, D32, QBi, TimeUS,Id,Value
FMT, 23, 16, DU32, QBI, TimeUS,Id,Value
FMT, 24, 16, DFLT, QBf, TimeUS,Id,Value
FMT, 19, 13, ERR, QBB, TimeUS,Subsys,ECode
FMT, 32, 19, HELI, Qff, TimeUS,DRRPM,ERRPM
FMT, 33, 29, PL, QBBffff, TimeUS,Heal,TAcq,pX,pY,vX,vY
FMT, 34, 36, GUID, QBffffff, TimeUS,Type,pX,pY,pZ,vX,vY,vZ
FMT, 35, 32, THRO, QBffffbbbb, TimeUS,Stage,Vel,VelZ,Acc,AccEfZ,Throw,AttOk,HgtOk,PosOk
FMT, 36, 56, PRX, QBfffffffffff, TimeUS,Health,D0,D45,D90,D135,D180,D225,D270,D315,DUp,CAn,CDis
MODE, 46609192, 100, 100, 2
RFND, 46612825, 0.2, 25, 0, 0
EV, 46623843, 15
FMT, 254, 47, NKT1, QIffffffff, TimeUS,Cnt,IMUMin,IMUMax,EKFMin,EKFMax,AngMin,AngMax,VelMin,VelM
FMT, 253, 31, CTRL, Qfffff, TimeUS,RMSRollP,RMSRollD,RMSPitchP,RMSPitchD,RMSYaw
MSG, 46754006, APM:Copter V3.5.7 (38483450)
MSG, 46754010, New mission
MSG, 46754022, Frame: QUAD
MODE, 46754027, Autonomous, 100, 2
MAG, 46763818, 339, 505, 282, 0, 0, 0, 0, 0, 0, 1, 46763810
RFND, 46763847, 0.2, 25, 0, 0
BARO, 46763887, -0.225522, 993.5, 35.39, 0.3494622, 46763, 0, 34.27
CTUN, 46763901, 0, 0, 0, 0.2662303, 0.06256044, 0.06256044, -0.22, 0, 0.19, 0, 0, 0
ATT, 46764004, 0, 0.53, 0, -0.01, 359.87, 359.89, 0, 1
RATE, 46764011, -2.395309, 0.04425413, -0.005896948, 0.07000724, -0.1044606, 0.0009180614, -0.0002349947, -0.006597933, -5.498544E-05, 70.93378, -0.5177498, 0
NKF1, 46764018, 0.53, -0.01, 359.88, 0.004773007, 0.005232222, 0.001751452, 0, 0, 0, -0.06256044, -0.03, 0.01, 0
NKF2, 46764018, -5, 0, 0, 0, 0, 0, 0, 0, 0, 0, 0, 0, 0
NKF3, 46764018, 0, 0, 0, 0, 0, 0, 0, 0, 0, 0, 0
NKF4, 46764018, 0, 0, 0, 0, 0, 1.637197E-05, 0, 0, 0, 19, 229, 0, 0
NKF5, 46764018, 0, 0, 0, 0, 0.19, 0.13, 0, 0.19, 0.5, 6.837886E-05, 0.0004225658, 0.0007775805
NKQ1, 46764018, 0.9999767, 0.0001070052, 0.006748429, -0.001043588
AHR2, 46764062, 0.45, 0.02, 359.86, -0.22, 0, 0, 0.9999915, 0.003960453, 0.0002120186, -0.001147296
MOTB, 46764070, 1, 1, 0, 1
RCIN, 46764074, 0, 0, 0, 0, 0, 0, 0, 0, 0, 0, 0, 0, 0, 0
RCOU, 46764079, 1101, 1101, 1101, 1101, 0, 0, 0, 0, 0, 0, 0, 0, 0, 0
VIBE, 46764087, 0.01866901, 0.01993987, 0.03147109, 0, 0, 0
CTRL, 46764094, 0.005661675, 0.0001617143, 0.0002116616, 0.0002640367, 5.429222E-05
PRX, 46764125, 2, 0.71, 0, 0.61, 0, 3.6, 0, 2.44, 0, 0, 90, 0.61
IMU, 46783877, -0.0005059052, 0.000206217, -0.001125065, 0.1284334, 0.002861304, -9.861122, 0, 0, 37.34177, 1, 1, 1000, 1000
RFND, 46813730, 0.2, 25, 0, 0
IMU, 46823869, -0.0003569343, 0.0005531032, 0.0001136788, 0.1365754, 0.003948715, -9.854973, 0, 0, 37.34182, 1, 1, 1000, 1000
MAG, 46863872, 342, 503, 282, 0, 0, 0, 0, 0, 0, 1, 46863864
RFND, 46863903, 0.2, 25, 0, 0
BARO, 46863943, -0.2537123, 993.5037, 35.39, 0.1122752, 46863, 0, 34.27
CTUN, 46863956, 0, 0, 0, 0.2662303, 0.06278352, 0.06278352, -0.25, 0, 0.19, 0, 0, 0
DU32, 46863994, 7, 50356728
ATT, 46864224, 0, 0.53, 0, -0.01, 359.87, 359.88, 0, 1
RATE, 46864232, -2.391881, 0.007361696, -0.005731329, 0.07376815, -0.09946458, 0.0007598452, 0.0004159453, 0.05179465, 5.320308E-05, 56.71495, -0.1682281, 0
NKF1, 46864242, 0.53, -0.01, 359.87, 0.004313654, 0.004768685, 0.001400369, 0, 0, 0, -0.06278352, -0.03, 0.01, 0
NKF2, 46864242, -5, 0, 0, 0, 0, 0, 0, 0, 0, 0, 0, 0, 0
NKF3, 46864242, 0, 0, 0, 0, 0, 0, 0, 0, 0, 0, 0
NKF4, 46864242, 0, 0, 0, 0, 0, 1.101433E-05, 0, 0, 0, 19, 229, 0, 0
NKF5, 46864242, 0, 0, 0, 0, 0.19, 0.13, 0, 0.19, 0.5, 6.061922E-05, 0.000243829, 0.0005260405
NKQ1, 46864242, 0.9999768, 9.986713E-05, 0.006742211, -0.001069083
AHR2, 46864287, 0.45, 0.02, 359.86, -0.25, 0, 0, 0.9999915, 0.003951971, 0.0002014668, -0.001172537
MOTB, 46864295, 1, 1, 0, 1
RCIN, 46864300, 0, 0, 0, 0, 0, 0, 0, 0, 0, 0, 0, 0, 0, 0
RCOU, 46864305, 1101, 1101, 1101, 1101, 0, 0, 0, 0, 0, 0, 0, 0, 0, 0
VIBE, 46864314, 0.0196789, 0.01988676, 0.03032107, 0, 0, 0
CTRL, 46864320, 0.005655384, 0.0001474426, 0.0002155678, 0.0002464441, 5.937678E-05
PRX, 46864350, 2, 0.71, 0, 0.61, 0, 3.6, 0, 2.43, 0, 0, 90, 0.61
IMU, 46864357, -0.0004021437, -0.001480834, 0.0008986047, 0.1196583, -0.00911228, -9.85648, 0, 0, 37.34176, 1, 1, 1000, 1000
IMU, 46903907, -0.0003898911, 0.00174447, -0.0003462034, 0.1373689, -0.008486424, -9.870948, 0, 0, 37.34176, 1, 1, 1000, 1000
RFND, 46913874, 0.2, 25, 0, 0
IMU, 46943874, -0.0008179027, 0.0009084454, 7.699939E-06, 0.1373676, 0.003911252, -9.871428, 0, 0, 37.34182, 1, 1, 1000, 1000
MAG, 46963814, 340, 505, 278, 0, 0, 0, 0, 0, 0, 1, 46963806
RFND, 46963844, 0.2, 25, 0, 0
BARO, 46963884, -0.2875406, 993.507, 35.39, -0.07120714, 46963, 0, 34.27
CTUN, 46963896, 0, 0, 0, 0.2662303, 0.06303696, 0.06303696, -0.28, 0, 0.19, 0, 0, 0
ATT, 46963998, 0, 0.53, 0, -0.01, 359.87, 359.88, 0, 1
RATE, 46964004, -2.39213, -0.004418305, -0.005738555, 0.06522845, -0.080225, 0.0007209619, 0.0009235332, 0.02716467, -5.902873E-06, 24.07791, 0.9602547, 0
NKF1, 46964012, 0.53, -0.01, 359.87, 0.004461595, 0.00477117, 0.0005945162, 0, 0, 0, -0.06303696, -0.03, 0.01, 0
NKF2, 46964012, -5, 0, 0, 0, 0, 0, 0, 0, 0, 0, 0, 0, 0
NKF3, 46964012, 0, 0, 0, 0, 0, 0, 0, 0, 0, 0, 0
NKF4, 46964012, 0, 0, 0, 0, 0, 7.097865E-06, 0, 0, 0, 19, 229, 0, 0
NKF5, 46964012, 0, 0, 0, 0, 0.19, 0.13, 0, 0.19, 0.5, 5.293633E-05, 0.0002484703, 0.0004828079
NKQ1, 46964012, 0.9999766, 9.911278E-05, 0.006758365, -0.001069125
AHR2, 46964057, 0.45, 0.02, 359.86, -0.28, 0, 0, 0.9999915, 0.00395244, 0.000213209, -0.001172506
MOTB, 46964065, 1, 1, 0, 1
RCIN, 46964069, 0, 0, 0, 0, 0, 0, 0, 0, 0, 0, 0, 0, 0, 0
RCOU, 46964074, 1101, 1101, 1101, 1101, 0, 0, 0, 0, 0, 0, 0, 0, 0, 0
VIBE, 46964083, 0.01892208, 0.01988634, 0.03156739, 0, 0, 0
CTRL, 46964089, 0.005647312, 0.0001459566, 0.0002021302, 0.000247492, 5.035946E-05
PRX, 46964121, 2, 0.71, 0, 0.61, 0, 3.6, 0, 2.44, 0, 0, 90, 0.61
IMU, 46984013, 0.0009258178, 0.000581426, 0.0004712643, 0.1402526, -0.004954144, -9.860987, 0, 0, 37.3417, 1, 1, 1000, 1000
RFND, 47013679, 0.2, 25, 0, 0
IMU, 47023891, -0.0004652426, 0.0004383545, 0.0001285023, 0.1294028, -0.0105987, -9.843284, 0, 0, 37.34184, 1, 1, 1000, 1000
MAG, 47064390, 340, 506, 285, 0, 0, 0, 0, 0, 0, 1, 47064381
RFND, 47064418, 0.2, 25, 0, 0
BARO, 47064457, -0.2875406, 993.507, 35.39, -0.1607992, 47064, 0, 34.27
CTUN, 47064470, 0, 0, 0, 0.2662303, 0.06328358, 0.06328358, -0.28, 0, 0.19, 0, 0, 0
ATT, 47064610, 0, 0.53, 0, -0.01, 359.87, 359.88, 0, 1
RATE, 47064616, -2.395554, -0.05997656, -0.005318746, 0.06105424, -0.06300635, 0.000416578, -0.0001385527, -0.0105803, -1.847811E-05, 40.65177, -0.4026413, 0
NKF1, 47064624, 0.53, -0.01, 359.87, 0.004470405, 0.004344324, 0.001003747, 0, 0, 0, -0.06328358, -0.03, 0.01, 0
NKF2, 47064624, -5, 0, 0, 0, 0, 0, 0, 0, 0, 0, 0, 0, 0
NKF3, 47064624, 0, 0, 0, 0, 0, 0, 0, 0, 0, 0, 0
NKF4, 47064624, 0, 0, 0, 0, 0, 4.771647E-06, 0, 0, 0, 19, 229, 0, 0
NKF5, 47064624, 0, 0, 0, 0, 0.19, 0.13, 0, 0.19, 0.5, 4.672426E-05, 0.0003402401, 0.0007315961
NKQ1, 47064624, 0.9999766, 0.0001058673, 0.006765767, -0.001060097
AHR2, 47064664, 0.45, 0.02, 359.86, -0.28, 0, 0, 0.9999915, 0.003965441, 0.0002152202, -0.001163423
MOTB, 47064671, 1, 1, 0, 1
RCIN, 47064676, 0, 0, 0, 0, 0, 0, 0, 0, 0, 0, 0, 0, 0, 0
RCOU, 47064681, 1101, 1101, 1101, 1101, 0, 0, 0, 0, 0, 0, 0, 0, 0, 0
VIBE, 47064690, 0.02057194, 0.0206241, 0.03010993, 0, 0, 0
CTRL, 47064696, 0.005666737, 0.0001536915, 0.0001945766, 0.0002372746, 4.423304E-05
PRX, 47064727, 2, 0.71, 0, 0.61, 0, 3.6, 0, 2.42, 0, 0, 90, 0.61
IMU, 47064733, -0.001579629, -0.0008434557, -0.0001900661, 0.1422017, -0.002843731, -9.854044, 0, 0, 37.34172, 1, 1, 1000, 1000
IMU, 47104414, 0.001630076, -0.0001954757, 0.001322152, 0.1410412, 0.0005934339, -9.85063, 0, 0, 37.34181, 1, 1, 1000, 1000
RFND, 47114377, 0.2, 25, 0, 0
IMU, 47144490, 0.0002664986, 0.001735532, -0.001207688, 0.1260704, -0.003057997, -9.849174, 0, 0, 37.34177, 1, 1, 1000, 1000
MAG, 47164338, 340, 500, 283, 0, 0, 0, 0, 0, 0, 1, 47164329
RFND, 47164367, 0.2, 25, 0, 0
BARO, 47164407, -0.1522274, 993.4922, 35.4, -0.1478854, 47164, 0, 34.27
CTUN, 47164419, 0, 0, 0, 0.2662303, 0.06354562, 0.06354562, -0.15, 0, 0.19, 0, 0, 0
ATT, 47164521, 0, 0.53, 0, -0.01, 359.87, 359.88, 0, 1
RATE, 47164528, -2.410235, 0.01256176, -0.005674789, 0.06763548, -0.04016861, 0.00058149, -0.001434974, 0.05622377, 2.907578E-05, 51.70314, -1.412964, 0
NKF1, 47164535, 0.53, -0.01, 359.87, 0.005207181, 0.004676672, 0.001276621, 0, 0, 0, -0.06354562, -0.03, 0.01, 0
NKF2, 47164535, -5, 0, 0, 0, 0, 0, 0, 0, 0, 0, 0, 0, 0
NKF3, 47164535, 0, 0, 0, 0, 0, 0, 0, 0, 0, 0, 0
NKF4, 47164535, 0, 0, 0, 0, 0, 3.209307E-06, 0, 0, 0, 19, 229, 0, 0
NKF5, 47164535, 0, 0, 0, 0, 0.19, 0.13, 0, 0.19, 0.5, 4.192564E-05, 0.0003885631, 0.0008174772
NKQ1, 47164535, 0.9999766, 0.0001334713, 0.006754207, -0.001058535
AHR2, 47164580, 0.45, 0.02, 359.86, -0.15, 0, 0, 0.9999913, 0.003998608, 0.0002001853, -0.001161879
MOTB, 47164587, 1, 1, 0, 1
RCIN, 47164591, 0, 0, 0, 0, 0, 0, 0, 0, 0, 0, 0, 0, 0, 0
RCOU, 47164596, 1101, 1101, 1101, 1101, 0, 0, 0, 0, 0, 0, 0, 0, 0, 0
VIBE, 47164605, 0.02171685, 0.02113912, 0.02797982, 0, 0, 0
CTRL, 47164612, 0.005688072, 0.0001889159, 0.0001977389, 0.0002215186, 4.120032E-05
PRX, 47164644, 2, 0.7, 0, 0.61, 0, 3.6, 0, 2.45, 0, 0, 90, 0.61
IMU, 47184422, -0.00106711, -2.546184E-05, 0.0003530089, 0.1421856, -0.009364544, -9.874413, 0, 0, 37.34174, 1, 1, 1000, 1000
RFND, 47214308, 0.2, 25, 0, 0
IMU, 47224440, -0.0009299254, -0.0005722097, 0.001024275, 0.1358925, 0.0109843, -9.84692, 0, 0, 37.34182, 1, 1, 1000, 1000
MAG, 47264505, 339, 502, 281, 0, 0, 0, 0, 0, 0, 1, 47264497
RFND, 47264536, 0.2, 25, 0, 0
BARO, 47264575, -0.0338283, 993.4789, 35.4, 0.1020135, 47264, 0, 34.27
CTUN, 47264588, 0, 0, 0, 0.2662303, 0.06369773, 0.06369773, -0.03, 0, 0.19, 0, 0, 0
ATT, 47264693, 0, 0.53, 0, -0.01, 359.87, 359.89, 0, 1
RATE, 47264699, -2.408666, 0.02946273, -0.005785172, 0.06485443, 0.04012311, 0.0001399193, 0.002055785, -0.03420518, -8.112242E-05, 58.71744, -1.305676, 0
NKF1, 47264708, 0.53, -0.01, 359.88, 0.005568638, 0.004915216, 0.001449813, 0, 0, 0, -0.06369773, -0.03, 0.01, 0
NKF2, 47264708, -5, 0, 0, 0, 0, 0, 0, 0, 0, 0, 0, 0, 0
NKF3, 47264708, 0, 0, 0, 0, 0, 0, 0, 0, 0, 0, 0
NKF4, 47264708, 0, 0, 0, 0, 0, 2.178019E-06, 0, 0, 0, 19, 229, 0, 0
NKF5, 47264708, 0, 0, 0, 0, 0.19, 0.13, 0, 0.19, 0.5, 3.882167E-05, 0.000416206, 0.0008955115
NKQ1, 47264708, 0.9999767, 0.0001318442, 0.006757922, -0.001036977
AHR2, 47264750, 0.45, 0.02, 359.86, -0.03, 0, 0, 0.9999914, 0.004001864, 0.0002044615, -0.001140233
MOTB, 47264757, 1, 1, 0, 1
RCIN, 47264761, 0, 0, 0, 0, 0, 0, 0, 0, 0, 0, 0, 0, 0, 0
RCOU, 47264767, 1101, 1101, 1101, 1101, 0, 0, 0, 0, 0, 0, 0, 0, 0, 0
VIBE, 47264776, 0.02287046, 0.02054581, 0.03531481, 0, 0, 0
CTRL, 47264782, 0.005684108, 0.0001670971, 0.0001951764, 0.0002166062, 5.98861E-05
PRX, 47264812, 2, 0.71, 0, 0.61, 0, 3.6, 0, 2.45, 0, 0, 90, 0.61
IMU, 47264819, -2.127973E-05, 0.0009577695, -0.0006024248, 0.1235134, -0.0008369236, -9.845519, 0, 0, 37.34172, 1, 1, 1000, 1000
IMU, 47304515, -7.958923E-06, 0.0002700552, -2.885673E-05, 0.1426071, -0.004349737, -9.875174, 0, 0, 37.34181, 1, 1, 1000, 1000
RFND, 47314748, 0.2, 25, 0, 0
IMU, 47344485, -0.0009249373, 0.001659987, -0.0008460231, 0.1313856, -0.004096556, -9.845357, 0, 0, 37.3418, 1, 1, 1000, 1000
MAG, 47364352, 339, 504, 278, 0, 0, 0, 0, 0, 0, 1, 47364343
RFND, 47364380, 0.2, 25, 0, 0
BARO, 47364420, -0.112761, 993.4881, 35.4, 0.5197238, 47364, 0, 34.27
CTUN, 47364434, 0, 0, 0, 0.2662303, 0.06390782, 0.06390782, -0.11, 0, 0.19, 0, 0, 0
ATT, 47364538, 0, 0.53, 0, -0.01, 359.87, 359.89, 0, 1
RATE, 47364544, -2.415687, 0.07358339, -0.006227074, 0.04544681, 0.08033207, 0.0001454532, -0.0006514657, -0.03207403, -4.013791E-05, 46.22273, -0.7055283, 0
NKF1, 47364552, 0.53, -0.01, 359.88, 0.005878731, 0.005099637, 0.001141302, 0, 0, 0, -0.06390782, -0.03, 0.01, 0
NKF2, 47364552, -5, 0, 0, 0, 0, 0, 0, 0, 0, 0, 0, 0, 0
NKF3, 47364552, 0, 0, 0, 0, 0, 0, 0, 0, 0, 0, 0
NKF4, 47364552, 0, 0, 0, 0, 0, 1.498406E-06, 0, 0, 0, 19, 229, 0, 0
NKF5, 47364552, 0, 0, 0, 0, 0.19, 0.13, 0, 0.19, 0.5, 3.671098E-05, 0.0004740395, 0.001030767
NKQ1, 47364552, 0.9999765, 0.0001438585, 0.006795612, -0.001013312
AHR2, 47364597, 0.46, 0.02, 359.87, -0.11, 0, 0, 0.9999913, 0.004017295, 0.0002433379, -0.001116763
MOTB, 47364603, 1, 1, 0, 1
RCIN, 47364607, 0, 0, 0, 0, 0, 0, 0, 0, 0, 0, 0, 0, 0, 0
RCOU, 47364613, 1101, 1101, 1101, 1101, 0, 0, 0, 0, 0, 0, 0, 0, 0, 0
VIBE, 47364621, 0.02048801, 0.02112381, 0.03409201, 0, 0, 0
CTRL, 47364628, 0.005691555, 0.0001810989, 0.0001779818, 0.0002087552, 7.170439E-05
PRX, 47364659, 2, 0.71, 0, 0.61, 0, 3.6, 0, 2.43, 0, 0, 90, 0.61
IMU, 47384530, -0.0005411269, 0.0009974616, 0.0001922131, 0.1455309, 0.0005726743, -9.856999, 0, 0, 37.34174, 1, 1, 1000, 1000
RFND, 47414387, 0.2, 25, 0, 0
IMU, 47424827, 0.0005678561, 0.000942606, -0.0006475215, 0.1435969, -0.005602222, -9.872542, 0, 0, 37.34184, 1, 1, 1000, 1000
MAG, 47464369, 344, 504, 288, 0, 0, 0, 0, 0, 0, 1, 47464361
RFND, 47464403, 0.2, 25, 0, 0
BARO, 47464441, -0.1747796, 993.4945, 35.4, 0.6389805, 47464, 0, 34.27
CTUN, 47464454, 0, 0, 0, 0.2662303, 0.06409344, 0.06409344, -0.17, 0, 0.19, 0, 0, 0
ATT, 47464557, 0, 0.53, 0, 0, 359.87, 359.89, 0, 1
RATE, 47464564, -2.424039, 0.0617773, -0.005966038, 0.0361679, -0.02896212, 0.0003341839, -0.0009704834, 0.02154597, -1.107047E-05, 14.91353, 0.343895, 0
NKF1, 47464572, 0.53, 0, 359.88, 0.006566199, 0.005207625, 0.0003682352, 0, 0, 0, -0.06409344, -0.03, 0.01, 0
NKF2, 47464572, -5, 0, 0, 0, 0, 0, 0, 0, 0, 0, 0, 0, 0
NKF3, 47464572, 0, 0, 0, 0, 0, 0, 0, 0, 0, 0, 0
NKF4, 47464572, 0, 0, 0, 0, 0, 1.047881E-06, 0, 0, 0, 19, 229, 0, 0
NKF5, 47464572, 0, 0, 0, 0, 0.19, 0.13, 0, 0.19, 0.5, 3.559955E-05, 0.0004657394, 0.001030872
NKQ1, 47464572, 0.9999763, 0.0001617548, 0.006814529, -0.001006601
AHR2, 47464616, 0.46, 0.03, 359.87, -0.17, 0, 0, 0.9999912, 0.00403681, 0.0002635445, -0.001110196
MOTB, 47464623, 1, 1, 0, 1
RCIN, 47464628, 0, 0, 0, 0, 0, 0, 0, 0, 0, 0, 0, 0, 0, 0
RCOU, 47464633, 1101, 1101, 1101, 1101, 0, 0, 0, 0, 0, 0, 0, 0, 0, 0
VIBE, 47464642, 0.01991267, 0.02065969, 0.03211061, 0, 0, 0
CTRL, 47464648, 0.005715393, 0.0001806491, 0.0001497324, 0.0001874601, 6.093675E-05
PRX, 47464680, 2, 0.71, 0, 0.61, 0, 0.54, 0, 2.44, 0, 0, 180, 0.54
IMU, 47464687, 0.0005426197, -0.0002479511, 0.0003706153, 0.1349108, 0.002725204, -9.86187, 0, 0, 37.34172, 1, 1, 1000, 1000
IMU, 47504601, -8.923995E-05, -0.001396309, -0.0004767438, 0.1455461, 0.0008189912, -9.862249, 0, 0, 37.3417, 1, 1, 1000, 1000
RFND, 47514302, 0.2, 25, 0, 0
IMU, 47544457, 0.0001542059, 8.911404E-05, 2.930742E-05, 0.1377185, 0.001547739, -9.877462, 0, 0, 37.34181, 1, 1, 1000, 1000
MAG, 47564395, 341, 501, 280, 0, 0, 0, 0, 0, 0, 1, 47564387
RFND, 47564430, 0.2, 25, 0, 0
BARO, 47564469, -0.2367981, 993.5017, 35.41, 0.2184481, 47564, 0, 34.27
CTUN, 47564482, 0, 0, 0, 0.2662303, 0.06429429, 0.06429429, -0.23, 0, 0.19, 0, 0, 0
ATT, 47564600, 0, 0.54, 0, -0.01, 359.87, 359.89, 0, 1
RATE, 47564607, -2.443433, 0.0785443, -0.005963396, 0.0459384, -0.04136262, 0.0003414143, -1.661815E-05, 0.05329765, -1.631774E-05, 14.03246, -0.6985664, 0
NKF1, 47564614, 0.54, -0.01, 359.88, 0.007020037, 0.006393368, 0.0003464805, 0, 0, 0, -0.06429429, -0.03, 0.01, 0
NKF2, 47564614, -5, 0, 0, 0, 0, 0, 0, 0, 0, 0, 0, 0, 0
NKF3, 47564614, 0, 0, 0, 0, 0, 0, 0, 0, 0, 0, 0
NKF4, 47564614, 0, 0, 0, 0, 0, 7.544954E-07, 0, 0, 0, 19, 229, 0, 0
NKF5, 47564614, 0, 0, 0, 0, 0.19, 0.13, 0, 0.19, 0.5, 3.495332E-05, 0.0005010845, 0.001130853
NKQ1, 47564614, 0.9999765, 0.0001994093, 0.006796125, -0.0009985944
AHR2, 47564659, 0.46, 0.02, 359.87, -0.23, 0, 0, 0.9999911, 0.004075462, 0.0002473457, -0.001102286
MOTB, 47564667, 1, 1, 0, 1
RCIN, 47564671, 0, 0, 0, 0, 0, 0, 0, 0, 0, 0, 0, 0, 0, 0
RCOU, 47564676, 1101, 1101, 1101, 1101, 0, 0, 0, 0, 0, 0, 0, 0, 0, 0
VIBE, 47564685, 0.01815748, 0.02050472, 0.03276723, 0, 0, 0
CTRL, 47564691, 0.005759064, 0.0001725405, 0.0001562717, 0.0001975544, 5.164426E-05
PRX, 47564723, 2, 0.71, 0, 0.61, 0, 0.54, 0, 2.45, 0, 0, 180, 0.54
IMU, 47584431, 0.000546925, 0.0004295851, 0.0002224517, 0.132676, 0.00185165, -9.871258, 0, 0, 37.34184, 1, 1, 1000, 1000
RFND, 47614736, 0.2, 25, 0, 0
IMU, 47624434, -0.001672215, 0.0005277243, 1.015207E-05, 0.1289961, 0.0008613786, -9.858211, 0, 0, 37.34172, 1, 1, 1000, 1000
MAG, 47664347, 335, 505, 283, 0, 0, 0, 0, 0, 0, 1, 47664339
RFND, 47664380, 0.2, 25, 0, 0
BARO, 47664419, -0.06765661, 993.483, 35.41, -0.2572361, 47664, 0, 34.27
CTUN, 47664432, 0, 0, 0, 0.2662303, 0.06453618, 0.06453618, -0.06, 0, 0.19, 0, 0, 0
ATT, 47664533, 0, 0.54, 0, 0, 359.88, 359.89, 0, 1
RATE, 47664539, -2.440211, 0.005218139, -0.005679624, 0.04444678, 0.04348871, -0.0003076751, -0.001430756, 0.03565976, -6.62822E-05, -22.79637, 1.982307, 0
NKF1, 47664547, 0.54, 0, 359.88, 0.007392795, 0.006459956, -0.0005628733, 0, 0, 0, -0.06453618, -0.03, 0.01, 0
NKF2, 47664547, -5, 0, 0, 0, 0, 0, 0, 0, 0, 0, 0, 0, 0
NKF3, 47664547, 0, 0, 0, 0, 0, 0, 0, 0, 0, 0, 0
NKF4, 47664547, 0, 0, 0, 0, 0, 5.643344E-07, 0, 0, 0, 19, 229, 0, 0
NKF5, 47664547, 0, 0, 0, 0, 0.19, 0.13, 0, 0.19, 0.5, 3.488513E-05, 0.0004739321, 0.001077246
NKQ1, 47664547, 0.9999764, 0.0001912148, 0.006798739, -0.0009809048
AHR2, 47664591, 0.46, 0.02, 359.87, -0.06, 0, 0, 0.9999911, 0.00406575, 0.0002550049, -0.001084482
MOTB, 47664599, 1, 1, 0, 1
RCIN, 47664603, 0, 0, 0, 0, 0, 0, 0, 0, 0, 0, 0, 0, 0, 0
RCOU, 47664609, 1101, 1101, 1101, 1101, 0, 0, 0, 0, 0, 0, 0, 0, 0, 0
VIBE, 47664617, 0.01923864, 0.02096837, 0.02914107, 0, 0, 0
CTRL, 47664623, 0.005759406, 0.0001708642, 0.0001581661, 0.0001996127, 4.96165E-05
PRX, 47664654, 2, 0.71, 0, 0.61, 0, 3.6, 0, 2.45, 0, 0, 90, 0.61
IMU, 47664661, -0.0004453591, 0.001016953, 0.000616939, 0.1443803, -0.005936961, -9.878201, 0, 0, 37.34173, 1, 1, 1000, 1000
IMU, 47704447, -0.0001682314, 0.000941032, 1.92492E-05, 0.1323951, 0.00943191, -9.868517, 0, 0, 37.34185, 1, 1, 1000, 1000
RFND, 47714315, 0.2, 25, 0, 0
IMU, 47744439, -0.0004672087, 0.001107738, 0.001039229, 0.1345581, -0.007960298, -9.866188, 0, 0, 37.34184, 1, 1, 1000, 1000
MAG, 47764364, 337, 503, 280, 0, 0, 0, 0, 0, 0, 1, 47764356
RFND, 47764393, 0.2, 25, 0, 0
BARO, 47764432, -0.0225522, 993.478, 35.41, -0.1955699, 47764, 0, 34.27
CTUN, 47764446, 0, 0, 0, 0.2662303, 0.06481967, 0.06481967, -0.02, 0, 0.19, 0, 0, 0
ATT, 47764549, 0, 0.54, 0, 0, 359.88, 359.89, 0, 1
RATE, 47764555, -2.44857, 0.05903848, -0.006035347, 0.0279305, 0.0118221, 0.0001650677, -0.0007080442, 0.05839526, -6.947116E-05, -36.86769, -0.8371353, 0
NKF1, 47764563, 0.54, 0, 359.88, 0.007794542, 0.006728199, -0.0009103135, 0, 0, 0, -0.06481967, -0.03, 0.01, 0
NKF2, 47764563, -5, 0, 0, 0, 0, 0, 0, 0, 0, 0, 0, 0, 0
NKF3, 47764563, 0, 0, 0, 0, 0, 0, 0, 0, 0, 0, 0
NKF4, 47764563, 0, 0, 0, 0, 0, 4.48292E-07, 0, 0, 0, 19, 229, 0, 0
NKF5, 47764563, 0, 0, 0, 0, 0.19, 0.13, 0, 0.19, 0.5, 3.50344E-05, 0.0004965288, 0.001151352
NKQ1, 47764563, 0.9999762, 0.0002093299, 0.006831138, -0.0009699335
AHR2, 47764606, 0.46, 0.03, 359.87, -0.02, 0, 0, 0.9999911, 0.004083196, 0.0002909934, -0.001073734
MOTB, 47764613, 1, 1, 0, 1
RCIN, 47764617, 0, 0, 0, 0, 0, 0, 0, 0, 0, 0, 0, 0, 0, 0
RCOU, 47764622, 1101, 1101, 1101, 1101, 0, 0, 0, 0, 0, 0, 0, 0, 0, 0
VIBE, 47764630, 0.01912876, 0.01985294, 0.02931672, 0, 0, 0
CTRL, 47764637, 0.005773483, 0.0001680449, 0.0001521941, 0.0002158601, 4.717435E-05
PRX, 47764669, 2, 0.71, 0, 0.61, 0, 3.6, 0, 2.44, 0, 0, 90, 0.61
IMU, 47784685, -8.444781E-05, -0.0009215338, -0.0005300463, 0.13179, 0.005097908, -9.846891, 0, 0, 37.34171, 1, 1, 1000, 1000
RFND, 47814317, 0.2, 25, 0, 0
IMU, 47824422, 0.001383811, -0.000149544, 0.0009677422, 0.1426011, -0.007797419, -9.869737, 0, 0, 37.34183, 1, 1, 1000, 1000
MAG, 47864358, 342, 504, 281, 0, 0, 0, 0, 0, 0, 1, 47864349
RFND, 47864388, 0.2, 25, 0, 0
BARO, 47864426, -0.1014849, 993.4865, 35.41, 0.258998, 47864, 0, 34.27
CTUN, 47864439, 0, 0, 0, 0.2662303, 0.06514719, 0.06514719, -0.1, 0, 0.19, 0, 0, 0
DU32, 47864481, 7, 50356728
ATT, 47864619, 0, 0.54, 0, 0, 359.88, 359.89, 0, 1
RATE, 47864625, -2.463061, 0.003699693, -0.005837966, 0.0316577, -0.007313473, 0.0003790478, 8.690436E-05, -0.05305389, 1.49051E-06, -65.01287, 1.023483, 0
NKF1, 47864632, 0.54, 0, 359.88, 0.007973717, 0.007418653, -0.001605256, 0, 0, 0, -0.06514719, -0.03, 0.01, 0
NKF2, 47864632, -5, 0, 0, 0, 0, 0, 0, 0, 0, 0, 0, 0, 0
NKF3, 47864632, 0, 0, 0, 0.01, 0, 0, 0, 0, 0, 0, 0
NKF4, 47864632, 0, 0, 0, 0, 0, 3.861997E-07, 0, 0, 0, 19, 229, 0, 0
NKF5, 47864632, 0, 0, 0, 0, 0.19, 0.13, 0, 0.19, 0.5, 3.543281E-05, 0.0004605096, 0.001074702
NKQ1, 47864632, 0.9999763, 0.0002365431, 0.006821832, -0.0009808417
AHR2, 47864677, 0.47, 0.03, 359.87, -0.09999999, 0, 0, 0.9999909, 0.004111273, 0.0002817574, -0.001084698
MOTB, 47864684, 1, 1, 0, 1
RCIN, 47864688, 0, 0, 0, 0, 0, 0, 0, 0, 0, 0, 0, 0, 0, 0
RCOU, 47864694, 1101, 1101, 1101, 1101, 0, 0, 0, 0, 0, 0, 0, 0, 0, 0
VIBE, 47864702, 0.01981745, 0.02070277, 0.02771301, 0, 0, 0
CTRL, 47864708, 0.005810644, 0.0001736906, 0.0001466807, 0.0002093392, 4.53141E-05
PRX, 47864739, 2, 0.7, 0, 0.61, 0, 3.6, 0, 2.43, 0, 0, 90, 0.61
IMU, 47864745, -0.0004725104, 0.0001305969, -0.0009314128, 0.1471281, 0.005584736, -9.86864, 0, 0, 37.34175, 1, 1, 1000, 1000
IMU, 47904396, -0.0001963615, 0.0003943062, -0.001378664, 0.1418913, -0.0005544438, -9.84903, 0, 0, 37.3417, 1, 1, 1000, 1000
RFND, 47914319, 0.2, 25, 0, 0
IMU, 47944895, -0.0004557442, 0.0009354895, -0.0004462547, 0.1334125, -0.0002434059, -9.857925, 0, 0, 37.34181, 1, 1, 1000, 1000
MAG, 47964465, 338, 505, 282, 0, 0, 0, 0, 0, 0, 1, 47964456
RFND, 47964494, 0.2, 25, 0, 0
BARO, 47964534, -0.1353132, 993.4902, 35.41, 0.4193301, 47964, 0, 34.27
CTUN, 47964548, 0, 0, 0, 0.2662303, 0.06547666, 0.06547666, -0.13, 0, 0.19, 0, 0, 0
ATT, 47964651, 0, 0.54, 0, 0, 359.87, 359.89, 0, 1
RATE, 47964657, -2.469447, 0.1010285, -0.00640098, 0.03522991, -0.06355261, 0.0005682082, 8.369232E-05, -0.02071468, 4.283627E-05, -64.82625, -1.277065, 0
NKF1, 47964664, 0.54, 0, 359.88, 0.008041762, 0.007613704, -0.001600648, 0, 0, 0, -0.06547666, -0.03, 0.01, 0
NKF2, 47964664, -5, 0, 0, 0, 0, 0, 0, 0, 0, 0, 0, 0, 0
NKF3, 47964664, 0, 0, 0, 0.01, 0, 0, 0, 0, 0, 0, 0
NKF4, 47964664, 0, 0, 0, 0, 0, 3.471325E-07, 0, 0, 0, 19, 229, 0, 0
NKF5, 47964664, 0, 0, 0, 0, 0.19, 0.13, 0, 0.19, 0.5, 3.591116E-05, 0.0004202121, 0.0009866996
NKQ1, 47964664, 0.9999763, 0.0002477764, 0.006815505, -0.0009916422
AHR2, 47964708, 0.47, 0.03, 359.87, -0.13, 0, 0, 0.9999909, 0.004122708, 0.0002746491, -0.001095449
MOTB, 47964716, 1, 1, 0, 1
RCIN, 47964720, 0, 0, 0, 0, 0, 0, 0, 0, 0, 0, 0, 0, 0, 0
RCOU, 47964725, 1101, 1101, 1101, 1101, 0, 0, 0, 0, 0, 0, 0, 0, 0, 0
VIBE, 47964734, 0.01937654, 0.02021509, 0.0330748, 0, 0, 0
CTRL, 47964740, 0.005816091, 0.0001819723, 0.0001395603, 0.0002081337, 4.121419E-05
PRX, 47964771, 2, 0.7, 0, 0.61, 0, 3.6, 0, 2.44, 0, 0, 90, 0.61
IMU, 47984508, -0.0005445231, -0.0005579697, -0.0005132904, 0.1376075, -0.006523138, -9.856701, 0, 0, 37.34183, 1, 1, 1000, 1000
RFND, 48014315, 0.2, 25, 0, 0
IMU, 48024494, -0.001589672, -9.502702E-05, -0.001135519, 0.1285383, 0.007966662, -9.880539, 0, 0, 37.34172, 1, 1, 1000, 1000
MAG, 48064319, 334, 500, 280, 0, 0, 0, 0, 0, 0, 1, 48064310
RFND, 48064348, 0.2, 25, 0, 0
BARO, 48064389, -0.1635035, 993.4936, 35.41, 0.07752321, 48064, 0, 34.27
CTUN, 48064401, 0, 0, 0, 0.2662303, 0.06583373, 0.06583373, -0.16, 0, 0.19, 0, 0, 0
ATT, 48064505, 0, 0.54, 0, -0.01, 359.87, 359.89, 0, 1
RATE, 48064512, -2.47568, 0.05709931, -0.005881811, 0.04635952, -0.07591827, 0.0006787778, 0.001371064, -0.0269193, 3.186553E-05, -65.73106, -0.8487701, 0
NKF1, 48064519, 0.54, -0.01, 359.88, 0.00854984, 0.008368868, -0.001622989, 0, 0, 0, -0.06583373, -0.03, 0.01, 0
NKF2, 48064519, -5, 0, 0, 0, 0, 0, 0, 0, 0, 0, 0, 0, 0
NKF3, 48064519, 0, 0, 0, 0.01, 0, 0, 0, 0, 0, 0, 0
NKF4, 48064519, 0, 0, 0, 0, 0, 3.470572E-07, 0, 0, 0, 19, 229, 0, 0
NKF5, 48064519, 0, 0, 0, 0, 0.19, 0.13, 0, 0.19, 0.5, 3.614102E-05, 0.0004386207, 0.001046837
NKQ1, 48064519, 0.9999765, 0.0002597431, 0.0067938, -0.001006015
AHR2, 48064564, 0.47, 0.02, 359.87, -0.16, 0, 0, 0.9999908, 0.004132789, 0.0002500552, -0.001109687
MOTB, 48064571, 1, 1, 0, 1
RCIN, 48064575, 0, 0, 0, 0, 0, 0, 0, 0, 0, 0, 0, 0, 0, 0
RCOU, 48064581, 1101, 1101, 1101, 1101, 0, 0, 0, 0, 0, 0, 0, 0, 0, 0
VIBE, 48064589, 0.02035716, 0.01962148, 0.03689273, 0, 0, 0
CTRL, 48064595, 0.005837525, 0.0001976976, 0.0001526989, 0.0002147577, 4.315222E-05
PRX, 48064626, 2, 0.71, 0, 0.61, 0, 3.6, 0, 2.44, 0, 0, 90, 0.61
IMU, 48064633, 0.0004600602, -0.001067062, -0.0004752724, 0.1353292, 0.009265224, -9.850021, 0, 0, 37.34172, 1, 1, 1000, 1000
IMU, 48104410, -0.0003864992, 0.0007285097, -0.0005836266, 0.1277164, 0.005729698, -9.864848, 0, 0, 37.34184, 1, 1, 1000, 1000
RFND, 48114314, 0.2, 25, 0, 0
IMU, 48144520, 0.0005437046, 0.0003748613, -0.0001716563, 0.138955, -0.003065726, -9.839799, 0, 0, 37.34185, 1, 1, 1000, 1000
MAG, 48164326, 340, 506, 279, 0, 0, 0, 0, 0, 0, 1, 48164318
RFND, 48164355, 0.2, 25, 0, 0
BARO, 48164394, -0.1353132, 993.4902, 35.41, -0.2642836, 48164, 0, 34.27
CTUN, 48164408, 0, 0, 0, 0.2662303, 0.06615624, 0.06615624, -0.13, 0, 0.19, 0, 0, 0
ATT, 48164510, 0, 0.55, 0, -0.01, 359.87, 359.89, 0, 1
RATE, 48164518, -2.47567, -0.03528025, -0.005485898, 0.04687497, 0.003508131, -2.32478E-05, -0.001442414, -0.04868887, 5.400225E-05, -63.10233, -0.4116058, 0
NKF1, 48164525, 0.55, -0.01, 359.88, 0.008597338, 0.008884692, -0.001558082, 0, 0, 0, -0.06615624, -0.03, 0.01, 0
NKF2, 48164525, -5, 0, 0, 0, 0, 0, 0, 0, 0, 0, 0, 0, 0
NKF3, 48164525, 0, 0, 0, 0.01, 0.01, 0, 0, 0, 0, 0, 0
NKF4, 48164525, 0, 0, 0, 0, 0, 3.539422E-07, 0, 0, 0, 19, 229, 0, 0
NKF5, 48164525, 0, 0, 0, 0, 0.19, 0.13, 0, 0.19, 0.5, 3.658721E-05, 0.0003987885, 0.0009550821
NKQ1, 48164525, 0.9999764, 0.0002624099, 0.006792341, -0.001018619
AHR2, 48164570, 0.47, 0.02, 359.87, -0.13, 0, 0, 0.9999908, 0.004133224, 0.0002460174, -0.001122197
MOTB, 48164578, 1, 1, 0, 1
RCIN, 48164582, 0, 0, 0, 0, 0, 0, 0, 0, 0, 0, 0, 0, 0, 0
RCOU, 48164588, 1101, 1101, 1101, 1101, 0, 0, 0, 0, 0, 0, 0, 0, 0, 0
VIBE, 48164596, 0.01779111, 0.01808965, 0.03338085, 0, 0, 0
CTRL, 48164602, 0.005849577, 0.000180059, 0.0001621739, 0.0002189975, 4.876342E-05
PRX, 48164635, 2, 0.71, 0, 0.61, 0, 3.6, 0, 2.44, 0, 0, 90, 0.61
IMU, 48184391, -0.0001794578, -0.0001676416, -7.39493E-05, 0.1470149, 0.001278835, -9.862576, 0, 0, 37.34174, 1, 1, 1000, 1000
RFND, 48214485, 0.2, 25, 0, 0
IMU, 48224511, 0.0003576882, -0.000537606, 0.0003489362, 0.1403166, -0.003720025, -9.876109, 0, 0, 37.34172, 1, 1, 1000, 1000
MAG, 48264730, 339, 504, 282, 0, 0, 0, 0, 0, 0, 1, 48264721
RFND, 48264764, 0.2, 25, 0, 0
BARO, 48264803, -0.3213689, 993.5109, 35.41, -0.3171403, 48264, 0, 34.27
CTUN, 48264816, 0, 0, 0, 0.2662303, 0.06647859, 0.06647859, -0.32, 0, 0.19, 0, 0, 0
ATT, 48264952, 0, 0.55, 0, 0, 359.87, 359.89, 0, 1
RATE, 48264959, -2.486934, 0.02998226, -0.006131747, 0.04289429, -0.002128634, 0.000313636, -0.0008320235, 0.03118737, -2.189128E-05, -89.54295, -0.09641647, 0
NKF1, 48264966, 0.55, 0, 359.88, 0.009223172, 0.009601296, -0.002210937, 0, 0, 0, -0.06647859, -0.03, 0.01, 0
NKF2, 48264966, -5, 0, 0, 0, 0, 0, 0, 0, 0, 0, 0, 0, 0
NKF3, 48264966, 0, 0, 0, 0.01, 0.01, 0, 0, 0, 0, 0, 0
NKF4, 48264966, 0, 0, 0, 0, 0, 3.828434E-07, 0, 0, 0, 19, 229, 0, 0
NKF5, 48264966, 0, 0, 0, 0, 0.19, 0.13, 0, 0.19, 0.5, 3.671636E-05, 0.0004184114, 0.001012818
NKQ1, 48264966, 0.9999764, 0.0002835914, 0.00680154, -0.001002683
AHR2, 48265008, 0.47, 0.02, 359.87, -0.32, 0, 0, 0.9999908, 0.004151121, 0.0002537561, -0.001106363
MOTB, 48265016, 1, 1, 0, 1
RCIN, 48265020, 0, 0, 0, 0, 0, 0, 0, 0, 0, 0, 0, 0, 0, 0
RCOU, 48265025, 1101, 1101, 1101, 1101, 0, 0, 0, 0, 0, 0, 0, 0, 0, 0
VIBE, 48265034, 0.01852459, 0.0178206, 0.03403339, 0, 0, 0
CTRL, 48265040, 0.005863681, 0.0001807604, 0.0001607036, 0.0002342168, 4.362046E-05
PRX, 48265072, 2, 0.71, 0, 0.61, 0, 3.6, 0, 2.44, 0, 0, 90, 0.61
IMU, 48265078, -1.568118E-05, 0.0002219877, 0.0005388556, 0.1405242, 0.006435507, -9.857714, 0, 0, 37.34219, 1, 1, 1000, 1000
IMU, 48304474, -0.001275843, 0.0004411652, 0.0005052593, 0.1325094, 0.001560101, -9.879089, 0, 0, 37.34396, 1, 1, 1000, 1000
RFND, 48314308, 0.2, 25, 0, 0
IMU, 48344824, -0.002670183, 0.001683187, 0.000592408, 0.1306612, -0.001383869, -9.86347, 0, 0, 37.34599, 1, 1, 1000, 1000
MAG, 48364332, 344, 502, 280, 0, 0, 0, 0, 0, 0, 1, 48364323
RFND, 48364366, 0.2, 25, 0, 0
BARO, 48364404, -0.3608353, 993.515, 35.42, -0.3805684, 48364, 0, 34.27
CTUN, 48364416, 0, 0, 0, 0.2662303, 0.06686603, 0.06686603, -0.36, 0, 0.19, 0, 0, 0
ATT, 48364519, 0, 0.54, 0, 0, 359.87, 359.89, 0, 1
RATE, 48364525, -2.46634, -0.02780253, -0.006111614, 0.02657314, -0.008938365, 0.0003426568, -9.949233E-05, -0.003732556, -6.32603E-05, -118.8152, -0.1070023, 0
NKF1, 48364532, 0.54, 0, 359.88, 0.009279586, 0.01032075, -0.002933708, 0, 0, 0, -0.06686603, -0.03, 0.01, 0
NKF2, 48364532, -5, 0, 0, 0, 0, 0, 0, 0, 0, 0, 0, 0, 0
NKF3, 48364532, 0, 0, 0, 0.01, 0.01, 0, 0, 0, 0, 0, 0
NKF4, 48364532, 0, 0, 0, 0, 0, 4.1929E-07, 0, 0, 0, 19, 229, 0, 0
NKF5, 48364532, 0, 0, 0, 0, 0.19, 0.13, 0, 0.19, 0.5, 3.705891E-05, 0.0003811742, 0.0009308872
NKQ1, 48364532, 0.9999762, 0.000242305, 0.006832603, -0.0009883285
AHR2, 48364575, 0.47, 0.03, 359.87, -0.36, 0, 0, 0.9999909, 0.004105685, 0.0002844278, -0.001091773
MOTB, 48364582, 1, 1, 0, 1
RCIN, 48364586, 0, 0, 0, 0, 0, 0, 0, 0, 0, 0, 0, 0, 0, 0
RCOU, 48364592, 1101, 1101, 1101, 1101, 0, 0, 0, 0, 0, 0, 0, 0, 0, 0
VIBE, 48364601, 0.01894555, 0.02023773, 0.03167183, 0, 0, 0
CTRL, 48364607, 0.005821659, 0.0002028001, 0.0001363396, 0.0002101585, 4.81984E-05
PRX, 48364639, 2, 0.71, 0, 0.61, 0, 3.6, 0, 2.43, 0, 0, 90, 0.61
IMU, 48384472, -0.0002464851, 0.001516838, -0.001682427, 0.132275, 0.02374826, -9.860676, 0, 0, 37.34833, 1, 1, 1000, 1000
RFND, 48414341, 0.2, 25, 0, 0
IMU, 48424445, -0.0001185682, 0.0009757009, 0.0002397556, 0.1347389, -0.005818887, -9.866649, 0, 0, 37.35041, 1, 1, 1000, 1000
MAG, 48464396, 342, 502, 279, 0, 0, 0, 0, 0, 0, 1, 48464387
RFND, 48464429, 0.2, 25, 0, 0
BARO, 48464468, -0.2649884, 993.5044, 35.42, -0.5796621, 48464, 0, 34.27
CTUN, 48464481, 0, 0, 0, 0.2662303, 0.06724519, 0.06724519, -0.26, 0, 0.19, 0, 0, 0
ATT, 48464584, 0, 0.55, 0, 0, 359.87, 359.89, 0, 1
RATE, 48464591, -2.476102, 0.05489713, -0.005919913, 0.006965887, 0.03897344, -0.0001217184, -0.0002583663, -0.01879125, 2.124047E-06, -116.8744, -1.383209, 0
NKF1, 48464598, 0.55, 0, 359.88, 0.009355789, 0.01145281, -0.002885787, 0, 0, 0, -0.06724519, -0.03, 0.01, 0
NKF2, 48464598, -5, 0, 0, 0, 0, 0, 0, 0, 0, 0, 0, 0, 0
NKF3, 48464598, 0, 0, 0, 0.01, 0.01, 0, 0, 0, 0, 0, 0
NKF4, 48464598, 0, 0, 0, 0, 0, 4.639745E-07, 0, 0, 0, 19, 229, 0, 0
NKF5, 48464598, 0, 0, 0, 0, 0.19, 0.13, 0, 0.19, 0.5, 3.706943E-05, 0.0003978758, 0.0009821274
NKQ1, 48464598, 0.9999759, 0.0002624775, 0.006870306, -0.00100323
AHR2, 48464641, 0.47, 0.03, 359.87, -0.26, 0, 0, 0.9999908, 0.004123779, 0.0003223658, -0.001106924
MOTB, 48464648, 1, 1, 0, 1
RCIN, 48464652, 0, 0, 0, 0, 0, 0, 0, 0, 0, 0, 0, 0, 0, 0
RCOU, 48464658, 1101, 1101, 1101, 1101, 0, 0, 0, 0, 0, 0, 0, 0, 0, 0
VIBE, 48464666, 0.01729813, 0.02026853, 0.03870796, 0, 0, 0
CTRL, 48464672, 0.005846024, 0.0001850636, 0.0001189566, 0.0001877513, 4.177322E-05
PRX, 48464703, 2, 0.71, 0, 0.61, 0, 3.6, 0, 2.44, 0, 0, 90, 0.61
IMU, 48464710, 0.0004189562, 0.0009394482, -0.000333438, 0.1320309, 0.008067038, -9.844982, 0, 0, 37.35209, 1, 1, 1000, 1000
IMU, 48504789, -0.0004973623, -0.0001741491, -0.0001103803, 0.1311868, -0.01224631, -9.858599, 0, 0, 37.35355, 1, 1, 1000, 1000
RFND, 48514355, 0.2, 25, 0, 0
IMU, 48544465, -0.001180359, 0.0004677217, 0.000343537, 0.1347657, -0.008233569, -9.865252, 0, 0, 37.3549, 1, 1, 1000, 1000
MAG, 48564353, 341, 508, 280, 0, 0, 0, 0, 0, 0, 1, 48564344
RFND, 48564386, 0.2, 25, 0, 0
BARO, 48564424, -0.3439211, 993.5136, 35.42, -0.5444243, 48564, 0, 34.27
CTUN, 48564438, 0, 0, 0, 0.2662303, 0.06764104, 0.06764104, -0.34, 0, 0.19, 0, 0, 0
ATT, 48564539, 0, 0.54, 0, 0, 359.87, 359.89, 0, 1
RATE, 48564545, -2.464869, -0.06533407, -0.005575406, -0.003829329, 0.1084748, -0.0006410641, 3.75091E-05, -0.04727645, -2.459553E-05, -138.507, 0.2355576, 0
NKF1, 48564553, 0.54, 0, 359.88, 0.009547927, 0.01140047, -0.003419926, 0, 0, 0, -0.06764104, -0.03, 0.01, 0
NKF2, 48564553, -5, 0, 0, 0, 0, 0, 0, 0, 0, 0, 0, 0, 0
NKF3, 48564553, 0, 0, 0, 0.01, 0.01, 0, 0, 0, 0, 0, 0
NKF4, 48564553, 0, 0, 0, 0, 0, 5.241413E-07, 0, 0, 0, 19, 229, 0, 0
NKF5, 48564553, 0, 0, 0, 0, 0.19, 0.13, 0, 0.19, 0.5, 3.740209E-05, 0.0003662928, 0.0009129343
NKQ1, 48564553, 0.9999757, 0.0002410985, 0.006890743, -0.0009887479
AHR2, 48564595, 0.46, 0.03, 359.87, -0.34, 0, 0, 0.9999909, 0.004099398, 0.0003429142, -0.001092296
MOTB, 48564602, 1, 1, 0, 1
RCIN, 48564607, 0, 0, 0, 0, 0, 0, 0, 0, 0, 0, 0, 0, 0, 0
RCOU, 48564612, 1101, 1101, 1101, 1101, 0, 0, 0, 0, 0, 0, 0, 0, 0, 0
VIBE, 48564621, 0.01992776, 0.019339, 0.03096495, 0, 0, 0
CTRL, 48564627, 0.005827212, 0.0001809531, 0.0001178768, 0.0001911488, 4.297012E-05
PRX, 48564659, 2, 0.7, 0, 0.61, 0, 3.6, 0, 2.42, 0, 0, 90, 0.61
IMU, 48584476, -0.0002581266, -0.0001673836, -4.434863E-05, 0.13064, -0.005340036, -9.884876, 0, 0, 37.35659, 1, 1, 1000, 1000
EV, 48611569, 57
RFND, 48614307, 0.2, 25, 0, 0
IMU, 48624450, -0.0003296688, 0.001219733, 0.0009910534, 0.1352751, -0.0001532209, -9.869265, 0, 0, 37.35819, 1, 1, 1000, 1000
MAG, 48664468, 345, 504, 279, 0, 0, 0, 0, 0, 0, 1, 48664460
RFND, 48664502, 0.2, 25, 0, 0
BARO, 48664541, -0.4059397, 993.5203, 35.42, -0.2484266, 48664, 0, 34.27
CTUN, 48664554, 0, 0, 0, 0.2662303, 0.06809603, 0.06809603, -0.4, 0, 0.19, 0, 0, 0
ATT, 48664656, 0, 0.54, 0, 0, 359.88, 359.9, 0, 1
RATE, 48664663, -2.469696, 0.01387797, -0.005780846, 0.0004094612, -0.02160455, 0.0001216093, 3.260828E-06, 0.06437293, -9.718542E-05, -184.322, -0.05130768, 0
NKF1, 48664670, 0.54, 0, 359.89, 0.009422421, 0.0118559, -0.00455116, 0, 0, 0, -0.06809603, -0.03, 0.01, 0
NKF2, 48664670, -5, 0, 0, 0, 0, 0, 0, 0, 0, 0, 0, 0, 0
NKF3, 48664670, 0, 0, 0, 0.01, 0.01, 0, 0, 0, 0, 0, 0
NKF4, 48664670, 0, 0, 0, 0, 0, 5.796346E-07, 0, 0, 0, 19, 229, 0, 0
NKF5, 48664670, 0, 0, 0, 0, 0.19, 0.13, 0, 0.19, 0.5, 3.785585E-05, 0.0003400282, 0.0008630418
NKQ1, 48664670, 0.9999758, 0.0002484769, 0.006884591, -0.0009590004
AHR2, 48664714, 0.47, 0.03, 359.87, -0.4, 0, 0, 0.9999909, 0.004104354, 0.0003338999, -0.001062463
MOTB, 48664722, 1, 1, 0, 1
RCIN, 48664726, 0, 0, 0, 0, 0, 0, 0, 0, 0, 0, 0, 0, 0, 0
RCOU, 48664731, 1113, 1113, 1113, 1113, 0, 0, 0, 0, 0, 0, 0, 0, 0, 0
VIBE, 48664740, 0.02077739, 0.01850456, 0.0342323, 0, 0, 0
CTRL, 48664746, 0.005827002, 0.0001685881, 0.0001190801, 0.000208746, 4.702698E-05
PRX, 48664777, 2, 0.71, 0, 0.61, 0, 0.58, 0, 2.45, 0, 0, 180, 0.58
IMU, 48664784, -0.000295988, -0.0001183235, 0.001118061, 0.1392634, 0.007725572, -9.858107, 0, 0, 37.35928, 1, 1, 1000, 1000
IMU, 48704527, -0.0008368046, 5.136378E-05, -0.0007370122, 0.1358889, 0.002100288, -9.868563, 0, 0, 37.36079, 1, 1, 1000, 1000
RFND, 48715743, 0.2, 25, 0, 0
IMU, 48744765, -0.0009142975, -0.0005511621, -0.0005286752, 0.1436677, 0.004842639, -9.866077, 0, 0, 37.36205, 1, 1, 1000, 1000
MAG, 48764350, 340, 503, 287, 0, 0, 0, 0, 0, 0, 1, 48764342
RFND, 48764379, 0.2, 25, 0, 0
BARO, 48764419, -0.3044547, 993.5089, 35.42, -0.1321418, 48764, 0, 34.27
CTUN, 48764431, 0, 0, 0, 0.2662303, 0.06862709, 0.06862709, -0.3, 0, 0.19, 0, 0, 0
ATT, 48764551, 0, 0.54, 0, 0, 359.88, 359.89, 0, 1
RATE, 48764558, -2.461611, 0.02236915, -0.005942206, 0.01436637, 0.02819942, -0.0001796854, -6.761383E-05, -0.0236761, 3.803745E-05, -223.4961, 1.333714, 0
NKF1, 48764565, 0.54, 0, 359.88, 0.01011386, 0.01234992, -0.005518422, 0, 0, 0, -0.06862709, -0.03, 0.01, 0
NKF2, 48764565, -5, 0, 0, 0, 0, 0, 0, 0, 0, 0, 0, 0, 0
NKF3, 48764565, 0, 0, 0, 0.01, 0.01, 0, 0, 0, 0, 0, 0
NKF4, 48764565, 0, 0, 0, 0, 0, 6.639104E-07, 0, 0, 0, 19, 229, 0, 0
NKF5, 48764565, 0, 0, 0, 0, 0.2, 0.13, 0, 0.19, 0.5, 3.781734E-05, 0.0003542568, 0.0009056145
NKQ1, 48764565, 0.999976, 0.0002336528, 0.006855908, -0.0009784113
AHR2, 48764607, 0.46, 0.03, 359.87, -0.3, 0, 0, 0.999991, 0.004087167, 0.0003027745, -0.001081508
MOTB, 48764614, 1, 1, 0, 1
RCIN, 48764618, 0, 0, 0, 0, 0, 0, 0, 0, 0, 0, 0, 0, 0, 0
RCOU, 48764624, 1137, 1137, 1137, 1137, 0, 0, 0, 0, 0, 0, 0, 0, 0, 0
VIBE, 48764632, 0.02173867, 0.01886601, 0.03043637, 0, 0, 0
CTRL, 48764639, 0.005812563, 0.0001624169, 0.0001292923, 0.0002145259, 4.972387E-05
PRX, 48764670, 2, 0.71, 0, 0.61, 0, 0.58, 0, 2.42, 0, 0, 180, 0.58
IMU, 48784397, -0.0009904125, 0.0004662481, -0.0003914131, 0.1369786, 0.0009933831, -9.867659, 0, 0, 37.36348, 1, 1, 1000, 1000
RFND, 48814364, 0.2, 25, 0, 0
IMU, 48824509, -0.0003202351, -0.0003786644, -0.0001330297, 0.1393185, 0.01122847, -9.849003, 0, 0, 37.36475, 1, 1, 1000, 1000
MAG, 48864332, 342, 504, 282, 0, 0, 0, 0, 0, 0, 1, 48864323
RFND, 48864362, 0.2, 25, 0, 0
BARO, 48864402, -0.2875406, 993.5071, 35.42, -0.1391894, 48864, 0, 34.27
CTUN, 48864416, 0, 0, 0, 0.2662303, 0.06920497, 0.06920497, -0.28, 0, 0.19, 0, 0, 0
DU32, 48864454, 7, 33579512
ATT, 48864596, 0, 0.54, 0, 0, 359.87, 359.89, 0, 1
RATE, 48864602, -2.472851, 0.08026978, -0.006110854, 0.01674465, -0.01373304, 0.0002068499, -7.825565E-05, -0.00416632, 2.22016E-05, -238.6335, -0.1804352, 0
NKF1, 48864610, 0.54, 0, 359.88, 0.01050723, 0.01301149, -0.005892185, 0, 0, 0, -0.06920497, -0.03, 0.01, 0
NKF2, 48864610, -5, 0, 0, 0, 0, 0, 0, 0, 0, 0, 0, 0, 0
NKF3, 48864610, 0, 0, 0, 0.01, 0.01, 0, 0, 0, 0, 0, 0
NKF4, 48864610, 0, 0, 0, 0, 0, 7.364133E-07, 0, 0, 0, 19, 229, 0, 0
NKF5, 48864610, 0, 0, 0, 0, 0.2, 0.13, 0, 0.19, 0.5, 3.834741E-05, 0.0003395404, 0.0008891945
NKQ1, 48864610, 0.999976, 0.0002547947, 0.006851635, -0.0009957729
AHR2, 48864655, 0.47, 0.03, 359.87, -0.28, 0, 0, 0.9999909, 0.004107868, 0.0002983049, -0.001098899
MOTB, 48864662, 1, 1, 0, 1
RCIN, 48864666, 0, 0, 0, 0, 0, 0, 0, 0, 0, 0, 0, 0, 0, 0
RCOU, 48864671, 1161, 1161, 1161, 1161, 0, 0, 0, 0, 0, 0, 0, 0, 0, 0
VIBE, 48864680, 0.01948859, 0.02226662, 0.03177549, 0, 0, 0
CTRL, 48864686, 0.005829869, 0.0001517133, 0.0001152604, 0.0001988564, 5.530326E-05
PRX, 48864717, 2, 0.71, 0, 0.61, 0, 3.6, 0, 2.43, 0, 0, 90, 0.61
IMU, 48864723, 0.0008637112, 1.859574E-05, -7.816505E-05, 0.137332, 0.007702304, -9.856752, 0, 0, 37.36537, 1, 1, 1000, 1000
IMU, 48904465, 0.000368319, -0.0008419373, 0.0009718235, 0.1337458, -0.0002097079, -9.841797, 0, 0, 37.36664, 1, 1, 1000, 1000
RFND, 48914329, 0.2, 25, 0, 0
IMU, 48944853, -0.000490634, 0.0002185156, -0.001079069, 0.12736, -0.004464263, -9.854153, 0, 0, 37.36845, 1, 1, 1000, 1000
MAG, 48964417, 338, 505, 279, 0, 0, 0, 0, 0, 0, 1, 48964408
RFND, 48964446, 0.2, 25, 0, 0
BARO, 48964486, -0.2424362, 993.502, 35.43, 0.07047564, 48964, 0, 34.27
CTUN, 48964499, 0, 0, 0, 0.2662303, 0.06973686, 0.06973686, -0.24, 0, 0.19, 0, 0, 0
ATT, 48964599, 0, 0.54, 0, 0, 359.87, 359.89, 0, 1
RATE, 48964605, -2.474504, -0.00628335, -0.005819007, 0.005778453, 0.13852, -0.0009635334, -2.946372E-05, -0.08676437, 5.842004E-05, -214.984, -0.2744675, 0
NKF1, 48964613, 0.54, 0, 359.88, 0.01031662, 0.01355681, -0.005308246, 0, 0, 0, -0.06973686, -0.03, 0.01, 0
NKF2, 48964613, -5, 0, 0, 0, 0, 0, 0, 0, 0, 0, 0, 0, 0
NKF3, 48964613, 0, 0, 0, 0.01, 0.01, 0, 0, 0, 0, 0, 0
NKF4, 48964613, 0, 0, 0, 0, 0, 8.333214E-07, 0, 0, 0, 19, 229, 0, 0
NKF5, 48964613, 0, 0, 0, 0, 0.2, 0.13, 0, 0.19, 0.5, 3.809251E-05, 0.000346122, 0.0008996362
NKQ1, 48964613, 0.9999759, 0.0002587491, 0.006871353, -0.0009937595
AHR2, 48964656, 0.47, 0.03, 359.87, -0.24, 0, 0, 0.9999909, 0.004111825, 0.0003181183, -0.001096919
MOTB, 48964663, 1, 1, 0, 1
RCIN, 48964667, 0, 0, 0, 0, 0, 0, 0, 0, 0, 0, 0, 0, 0, 0
RCOU, 48964673, 1185, 1185, 1185, 1185, 0, 0, 0, 0, 0, 0, 0, 0, 0, 0
VIBE, 48964681, 0.04807392, 0.05288853, 0.04566752, 0, 0, 0
CTRL, 48964688, 0.005834712, 0.0001511304, 0.000116073, 0.000211858, 5.474063E-05
PRX, 48964720, 2, 0.71, 0, 0.61, 0, 3.6, 0, 2.44, 0, 0, 90, 0.61
IMU, 48984553, 0.0005575211, 0.001535079, -0.002813361, 0.1270528, -0.005742739, -9.867248, 0, 0, 37.37055, 1, 1, 1000, 1000
RFND, 49014378, 0.2, 25, 0, 0
IMU, 49024563, -0.001512988, -0.002381415, 0.003832587, 0.1414397, -0.02542116, -9.852693, 0, 0, 37.37292, 1, 1, 1000, 1000
MAG, 49064413, 342, 500, 284, 0, 0, 0, 0, 0, 0, 1, 49064405
RFND, 49064442, 0.2, 25, 0, 0
BARO, 49064483, -0.1973318, 993.497, 35.43, 0.3329974, 49064, 0, 34.27
CTUN, 49064496, 0, 0, 0, 0.2662303, 0.07017934, 0.07017934, -0.19, 0, 0.19, 0, 0, 0
ATT, 49064600, 0, 0.54, 0, 0, 359.9, 359.91, 0, 1
RATE, 49064607, -2.466497, -0.1455922, -0.004498431, 0.006612679, 0.05019958, 0.0006794751, 2.242053E-05, 1.131523, -8.764908E-05, -181.4283, -2.538776, 0
NKF1, 49064614, 0.54, 0, 359.9, 0.01031593, 0.01438046, -0.00447971, 0, 0, 0, -0.07017934, -0.03, 0.01, 0
NKF2, 49064614, -5, 0, 0, 0, 0, 0, 0, 0, 0, 0, 0, 0, 0
NKF3, 49064614, 0, 0, 0, 0.02, 0.01, 0, 0, 0, 0, 0, 0
NKF4, 49064614, 0, 0, 0, 0, 0, 9.30465E-07, 0, 0, 0, 19, 229, 0, 0
NKF5, 49064614, 0, 0, 0, 0, 0.2, 0.13, 0, 0.19, 0.5, 3.864599E-05, 0.000352032, 0.0009386985
NKQ1, 49064614, 0.9999759, 0.0002420043, 0.00689238, -0.000792836
AHR2, 49064661, 0.46, 0.03, 359.89, -0.19, 0, 0, 0.9999912, 0.004096772, 0.0003415656, -0.0008959003
MOTB, 49064668, 1, 1, 0, 1
RCIN, 49064672, 0, 0, 0, 0, 0, 0, 0, 0, 0, 0, 0, 0, 0, 0
RCOU, 49064677, 1208, 1208, 1208, 1208, 0, 0, 0, 0, 0, 0, 0, 0, 0, 0
VIBE, 49064686, 0.145393, 0.1644022, 0.1564193, 0, 0, 0
CTRL, 49064692, 0.00583766, 0.0003658121, 0.0001961682, 0.0003401257, 0.0002018548
PRX, 49064724, 2, 0.71, 0, 0.61, 0, 3.6, 0, 2.42, 0, 0, 90, 0.61
IMU, 49064731, -0.003079497, 0.001134982, 0.01974334, 0.1508206, -0.01440698, -9.83309, 0, 0, 37.37515, 1, 1, 1000, 1000
IMU, 49104422, 0.0001874916, 0.004878677, 0.01189905, 0.1528444, 0.01324051, -9.846181, 0, 0, 37.37652, 1, 1, 1000, 1000
RFND, 49114699, 0.2, 25, 0, 0
IMU, 49144460, 0.0004466168, 0.002662913, -0.0105309, 0.1777121, 0.02987831, -9.851211, 0, 0, 37.37646, 1, 1, 1000, 1000
MAG, 49164371, 345, 504, 281, 0, 0, 0, 0, 0, 0, 1, 49164362
RFND, 49164400, 0.2, 25, 0, 0
BARO, 49164439, -0.1804176, 993.4953, 35.43, 0.4087587, 49164, 0, 34.27
CTUN, 49164451, 0, 0, 0, 0.2662303, 0.0705166, 0.0705166, -0.18, 0, 0.19, 0, 0, 0
ATT, 49164553, 0, 0.54, 0, 0, 359.88, 359.89, 0, 1
RATE, 49164560, -2.466307, 0.1456556, -0.006593323, -0.02913054, 0.1791182, -0.0001168949, 0.0001417506, -0.004036771, 0.000432649, -145.3632, 2.239037, 0
NKF1, 49164568, 0.54, 0, 359.88, 0.01011002, 0.0158762, -0.003589215, 0, 0, 0, -0.0705166, -0.03, 0.01, 0
NKF2, 49164568, -5, 0, 0, 0, 0, 0, 0, 0, 0, 0, 0, 0, 0
NKF3, 49164568, 0, 0, 0, 0.02, 0.01, 0, 0, 0, 0, 0, 0
NKF4, 49164568, 0, 0, 0, 0, 0, 1.032736E-06, 0, 0, 0, 19, 229, 0, 0
NKF5, 49164568, 0, 0, 0, 0, 0.2, 0.13, 0, 0.19, 0.5, 3.839772E-05, 0.0003410475, 0.0009088477
NKQ1, 49164568, 0.9999754, 0.0002438584, 0.006940609, -0.0009823822
AHR2, 49164611, 0.46, 0.04, 359.87, -0.18, 0, 0, 0.9999909, 0.004097745, 0.0003893813, -0.001085606
MOTB, 49164619, 1, 1, 0, 1
RCIN, 49164623, 0, 0, 0, 0, 0, 0, 0, 0, 0, 0, 0, 0, 0, 0
RCOU, 49164628, 1233, 1222, 1221, 1232, 0, 0, 0, 0, 0, 0, 0, 0, 0, 0
VIBE, 49164637, 0.455359, 0.557349, 0.4914736, 0, 0, 0
CTRL, 49164643, 0.005815765, 0.0004417142, 0.0003385721, 0.0006582335, 0.000303035
PRX, 49164674, 2, 0.71, 0, 0.61, 0, 3.6, 0, 2.44, 0, 0, 90, 0.61
IMU, 49184703, -0.005927019, -0.003836119, -0.003550289, 0.0996486, -0.008491994, -9.841492, 0, 0, 37.37635, 1, 1, 1000, 1000
RFND, 49214342, 0.2, 25, 0, 0
IMU, 49224455, 0.003798519, 0.004058604, -0.01486001, 0.09646245, -0.08653641, -9.916706, 0, 0, 37.37635, 1, 1, 1000, 1000
MAG, 49264362, 342, 504, 289, 0, 0, 0, 0, 0, 0, 1, 49264353
RFND, 49264390, 0.2, 25, 0, 0
BARO, 49264431, -0.07329466, 993.4835, 35.43, 0.3999492, 49264, 0, 34.27
CTUN, 49264443, 0, 0, 0, 0.2662303, 0.07079815, 0.07079815, -0.07, 0, 0.19, 0, 0, 0
ATT, 49264548, 0, 0.54, 0, 0.02, 359.85, 359.86, 0, 1
RATE, 49264554, -2.443224, 0.3038347, -0.009241645, -0.1049402, 0.3457782, -0.001000368, 0.0005004882, -0.0012912, 0.0009632052, -205.269, -0.4872322, 0
NKF1, 49264562, 0.54, 0.02, 359.85, 0.009996218, 0.01558861, -0.005068371, 0, 0, 0, -0.07079815, -0.03, 0.01, 0
NKF2, 49264562, -5, 0, 0, 0, 0, 0, 0, 0, 0, 0, 0, 0, 0
NKF3, 49264562, 0, 0, 0, 0.02, 0.02, 0, 0, 0, 0, 0, 0
NKF4, 49264562, 0, 0, 0, 0, 0, 1.160824E-06, 0, 0, 0, 19, 229, 0, 0
NKF5, 49264562, 0, 0, 0, 0, 0.2, 0.13, 0, 0.19, 0.5, 3.910479E-05, 0.0003588041, 0.0009819632
NKQ1, 49264562, 0.9999742, 0.0001993578, 0.007087614, -0.001226284
AHR2, 49264605, 0.46, 0.06, 359.84, -0.07, 0, 0, 0.9999908, 0.004055264, 0.0005314364, -0.001329828
MOTB, 49264612, 1, 1, 0, 1
RCIN, 49264616, 0, 0, 0, 0, 0, 0, 0, 0, 0, 0, 0, 0, 0, 0
RCOU, 49264622, 1238, 1224, 1221, 1238, 0, 0, 0, 0, 0, 0, 0, 0, 0, 0
VIBE, 49264630, 0.5258238, 0.4711913, 0.916412, 0, 0, 0
CTRL, 49264636, 0.005748249, 0.0008319304, 0.0005335663, 0.0007504722, 0.0004861637
PRX, 49264669, 2, 0.71, 0, 0.61, 0, 3.6, 0, 2.46, 0, 0, 90, 0.61
IMU, 49264676, 0.004765448, 0.006293322, -2.798658E-05, 0.1282937, 0.03821275, -9.853851, 0, 0, 37.3769, 1, 1, 1000, 1000
IMU, 49304446, 0.005340701, 0.003021025, -0.01266608, 0.08912343, 0.01413723, -9.866999, 0, 0, 37.37718, 1, 1, 1000, 1000
RFND, 49314371, 0.2, 25, 0, 0
IMU, 49344483, -0.003644613, -0.008480666, 0.01910921, 0.07931958, -0.02408731, -9.895862, 0, 0, 37.37624, 1, 1, 1000, 1000
MAG, 49364466, 344, 505, 286, 0, 0, 0, 0, 0, 0, 1, 49364457
RFND, 49364495, 0.2, 25, 0, 0
BARO, 49364535, -0.05638051, 993.4818, 35.43, 0.4422346, 49364, 0, 34.27
CTUN, 49364548, 0, 0, 0, 0.2662303, 0.07107051, 0.07107051, -0.05, 0, 0.19, 0, 0, 0
ATT, 49364653, 0, 0.55, 0, 0.01, 359.87, 359.88, 0, 1
RATE, 49364659, -2.480188, 0.629787, -0.007920069, -0.06003708, 0.04715055, -0.001723028, 0.0002694176, -0.4776845, -0.0003333075, -131.6629, 1.159954, 0
NKF1, 49364667, 0.55, 0.01, 359.87, 0.01105737, 0.01557404, -0.003250937, 0, 0, 0, -0.07107051, -0.03, 0.01, 0
NKF2, 49364667, -5, 0, 0, 0, 0, 0, 0, 0, 0, 0, 0, 0, 0
NKF3, 49364667, 0, 0, 0, 0.02, 0.02, 0, 0, 0, 0, 0, 0
NKF4, 49364667, 0, 0, 0, 0, 0, 1.267853E-06, 0, 0, 0, 19, 229, 0, 0
NKF5, 49364667, 0, 0, 0, 0, 0.2, 0.13, 0, 0.19, 0.5, 3.870313E-05, 0.0003362651, 0.0009057565
NKQ1, 49364667, 0.999975, 0.000269937, 0.006991633, -0.001063488
AHR2, 49364710, 0.47, 0.05, 359.86, -0.05, 0, 0, 0.9999906, 0.004130749, 0.0004355445, -0.001166944
MOTB, 49364718, 1, 1, 0, 1
RCIN, 49364722, 0, 0, 0, 0, 0, 0, 0, 0, 0, 0, 0, 0, 0, 0
RCOU, 49364727, 1234, 1223, 1221, 1237, 0, 0, 0, 0, 0, 0, 0, 0, 0, 0
VIBE, 49364735, 0.415181, 0.4200986, 0.6780593, 0, 0, 0
CTRL, 49364742, 0.005873729, 0.001431449, 0.0005661091, 0.0009525922, 0.0004999209
PRX, 49364773, 2, 0.71, 0, 0.61, 0, 3.6, 0, 2.45, 0, 0, 90, 0.61
IMU, 49384488, -0.007773761, -0.002376909, 0.006144077, 0.02819199, -0.003632067, -9.860708, 0, 0, 37.37481, 1, 1, 1000, 1000
RFND, 49414409, 0.2, 25, 0, 0
IMU, 49424570, 0.002472607, -0.004043213, 0.004948591, -0.006943064, -0.02702747, -9.840406, 0, 0, 37.37387, 1, 1, 1000, 1000
MAG, 49464334, 349, 504, 284, 0, 0, 0, 0, 0, 0, 1, 49464325
RFND, 49464362, 0.2, 25, 0, 0
BARO, 49464402, -0.05074246, 993.4808, 35.43, 0.5003771, 49464, 0, 34.27
CTUN, 49464415, 0, 0, 0, 0.2662303, 0.07121224, 0.07121224, -0.05, 0, 0.19, 0, 0, 0
ATT, 49464555, 0, 0.55, 0, 0.01, 359.86, 359.88, 0, 1
RATE, 49464561, -2.478698, 0.3477365, -0.01019648, -0.05508472, -0.3285073, 0.002230985, 0.0002703801, 0.05852645, 3.310983E-05, -154.4883, 8.119678, 0
NKF1, 49464568, 0.55, 0.01, 359.87, 0.01042239, 0.01616728, -0.003814526, 0, 0, 0, -0.07121224, -0.03, 0.01, 0
NKF2, 49464568, -5, 0, 0, 0, 0, 0, 0, 0, 0, 0, 0, 0, 0
NKF3, 49464568, 0, 0, 0, 0.02, 0.02, 0, 0, 0, 0, 0, 0
NKF4, 49464568, 0, 0, 0, 0, 0, 1.42598E-06, 0, 0, 0, 19, 229, 0, 0
NKF5, 49464568, 0, 0, 0, 0, 0.2, 0.13, 0, 0.19, 0.5, 3.956772E-05, 0.0003639889, 0.001002033
NKQ1, 49464568, 0.999975, 0.0002693068, 0.006992066, -0.001089995
AHR2, 49464609, 0.47, 0.05, 359.86, -0.05, 0, 0, 0.9999906, 0.00413159, 0.0004496421, -0.001193401
MOTB, 49464617, 1, 1, 0, 1
RCIN, 49464621, 0, 0, 0, 0, 0, 0, 0, 0, 0, 0, 0, 0, 0, 0
RCOU, 49464626, 1242, 1221, 1224, 1238, 0, 0, 0, 0, 0, 0, 0, 0, 0, 0
VIBE, 49464635, 0.4229944, 0.4782932, 0.6039281, 0, 0, 0
CTRL, 49464642, 0.005823647, 0.001712971, 0.0005678752, 0.001084243, 0.000424357
PRX, 49464673, 2, 0.71, 0, 0.61, 0, 3.6, 0, 2.44, 0, 0, 90, 0.61
IMU, 49464681, 0.00553166, -0.005475187, 0.001016028, 0.05185125, -0.0381032, -9.94097, 0, 0, 37.37298, 1, 1, 1000, 1000
IMU, 49505452, 0.00490418, -0.002674284, 0.002376912, 0.2098221, 0.01412577, -9.883356, 0, 0, 37.37166, 1, 1, 1000, 1000
RFND, 49514929, 0.2, 25, 0, 0
IMU, 49545062, 0.007839575, 0.003660192, -0.000362924, 0.3349345, -0.00498914, -9.889252, 0, 0, 37.36982, 1, 1, 1000, 1000
MAG, 49564361, 344, 505, 287, 0, 0, 0, 0, 0, 0, 1, 49564352
RFND, 49564390, 0.2, 25, 0, 0
BARO, 49564429, -0.1578654, 993.493, 35.44, 0.403473, 49564, 0, 34.27
CTUN, 49564442, 0, 0, 0, 0.2662303, 0.07129645, 0.07129645, -0.15, 0, 0.19, 0, 0, 0
ATT, 49564544, 0, 0.55, 0, 0.01, 359.86, 359.88, 0, 1
RATE, 49564551, -2.51341, -0.01935735, -0.006566789, -0.06541788, -0.3221687, 0.002676674, 0.0003281448, 0.1324409, 0.0001946249, -85.79455, -0.1184464, 0
NKF1, 49564559, 0.55, 0.01, 359.87, 0.01098946, 0.01607328, -0.002118384, 0, 0, 0, -0.07129645, -0.03, 0.01, 0
NKF2, 49564559, -5, 0, 0, 0, 0, 0, 0, 0, 0, 0, 0, 0, 0
NKF3, 49564559, 0, 0, 0, 0.02, 0.02, 0, 0, 0, 0, 0, 0
NKF4, 49564559, 0, 0, 0, 0, 0, 1.553703E-06, 0, 0, 0, 19, 229, 0, 0
NKF5, 49564559, 0, 0, 0, 0, 0.2, 0.13, 0, 0.19, 0.5, 4.057298E-05, 0.0004249842, 0.00117644
NKQ1, 49564559, 0.9999748, 0.0003354561, 0.007013416, -0.001074302
AHR2, 49564603, 0.48, 0.05, 359.86, -0.15, 0, 0, 0.9999904, 0.004196715, 0.0004850265, -0.001178254
MOTB, 49564610, 1, 1, 0, 1
RCIN, 49564614, 0, 0, 0, 0, 0, 0, 0, 0, 0, 0, 0, 0, 0, 0
RCOU, 49564619, 1237, 1221, 1225, 1232, 0, 0, 0, 0, 0, 0, 0, 0, 0, 0
VIBE, 49564627, 0.4602405, 0.4928769, 0.5073333, 0, 0, 0
CTRL, 49564634, 0.005934007, 0.001908051, 0.0005789077, 0.001199905, 0.0003500895
PRX, 49564666, 2, 0.71, 0, 0.61, 0, 3.6, 0, 2.43, 0, 0, 90, 0.61
IMU, 49584430, -0.0005592984, 0.002783157, -0.004581118, 0.1974356, 0.004503869, -9.774004, 0, 0, 37.36769, 1, 1, 1000, 1000
RFND, 49614433, 0.2, 25, 0, 0
IMU, 49624405, -0.005418107, -0.0005549139, -0.002189978, -0.01863241, -0.006594096, -9.808863, 0, 0, 37.36543, 1, 1, 1000, 1000
MAG, 49664326, 347, 505, 281, 0, 0, 0, 0, 0, 0, 1, 49664317
RFND, 49664354, 0.2, 25, 0, 0
BARO, 49664396, -0.06201856, 993.4822, 35.43, 0.1057135, 49664, 0, 34.27
CTUN, 49664410, 0, 0, 0, 0.2662303, 0.07119666, 0.07119666, -0.06, 0, 0.19, 0, 0, 0
ATT, 49664515, 0, 0.56, 0, 0.01, 359.87, 359.89, 0, 1
RATE, 49664521, -2.535638, -0.04751309, -0.005659636, -0.05631778, -0.1825758, 0.001016016, 0.0003159998, 0.7480185, -3.325268E-05, -28.58505, 0.9879112, 0
NKF1, 49664529, 0.56, 0.01, 359.88, 0.01216174, 0.01820854, -0.0007058036, 0, 0, 0, -0.07119666, -0.03, 0.01, 0
NKF2, 49664529, -5, 0, 0, 0, 0, 0, 0, 0, 0, 0, 0, 0, 0
NKF3, 49664529, 0, 0, 0, 0.02, 0.02, 0, 0, 0, 0, 0, 0
NKF4, 49664529, 0, 0, 0, 0, 0, 1.7324E-06, 0, 0, 0, 19, 229, 0, 0
NKF5, 49664529, 0, 0, 0, 0, 0.2, 0.13, 0, 0.19, 0.5, 4.007855E-05, 0.0003480998, 0.00100502
NKQ1, 49664529, 0.9999749, 0.0003776055, 0.007007483, -0.001014058
AHR2, 49664572, 0.48, 0.05, 359.87, -0.06, 0, 0, 0.9999903, 0.004220791, 0.0004948577, -0.001118255
MOTB, 49664580, 1, 1, 0, 1
RCIN, 49664584, 0, 0, 0, 0, 0, 0, 0, 0, 0, 0, 0, 0, 0, 0
