FMT, 128, 89, FMT, BBnNZ, Type,Length,Name,Format,Columns
FMT, 129, 31, PARM, QNf, TimeUS,Name,Value
FMT, 130, 46, GPS, QBIHBcLLefffB, TimeUS,Status,GMS,GWk,NSats,HDop,Lat,Lng,Alt,Spd,GCrs,VZ,U
FMT, 131, 46, GPS2, QBIHBcLLefffB, TimeUS,Status,GMS,GWk,NSats,HDop,Lat,Lng,Alt,Spd,GCrs,VZ,U
FMT, 132, 46, GPSB, QBIHBcLLefffB, TimeUS,Status,GMS,GWk,NSats,HDop,Lat,Lng,Alt,Spd,GCrs,VZ,U
FMT, 193, 24, GPA, QCCCCBI, TimeUS,VDop,HAcc,VAcc,SAcc,VV,SMS
FMT, 194, 24, GPA2, QCCCCBI, TimeUS,VDop,HAcc,VAcc,SAcc,VV,SMS
FMT, 195, 24, GPAB, QCCCCBI, TimeUS,VDop,HAcc,VAcc,SAcc,VV,SMS
FMT, 133, 53, IMU, QffffffIIfBBHH, TimeUS,GyrX,GyrY,GyrZ,AccX,AccY,AccZ,EG,EA,T,GH,AH,GHz,AHz
FMT, 134, 75, MSG, QZ, TimeUS,Message
FMT, 135, 39, RCIN, QHHHHHHHHHHHHHH, TimeUS,C1,C2,C3,C4,C5,C6,C7,C8,C9,C10,C11,C12,C13,C14
FMT, 136, 39, RCOU, QHHHHHHHHHHHHHH, TimeUS,C1,C2,C3,C4,C5,C6,C7,C8,C9,C10,C11,C12,C13,C14
FMT, 137, 15, RSSI, Qf, TimeUS,RXRSSI
FMT, 139, 37, BARO, QffcfIff, TimeUS,Alt,Press,Temp,CRt,SMS,Offset,GndTemp
FMT, 140, 22, POWR, QffHB, TimeUS,Vcc,VServo,Flags,Safety
FMT, 143, 45, CMD, QHHHfffffff, TimeUS,CTot,CNum,CId,Prm1,Prm2,Prm3,Prm4,Lat,Lng,Alt
FMT, 144, 20, RAD, QBBBBBHH, TimeUS,RSSI,RemRSSI,TxBuf,Noise,RemNoise,RxErrors,Fixed
FMT, 146, 43, CAM, QIHLLeeeccC, TimeUS,GPSTime,GPSWeek,Lat,Lng,Alt,RelAlt,GPSAlt,Roll,Pitch,Yaw
FMT, 232, 43, TRIG, QIHLLeeeccC, TimeUS,GPSTime,GPSWeek,Lat,Lng,Alt,RelAlt,GPSAlt,Roll,Pitch,Yaw
FMT, 162, 30, ARSP, QffcffB, TimeUS,Airspeed,DiffPress,Temp,RawPress,Offset,U
FMT, 164, 45, CURR, QfffcHHHHHHHHHH, TimeUS,Volt,Curr,CurrTot,Temp,V1,V2,V3,V4,V5,V6,V7,V8,V9,V10
FMT, 165, 45, CUR2, QfffcHHHHHHHHHH, TimeUS,Volt,Curr,CurrTot,Temp,V1,V2,V3,V4,V5,V6,V7,V8,V9,V10
FMT, 163, 27, ATT, QccccCCCC, TimeUS,DesRoll,Roll,DesPitch,Pitch,DesYaw,Yaw,ErrRP,ErrYaw
FMT, 166, 34, MAG, QhhhhhhhhhBI, TimeUS,MagX,MagY,MagZ,OfsX,OfsY,OfsZ,MOfsX,MOfsY,MOfsZ,Health,S
FMT, 169, 14, MODE, QMBB, TimeUS,Mode,ModeNum,Rsn
FMT, 196, 17, RFND, QCBCB, TimeUS,Dist1,Orient1,Dist2,Orient2
FMT, 223, 33, DMS, IIIIIBBBBBBBBBB, TimeMS,N,Dp,RT,RS,Er,Fa,Fmn,Fmx,Pa,Pmn,Pmx,Sa,Smn,Smx
FMT, 240, 41, BCN, QBBfffffff, TimeUS,Health,Cnt,D0,D1,D2,D3,PosX,PosY,PosZ
FMT, 138, 53, IMU2, QffffffIIfBBHH, TimeUS,GyrX,GyrY,GyrZ,AccX,AccY,AccZ,EG,EA,T,GH,AH,GHz,AHz
FMT, 147, 53, IMU3, QffffffIIfBBHH, TimeUS,GyrX,GyrY,GyrZ,AccX,AccY,AccZ,EG,EA,T,GH,AH,GHz,AHz
FMT, 141, 45, AHR2, QccCfLLffff, TimeUS,Roll,Pitch,Yaw,Alt,Lat,Lng,Q1,Q2,Q3,Q4
FMT, 180, 31, POS, QLLfff, TimeUS,Lat,Lng,Alt,RelHomeAlt,RelOriginAlt
FMT, 142, 45, SIM, QccCfLLffff, TimeUS,Roll,Pitch,Yaw,Alt,Lat,Lng,Q1,Q2,Q3,Q4
FMT, 198, 51, NKF1, QccCfffffffccc, TimeUS,Roll,Pitch,Yaw,VN,VE,VD,dPD,PN,PE,PD,GX,GY,GZ
FMT, 199, 35, NKF2, QbccccchhhhhhB, TimeUS,AZbias,GSX,GSY,GSZ,VWN,VWE,MN,ME,MD,MX,MY,MZ,MI
FMT, 200, 33, NKF3, Qcccccchhhcc, TimeUS,IVN,IVE,IVD,IPN,IPE,IPD,IMX,IMY,IMZ,IYAW,IVT
FMT, 201, 35, NKF4, QcccccfbbHBHHb, TimeUS,SV,SP,SH,SM,SVT,errRP,OFN,OFE,FS,TS,SS,GPS,PI
FMT, 202, 40, NKF5, QBhhhcccCCfff, TimeUS,NI,FIX,FIY,AFI,HAGL,offset,RI,rng,Herr,eAng,eVel,ePos
FMT, 203, 51, NKF6, QccCfffffffccc, TimeUS,Roll,Pitch,Yaw,VN,VE,VD,dPD,PN,PE,PD,GX,GY,GZ
FMT, 204, 35, NKF7, QbccccchhhhhhB, TimeUS,AZbias,GSX,GSY,GSZ,VWN,VWE,MN,ME,MD,MX,MY,MZ,MI
FMT, 205, 33, NKF8, Qcccccchhhcc, TimeUS,IVN,IVE,IVD,IPN,IPE,IPD,IMX,IMY,IMZ,IYAW,IVT
FMT, 206, 35, NKF9, QcccccfbbHBHHb, TimeUS,SV,SP,SH,SM,SVT,errRP,OFN,OFE,FS,TS,SS,GPS,PI
FMT, 207, 36, NKF0, QBccCCcccccccc, TimeUS,ID,rng,innov,SIV,TR,BPN,BPE,BPD,OFH,OFL,OFN,OFE,OFD
FMT, 208, 27, NKQ1, Qffff, TimeUS,Q1,Q2,Q3,Q4
FMT, 209, 27, NKQ2, Qffff, TimeUS,Q1,Q2,Q3,Q4
FMT, 210, 51, XKF1, QccCfffffffccc, TimeUS,Roll,Pitch,Yaw,VN,VE,VD,dPD,PN,PE,PD,GX,GY,GZ
FMT, 211, 34, XKF2, QccccchhhhhhB, TimeUS,AX,AY,AZ,VWN,VWE,MN,ME,MD,MX,MY,MZ,MI
FMT, 212, 33, XKF3, Qcccccchhhcc, TimeUS,IVN,IVE,IVD,IPN,IPE,IPD,IMX,IMY,IMZ,IYAW,IVT
FMT, 213, 35, XKF4, QcccccfbbHBHHb, TimeUS,SV,SP,SH,SM,SVT,errRP,OFN,OFE,FS,TS,SS,GPS,PI
FMT, 214, 40, XKF5, QBhhhcccCCfff, TimeUS,NI,FIX,FIY,AFI,HAGL,offset,RI,rng,Herr,eAng,eVel,ePos
FMT, 215, 51, XKF6, QccCfffffffccc, TimeUS,Roll,Pitch,Yaw,VN,VE,VD,dPD,PN,PE,PD,GX,GY,GZ
FMT, 216, 34, XKF7, QccccchhhhhhB, TimeUS,AX,AY,AZ,VWN,VWE,MN,ME,MD,MX,MY,MZ,MI
FMT, 217, 33, XKF8, Qcccccchhhcc, TimeUS,IVN,IVE,IVD,IPN,IPE,IPD,IMX,IMY,IMZ,IYAW,IVT
FMT, 218, 35, XKF9, QcccccfbbHBHHb, TimeUS,SV,SP,SH,SM,SVT,errRP,OFN,OFE,FS,TS,SS,GPS,PI
FMT, 219, 36, XKF0, QBccCCcccccccc, TimeUS,ID,rng,innov,SIV,TR,BPN,BPE,BPD,OFH,OFL,OFN,OFE,OFD
FMT, 220, 27, XKQ1, Qffff, TimeUS,Q1,Q2,Q3,Q4
FMT, 221, 27, XKQ2, Qffff, TimeUS,Q1,Q2,Q3,Q4
FMT, 222, 35, XKFD, Qffffff, TimeUS,IX,IY,IZ,IVX,IVY,IVZ
FMT, 148, 34, TERR, QBLLHffHH, TimeUS,Status,Lat,Lng,Spacing,TerrH,CHeight,Pending,Loaded
FMT, 149, 18, UBX1, QBHBBH, TimeUS,Instance,noisePerMS,jamInd,aPower,agcCnt
FMT, 150, 16, UBX2, QBbBbB, TimeUS,Instance,ofsI,magI,ofsQ,magQ
FMT, 151, 18, UBY1, QBHBBH, TimeUS,Instance,noisePerMS,jamInd,aPower,agcCnt
FMT, 152, 16, UBY2, QBbBbB, TimeUS,Instance,ofsI,magI,ofsQ,magQ
FMT, 170, 42, GRAW, QIHBBddfBbB, TimeUS,WkMS,Week,numSV,sv,cpMes,prMes,doMes,mesQI,cno,lli
FMT, 171, 24, GRXH, QdHbBB, TimeUS,rcvTime,week,leapS,numMeas,recStat
FMT, 172, 41, GRXS, QddfBBBHBBBBB, TimeUS,prMes,cpMes,doMes,gnss,sv,freq,lock,cno,prD,cpD,doD,trk
FMT, 173, 63, SBFE, QIHBBdddfffff, TimeUS,TOW,WN,Mode,Err,Lat,Lng,Height,Undul,Vn,Ve,Vu,COG
FMT, 153, 19, ESC1, Qcccc, TimeUS,RPM,Volt,Curr,Temp
FMT, 154, 19, ESC2, Qcccc, TimeUS,RPM,Volt,Curr,Temp
FMT, 155, 19, ESC3, Qcccc, TimeUS,RPM,Volt,Curr,Temp
FMT, 156, 19, ESC4, Qcccc, TimeUS,RPM,Volt,Curr,Temp
FMT, 157, 19, ESC5, Qcccc, TimeUS,RPM,Volt,Curr,Temp
FMT, 158, 19, ESC6, Qcccc, TimeUS,RPM,Volt,Curr,Temp
FMT, 159, 19, ESC7, Qcccc, TimeUS,RPM,Volt,Curr,Temp
FMT, 160, 19, ESC8, Qcccc, TimeUS,RPM,Volt,Curr,Temp
FMT, 167, 34, MAG2, QhhhhhhhhhBI, TimeUS,MagX,MagY,MagZ,OfsX,OfsY,OfsZ,MOfsX,MOfsY,MOfsZ,Health,S
FMT, 168, 34, MAG3, QhhhhhhhhhBI, TimeUS,MagX,MagY,MagZ,OfsX,OfsY,OfsZ,MOfsX,MOfsY,MOfsZ,Health,S
FMT, 174, 31, ACC1, QQfff, TimeUS,SampleUS,AccX,AccY,AccZ
FMT, 175, 31, ACC2, QQfff, TimeUS,SampleUS,AccX,AccY,AccZ
FMT, 176, 31, ACC3, QQfff, TimeUS,SampleUS,AccX,AccY,AccZ
FMT, 177, 31, GYR1, QQfff, TimeUS,SampleUS,GyrX,GyrY,GyrZ
FMT, 178, 31, GYR2, QQfff, TimeUS,SampleUS,GyrX,GyrY,GyrZ
FMT, 179, 31, GYR3, QQfff, TimeUS,SampleUS,GyrX,GyrY,GyrZ
FMT, 181, 35, PIDR, Qffffff, TimeUS,Des,P,I,D,FF,AFF
FMT, 182, 35, PIDP, Qffffff, TimeUS,Des,P,I,D,FF,AFF
FMT, 183, 35, PIDY, Qffffff, TimeUS,Des,P,I,D,FF,AFF
FMT, 184, 35, PIDA, Qffffff, TimeUS,Des,P,I,D,FF,AFF
FMT, 185, 35, PIDS, Qffffff, TimeUS,Des,P,I,D,FF,AFF
FMT, 186, 35, PIDL, Qffffff, TimeUS,Des,P,I,D,FF,AFF
FMT, 161, 37, BAR2, QffcfIff, TimeUS,Alt,Press,Temp,CRt,SMS,Offset,GndTemp
FMT, 197, 37, BAR3, QffcfIff, TimeUS,Alt,Press,Temp,CRt,SMS,Offset,GndTemp
FMT, 187, 35, VIBE, QfffIII, TimeUS,VibeX,VibeY,VibeZ,Clip0,Clip1,Clip2
FMT, 188, 47, IMT, Qfffffffff, TimeUS,DelT,DelvT,DelaT,DelAX,DelAY,DelAZ,DelVX,DelVY,DelVZ
FMT, 189, 47, IMT2, Qfffffffff, TimeUS,DelT,DelvT,DelaT,DelAX,DelAY,DelAZ,DelVX,DelVY,DelVZ
FMT, 190, 47, IMT3, Qfffffffff, TimeUS,DelT,DelvT,DelaT,DelAX,DelAY,DelAZ,DelVX,DelVY,DelVZ
FMT, 191, 24, ORGN, QBLLe, TimeUS,Type,Lat,Lng,Alt
FMT, 192, 19, RPM, Qff, TimeUS,rpm1,rpm2
FMT, 233, 47, GMB1, Iffffffffff, TimeMS,dt,dax,day,daz,dvx,dvy,dvz,jx,jy,jz
FMT, 234, 44, GMB2, IBfffffffff, TimeMS,es,ex,ey,ez,rx,ry,rz,tx,ty,tz
FMT, 235, 13, GMB3, Ihhh, TimeMS,rl_torque_cmd,el_torque_cmd,az_torque_cmd
FMT, 236, 59, RATE, Qffffffffffff, TimeUS,RDes,R,ROut,PDes,P,POut,YDes,Y,YOut,ADes,A,AOut
FMT, 237, 23, RALY, QBBLLh, TimeUS,Tot,Seq,Lat,Lng,Alt
FMT, 238, 43, VISO, Qffffffff, TimeUS,dt,AngDX,AngDY,AngDZ,PosDX,PosDY,PosDZ,conf
FMT, 224, 23, SBPH, QIII, TimeUS,CrcError,LastInject,IARhyp
FMT, 229, 80, SBR1, QHHBZ, TimeUS,msg_type,sender_id,msg_len,d1
FMT, 230, 205, SBR2, QHZZZ, TimeUS,msg_type,d2,d3,d4
FMT, 25, 41, ATUN, QBBfffffff, TimeUS,Axis,TuneStep,Targ,Min,Max,RP,RD,SP,ddt
FMT, 26, 19, ATDE, Qff, TimeUS,Angle,Rate
FMT, 31, 22, PTUN, QBfHHH, TimeUS,Param,TunVal,CtrlIn,TunLo,TunHi
FMT, 12, 28, OF, QBffff, TimeUS,Qual,flowX,flowY,bodyX,bodyY
FMT, 5, 51, NTUN, Qffffffffff, TimeUS,DPosX,DPosY,PosX,PosY,DVelX,DVelY,VelX,VelY,DAccX,DAccY
FMT, 4, 51, CTUN, Qffffffeccfhh, TimeUS,ThI,ABst,ThO,ThH,DAlt,Alt,BAlt,DSAlt,SAlt,TAlt,DCRt,CRt
FMT, 6, 32, PM, QHHIhBHII, TimeUS,NLon,NLoop,MaxT,PMT,I2CErr,INSErr,LogDrop,Mem
FMT, 30, 27, MOTB, Qffff, TimeUS,LiftMax,BatVolt,BatRes,ThLimit
FMT, 13, 12, EV, QB, TimeUS,Id
FMT, 20, 14, D16, QBh, TimeUS,Id,Value
FMT, 21, 14, DU16, QBH, TimeUS,Id,Value
FMT, 22, 16, D32, QBi, TimeUS,Id,Value
FMT, 23, 16, DU32, QBI, TimeUS,Id,Value
FMT, 24, 16, DFLT, QBf, TimeUS,Id,Value
FMT, 19, 13, ERR, QBB, TimeUS,Subsys,ECode
FMT, 32, 19, HELI, Qff, TimeUS,DRRPM,ERRPM
FMT, 33, 29, PL, QBBffff, TimeUS,Heal,TAcq,pX,pY,vX,vY
FMT, 34, 36, GUID, QBffffff, TimeUS,Type,pX,pY,pZ,vX,vY,vZ
FMT, 35, 32, THRO, QBffffbbbb, TimeUS,Stage,Vel,VelZ,Acc,AccEfZ,Throw,AttOk,HgtOk,PosOk
FMT, 36, 56, PRX, QBfffffffffff, TimeUS,Health,D0,D45,D90,D135,D180,D225,D270,D315,DUp,CAn,CDis
MODE, 33245124, 100, 100, 2
FMT, 254, 47, NKT1, QIffffffff, TimeUS,Cnt,IMUMin,IMUMax,EKFMin,EKFMax,AngMin,AngMax,VelMin,VelM
FMT, 253, 31, CTRL, Qfffff, TimeUS,RMSRollP,RMSRollD,RMSPitchP,RMSPitchD,RMSYaw
MSG, 33396839, APM:Copter V3.5.7 (38483450)
MSG, 33396844, New mission
MSG, 33396856, Frame: QUAD
MODE, 33396860, Autonomous, 100, 2
RFND, 33424047, 0.2, 25, 0, 0
IMU, 33434418, -0.002389508, 0.003448379, 0.0007302289, 0.2639624, -0.0558853, -9.76902, 0, 0, 37.71726, 1, 1, 1001, 1001
MAG, 33473997, 392, 508, 328, 0, 0, 0, 0, 0, 0, 1, 33473988
RFND, 33474028, 0.2, 25, 0, 0
BARO, 33474063, -0.5481896, 993.5545, 35.82, 0.06484871, 33474, 0, 35
CTUN, 33474076, 0, 0, 0, 0.2624286, 0.07760922, 0.07760922, -0.54, 0, 0.19, 0, 0, 0
IMU, 33474130, -0.0002277257, 0.001451536, -0.0002806608, 0.2705654, -0.05436496, -9.782563, 0, 0, 37.71632, 1, 1, 1001, 1001
ATT, 33476979, 0, 0.83, 0, 0.71, 4.47, 4.49, 0, 1
RATE, 33476991, -3.770117, -0.01107728, -0.008532906, -3.202071, 0.05161962, -0.007518542, 0.02346261, -0.006959726, 0.0001244708, -380.9715, -1.0746, 0
NKF1, 33476999, 0.83, 0.71, 4.49, -0.01038593, -0.007920571, -0.009406704, 0, 0, 0, -0.07762799, -0.01, 0, 0
NKF2, 33476999, 0, 0, 0, 0, 0, 0, 0, 0, 0, 0, 0, 0, 0
NKF3, 33476999, 0, 0, 0, 0, 0, -0.01, 0, 0, 0, 0, 0
NKF4, 33476999, 0, 0, 0, 0, 0, 7.295567E-06, 0, 0, 0, 19, 229, 0, 0
NKF5, 33476999, 0, 0, 0, 0, 0.21, 0.13, 0, 0.19, 0.5, 3.917845E-05, 0.001482437, 0.003126759
NKQ1, 33476999, 0.999144, 0.002251922, 0.01318954, 0.03914378
AHR2, 33477047, 0.8, 0.71, 4.47, -0.54, 0, 0, 0.999194, 0.006813895, 0.006517959, 0.0390186
MOTB, 33477055, 1, 1, 0, 1
RCIN, 33477059, 0, 0, 0, 0, 0, 0, 0, 0, 0, 0, 0, 0, 0, 0
RCOU, 33477065, 1101, 1101, 1101, 1101, 0, 0, 0, 0, 0, 0, 0, 0, 0, 0
VIBE, 33477073, 0.02279358, 0.02112729, 0.03269161, 0, 0, 0
CTRL, 33477080, 0.008899384, 0.0003845703, 0.007554736, 0.0004244346, 0.0003326987
PRX, 33477112, 2, 0.63, 0, 0.65, 0, 3.6, 0, 2.39, 0, 0, 0, 0.63
IMU, 33514221, 0.0006944202, -0.0006348304, 0.0007167269, 0.2641624, -0.05946919, -9.800465, 0, 0, 37.71622, 1, 1, 1001, 1001
RFND, 33524177, 0.2, 25, 0, 0
IMU, 33554054, 8.212214E-05, -0.0008781196, -0.0001178536, 0.2532513, -0.05124702, -9.808541, 0, 0, 37.71597, 1, 1, 1001, 1001
MAG, 33574091, 389, 509, 324, 0, 0, 0, 0, 0, 0, 1, 33574083
RFND, 33574122, 0.2, 25, 0, 0
BARO, 33574155, -0.4690695, 993.546, 35.82, -0.05165821, 33574, 0, 35
CTUN, 33574169, 0, 0, 0, 0.2624286, 0.07743548, 0.07743548, -0.46, 0, 0.19, 0, 0, 0
ATT, 33576570, 0, 0.83, 0, 0.7, 4.47, 4.49, 0, 1
RATE, 33576579, -3.773888, 0.04709798, -0.008892746, -3.196387, 0.00545226, -0.007721005, 0.02049653, -0.03053998, 8.074567E-05, -356.1822, -0.5710602, 0
NKF1, 33576587, 0.83, 0.7, 4.49, -0.01010321, -0.007924047, -0.008794622, 0, 0, 0, -0.07746186, -0.01, 0, 0
NKF2, 33576587, 0, 0, 0, 0, 0, 0, 0, 0, 0, 0, 0, 0, 0
NKF3, 33576587, 0, 0, 0, 0, 0, -0.01, 0, 0, 0, 0, 0
NKF4, 33576587, 0, 0, 0, 0, 0, 4.712417E-06, 0, 0, 0, 19, 229, 0, 0
NKF5, 33576587, 0, 0, 0, 0, 0.21, 0.13, 0, 0.19, 0.5, 3.722346E-05, 0.00142505, 0.003093545
NKQ1, 33576587, 0.999144, 0.002260582, 0.01317857, 0.03915043
AHR2, 33576632, 0.81, 0.71, 4.47, -0.46, 0, 0, 0.9991937, 0.006821889, 0.006517774, 0.03902518
MOTB, 33576640, 1, 1, 0, 1
RCIN, 33576644, 0, 0, 0, 0, 0, 0, 0, 0, 0, 0, 0, 0, 0, 0
RCOU, 33576649, 1101, 1101, 1101, 1101, 0, 0, 0, 0, 0, 0, 0, 0, 0, 0
VIBE, 33576786, 0.02254072, 0.01927259, 0.03622083, 0, 0, 0
CTRL, 33576793, 0.008908902, 0.000349535, 0.007528246, 0.0003679091, 0.0002757004
PRX, 33576825, 2, 0.63, 0, 0.66, 0, 3.6, 0, 2.38, 0, 0, 0, 0.63
IMU, 33594359, -0.002014638, 0.001560552, -0.0001715969, 0.2548164, -0.0536714, -9.783493, 0, 0, 37.71527, 1, 1, 1001, 1001
RFND, 33623904, 0.2, 25, 0, 0
IMU, 33634036, -0.0002520975, 0.001121994, -0.001348449, 0.2576348, -0.06076157, -9.802368, 0, 0, 37.71501, 1, 1, 1001, 1001
MAG, 33674302, 386, 507, 321, 0, 0, 0, 0, 0, 0, 1, 33674294
RFND, 33674333, 0.2, 25, 0, 0
BARO, 33674367, -0.4860238, 993.5478, 35.82, -0.04609079, 33674, 0, 35
CTUN, 33674380, 0, 0, 0, 0.2624286, 0.07730655, 0.07730655, -0.48, 0, 0.19, 0, 0, 0
IMU, 33674484, -0.0007269174, -0.0011316, 0.001535994, 0.2654102, -0.04961375, -9.808805, 0, 0, 37.71507, 1, 1, 1001, 1001
ATT, 33677083, 0, 0.83, 0, 0.7, 4.48, 4.49, 0, 1
RATE, 33677095, -3.754574, -0.02858179, -0.008769946, -3.191841, -0.05911692, -0.007410957, 0.0229075, 0.07038818, 5.905643E-05, -354.0275, 1.457977, 0
NKF1, 33677102, 0.83, 0.7, 4.49, -0.009809101, -0.00806726, -0.00874142, 0, 0, 0, -0.0773326, -0.01, 0, 0
NKF2, 33677102, 0, 0, 0, 0, 0, 0, 0, 0, 0, 0, 0, 0, 0
NKF3, 33677102, 0, 0, 0, -0.01, 0, -0.01, 0, 0, 0, 0, 0
NKF4, 33677102, 0, 0, 0, 0, 0, 3.174639E-06, 0, 0, 0, 19, 229, 0, 0
NKF5, 33677102, 0, 0, 0, 0, 0.2, 0.13, 0, 0.19, 0.5, 3.620453E-05, 0.001428023, 0.003191501
NKQ1, 33677102, 0.9991442, 0.00222087, 0.01317095, 0.0391487
AHR2, 33677150, 0.8, 0.71, 4.47, -0.48, 0, 0, 0.999194, 0.006780719, 0.006518488, 0.03902373
MOTB, 33677157, 1, 1, 0, 1
RCIN, 33677161, 0, 0, 0, 0, 0, 0, 0, 0, 0, 0, 0, 0, 0, 0
RCOU, 33677167, 1101, 1101, 1101, 1101, 0, 0, 0, 0, 0, 0, 0, 0, 0, 0
VIBE, 33677203, 0.02086995, 0.01805915, 0.03251096, 0, 0, 0
CTRL, 33677209, 0.008859566, 0.0003149189, 0.007536976, 0.0003405148, 0.0002343076
PRX, 33677241, 2, 0.63, 0, 0.66, 0, 3.6, 0, 2.38, 0, 0, 0, 0.63
IMU, 33714310, -0.0005590129, 0.001013156, 0.000479743, 0.2506391, -0.06559663, -9.791138, 0, 0, 37.71507, 1, 1, 1001, 1001
RFND, 33724095, 0.2, 25, 0, 0
IMU, 33754012, -0.0006355924, 0.0002975953, -2.095254E-05, 0.2494231, -0.06119068, -9.774659, 0, 0, 37.71542, 1, 1, 1001, 1001
MAG, 33773981, 389, 508, 323, 0, 0, 0, 0, 0, 0, 1, 33773972
RFND, 33774013, 0.2, 25, 0, 0
BARO, 33774047, -0.4577666, 993.5447, 35.83, 0.05443097, 33774, 0, 35
CTUN, 33774061, 0, 0, 0, 0.2624286, 0.0771228, 0.0771228, -0.45, 0, 0.19, 0, 0, 0
ATT, 33776629, 0, 0.83, 0, 0.71, 4.47, 4.48, 0, 1
RATE, 33776637, -3.749681, -0.05501027, -0.008791588, -3.20749, 0.08169504, -0.007798463, 0.02513404, -0.1236363, 0.0001659565, -305.1072, -2.686977, 0
NKF1, 33776645, 0.83, 0.71, 4.48, -0.009842709, -0.008065505, -0.007533511, 0, 0, 0, -0.07714548, -0.01, 0, 0
NKF2, 33776645, 0, 0, 0, 0, 0, 0, 0, 0, 0, 0, 0, 0, 0
NKF3, 33776645, 0, 0, 0, -0.01, 0, -0.01, 0, 0, 0, 0, 0
NKF4, 33776645, 0, 0, 0, 0, 0, 2.171312E-06, 0, 0, 0, 19, 229, 0, 0
NKF5, 33776645, 0, 0, 0, 0, 0.21, 0.13, 0, 0.19, 0.5, 3.607601E-05, 0.001258887, 0.002746462
NKQ1, 33776645, 0.9991452, 0.002215864, 0.01319585, 0.03911548
AHR2, 33776812, 0.8, 0.71, 4.47, -0.45, 0, 0, 0.9991952, 0.00677334, 0.006549557, 0.0389904
MOTB, 33776820, 1, 1, 0, 1
RCIN, 33776825, 0, 0, 0, 0, 0, 0, 0, 0, 0, 0, 0, 0, 0, 0
RCOU, 33776830, 1101, 1101, 1101, 1101, 0, 0, 0, 0, 0, 0, 0, 0, 0, 0
VIBE, 33776839, 0.01983634, 0.02159722, 0.03011288, 0, 0, 0
CTRL, 33776844, 0.00885668, 0.0003088029, 0.007550975, 0.0003143824, 0.0001975745
PRX, 33776876, 2, 0.63, 0, 0.66, 0, 3.6, 0, 2.39, 0, 0, 0, 0.63
IMU, 33794426, -0.0001009533, 0.0009210689, -0.0007643899, 0.2632912, -0.0491454, -9.763812, 0, 0, 37.71634, 1, 1, 1001, 1001
RFND, 33823941, 0.2, 25, 0, 0
IMU, 33834026, 0.0001694265, -0.0005191398, -0.0001976324, 0.2526858, -0.05419786, -9.81692, 0, 0, 37.71735, 1, 1, 1001, 1001
MAG, 33874086, 393, 511, 327, 0, 0, 0, 0, 0, 0, 1, 33874078
RFND, 33874118, 0.2, 25, 0, 0
BARO, 33874154, -0.3956007, 993.538, 35.83, 0.1605836, 33874, 0, 35
CTUN, 33874167, 0, 0, 0, 0.2624286, 0.07682949, 0.07682949, -0.39, 0, 0.19, 0, 0, 0
DU32, 33874189, 7, 50389208
IMU, 33874282, -0.001630061, -0.0003861225, -0.000234521, 0.2590021, -0.06714179, -9.791672, 0, 0, 37.71804, 1, 1, 1001, 1001
ATT, 33876447, 0, 0.83, 0, 0.71, 4.47, 4.48, 0, 1
RATE, 33876456, -3.749969, -0.1039551, -0.007952805, -3.207154, 0.00544092, -0.007596032, 0.02138045, 0.004575768, 0.0001389013, -305.5512, -0.2964973, 0
NKF1, 33876464, 0.83, 0.71, 4.48, -0.00970502, -0.008369086, -0.007544473, 0, 0, 0, -0.07684457, -0.01, 0, 0
NKF2, 33876464, 0, 0, 0, 0, 0, 0, 0, 0, 0, 0, 0, 0, 0
NKF3, 33876464, 0, 0, 0, -0.01, 0, -0.01, 0, 0, 0, 0, 0
NKF4, 33876464, 0, 0, 0, 0, 0, 1.511009E-06, 0, 0, 0, 19, 229, 0, 0
NKF5, 33876464, 0, 0, 0, 0, 0.2, 0.13, 0, 0.19, 0.5, 3.617853E-05, 0.001245569, 0.002776982
NKQ1, 33876464, 0.9991455, 0.002212857, 0.01319826, 0.03910717
AHR2, 33877160, 0.8, 0.72, 4.47, -0.39, 0, 0, 0.9991955, 0.006768751, 0.006557994, 0.03898208
MOTB, 33877194, 1, 1, 0, 1
RCIN, 33877199, 0, 0, 0, 0, 0, 0, 0, 0, 0, 0, 0, 0, 0, 0
RCOU, 33877206, 1101, 1101, 1101, 1101, 0, 0, 0, 0, 0, 0, 0, 0, 0, 0
VIBE, 33877214, 0.02177409, 0.02117116, 0.03043632, 0, 0, 0
CTRL, 33877221, 0.008868716, 0.0002971502, 0.00754933, 0.0003116007, 0.0001924078
PRX, 33877252, 2, 0.63, 0, 0.65, 0, 3.6, 0, 2.38, 0, 0, 0, 0.63
IMU, 33914452, 0.0001114438, 0.002773415, 0.0008724026, 0.2504652, -0.03825053, -9.825021, 0, 0, 37.71815, 1, 1, 1001, 1001
RFND, 33924137, 0.2, 25, 0, 0
IMU, 33954044, -0.0002891449, -0.00123042, 0.0005855638, 0.2534135, -0.05435564, -9.795526, 0, 0, 37.71888, 1, 1, 1001, 1001
MAG, 33974447, 393, 508, 327, 0, 0, 0, 0, 0, 0, 1, 33974439
RFND, 33974477, 0.2, 25, 0, 0
BARO, 33974512, -0.4295094, 993.5414, 35.83, 0.224265, 33974, 0, 35
CTUN, 33974525, 0, 0, 0, 0.2624286, 0.07671416, 0.07671416, -0.42, 0, 0.19, 0, 0, 0
ATT, 33976509, 0, 0.83, 0, 0.71, 4.47, 4.48, 0, 1
RATE, 33976518, -3.739898, -0.009258506, -0.008752714, -3.215196, -0.0247319, -0.007608416, 0.02275602, 0.02737455, 6.03607E-06, -340.6, 0.8563042, 0
NKF1, 33976526, 0.83, 0.71, 4.48, -0.009829608, -0.008452032, -0.008409876, 0, 0, 0, -0.07673102, -0.01, 0, 0
NKF2, 33976526, 0, 0, 0, 0, 0, 0, 0, 0, 0, 0, 0, 0, 0
NKF3, 33976526, 0, 0, 0, -0.01, 0, -0.01, 0, 0, 0, 0, 0
NKF4, 33976526, 0, 0, 0, 0, 0, 1.075857E-06, 0, 0, 0, 19, 229, 0, 0
NKF5, 33976526, 0, 0, 0, 0, 0.21, 0.13, 0, 0.19, 0.5, 3.635084E-05, 0.001124573, 0.002440645
NKQ1, 33976526, 0.9991444, 0.002192135, 0.01321398, 0.03912779
AHR2, 33976571, 0.8, 0.72, 4.47, -0.42, 0, 0, 0.9991947, 0.006747208, 0.006579727, 0.03900276
MOTB, 33976578, 1, 1, 0, 1
RCIN, 33976582, 0, 0, 0, 0, 0, 0, 0, 0, 0, 0, 0, 0, 0, 0
RCOU, 33976588, 1101, 1101, 1101, 1101, 0, 0, 0, 0, 0, 0, 0, 0, 0, 0
VIBE, 33976596, 0.02169737, 0.02359627, 0.03457339, 0, 0, 0
CTRL, 33976603, 0.008833678, 0.0002751933, 0.007577339, 0.0003267581, 0.0001619863
PRX, 33976633, 2, 0.63, 0, 0.66, 0, 3.6, 0, 2.4, 0, 0, 0, 0.63
IMU, 33994116, -0.001331903, 0.0007746257, 0.0008658688, 0.2554087, -0.05360563, -9.775303, 0, 0, 37.71975, 1, 1, 1001, 1001
RFND, 34025023, 0.2, 25, 0, 0
IMU, 34034078, -0.0008728046, -0.0009715297, -0.0005729905, 0.2527368, -0.0611017, -9.787155, 0, 0, 37.72071, 1, 1, 1001, 1001
MAG, 34074005, 391, 509, 330, 0, 0, 0, 0, 0, 0, 1, 34073996
RFND, 34074036, 0.2, 25, 0, 0
BARO, 34074070, -0.4747209, 993.5468, 35.83, 0.213695, 34074, 0, 35
CTUN, 34074083, 0, 0, 0, 0.2624286, 0.07644998, 0.07644998, -0.47, 0, 0.19, 0, 0, 0
IMU, 34074137, -3.850459E-06, -0.001466526, 0.001175141, 0.2529202, -0.05562242, -9.797331, 0, 0, 37.72171, 1, 1, 1001, 1001
ATT, 34077103, 0, 0.82, 0, 0.71, 4.47, 4.49, 0, 1
RATE, 34077115, -3.731901, 0.01365067, -0.009014482, -3.220785, -0.07381526, -0.007067866, 0.02509013, 0.03864593, 2.399452E-06, -312.4466, 0.4312515, 0
NKF1, 34077123, 0.82, 0.71, 4.49, -0.01029737, -0.00858664, -0.00771473, 0, 0, 0, -0.07646536, -0.01, 0, 0
NKF2, 34077123, 0, 0, 0, 0, 0, 0, 0, 0, 0, 0, 0, 0, 0
NKF3, 34077123, 0, 0, 0, -0.01, 0, -0.01, 0, 0, 0, 0, 0
NKF4, 34077123, 0, 0, 0, 0, 0, 8.025364E-07, 0, 0, 0, 19, 229, 0, 0
NKF5, 34077123, 0, 0, 0, 0, 0.2, 0.13, 0, 0.19, 0.5, 3.642709E-05, 0.001101926, 0.002428209
NKQ1, 34077123, 0.9991441, 0.002175464, 0.01322419, 0.03913562
AHR2, 34077172, 0.79, 0.72, 4.47, -0.47, 0, 0, 0.9991944, 0.006728077, 0.006593263, 0.03901063
MOTB, 34077180, 1, 1, 0, 1
RCIN, 34077184, 0, 0, 0, 0, 0, 0, 0, 0, 0, 0, 0, 0, 0, 0
RCOU, 34077189, 1101, 1101, 1101, 1101, 0, 0, 0, 0, 0, 0, 0, 0, 0, 0
VIBE, 34077198, 0.02121845, 0.02173107, 0.03295364, 0, 0, 0
CTRL, 34077233, 0.008807295, 0.0002725763, 0.007593792, 0.000350947, 0.000134598
PRX, 34077266, 2, 0.63, 0, 0.65, 0, 3.6, 0, 2.39, 0, 0, 0, 0.63
IMU, 34114247, 0.0001881022, 0.0005098989, -0.001661756, 0.2586753, -0.05351597, -9.801729, 0, 0, 37.72268, 1, 1, 1001, 1001
RFND, 34123953, 0.2, 25, 0, 0
IMU, 34154073, -0.001824375, 0.001380275, 0.0003329139, 0.2628308, -0.0478294, -9.801124, 0, 0, 37.72367, 1, 1, 1001, 1001
MAG, 34174339, 390, 508, 327, 0, 0, 0, 0, 0, 0, 1, 34174331
RFND, 34174369, 0.2, 25, 0, 0
BARO, 34174403, -0.3051777, 993.5281, 35.83, 0.1094966, 34174, 0, 35
CTUN, 34174416, 0, 0, 0, 0.2624286, 0.07640542, 0.07640542, -0.3, 0, 0.19, 0, 0, 0
ATT, 34176526, 0, 0.82, 0, 0.71, 4.47, 4.48, 0, 1
RATE, 34176535, -3.729742, 0.005671427, -0.009130308, -3.229429, 0.03707796, -0.007391847, 0.02334209, -0.02702115, 0.000102633, -331.8359, 0.2825737, 0
NKF1, 34176544, 0.82, 0.71, 4.48, -0.009827706, -0.008789086, -0.008193479, 0, 0, 0, -0.07643813, -0.01, 0, 0
NKF2, 34176544, 0, 0, 0, 0, 0, 0, 0, 0, 0, 0, 0, 0, 0
NKF3, 34176544, 0, 0, 0, -0.01, 0, -0.01, 0, 0, 0, 0, 0
NKF4, 34176544, 0, 0, 0, 0, 0, 6.24219E-07, 0, 0, 0, 19, 229, 0, 0
NKF5, 34176544, 0, 0, 0, 0, 0.21, 0.13, 0, 0.19, 0.5, 3.648095E-05, 0.001017537, 0.00218948
NKQ1, 34176544, 0.9991449, 0.002173073, 0.01323937, 0.03911114
AHR2, 34176588, 0.79, 0.72, 4.47, -0.3, 0, 0, 0.9991953, 0.006721595, 0.006609287, 0.03898608
MOTB, 34176595, 1, 1, 0, 1
RCIN, 34176600, 0, 0, 0, 0, 0, 0, 0, 0, 0, 0, 0, 0, 0, 0
RCOU, 34176605, 1101, 1101, 1101, 1101, 0, 0, 0, 0, 0, 0, 0, 0, 0, 0
VIBE, 34176614, 0.01864943, 0.01827062, 0.03350529, 0, 0, 0
CTRL, 34176620, 0.008798535, 0.0002842546, 0.007616371, 0.0003661982, 0.0001268246
PRX, 34176650, 2, 0.63, 0, 0.65, 0, 0.69, 0, 2.39, 0, 0, 0, 0.63
IMU, 34194292, 4.708027E-05, -0.0007826604, -0.0008055904, 0.2625082, -0.06662974, -9.795917, 0, 0, 37.72468, 1, 1, 1001, 1001
RFND, 34224151, 0.2, 25, 0, 0
IMU, 34234040, 0.0006299773, 0.0007389448, 3.3819E-05, 0.2609824, -0.04778389, -9.818819, 0, 0, 37.72552, 1, 1, 1001, 1001
MAG, 34274003, 392, 514, 325, 0, 0, 0, 0, 0, 0, 1, 34273994
RFND, 34274035, 0.2, 25, 0, 0
BARO, 34274069, -0.2769205, 993.5251, 35.83, 0.1324556, 34274, 0, 35
CTUN, 34274082, 0, 0, 0, 0.2624286, 0.07621322, 0.07621322, -0.27, 0, 0.19, 0, 0, 0
IMU, 34274134, -0.001310894, 0.001121944, -0.001184158, 0.2597377, -0.04376683, -9.796897, 0, 0, 37.72626, 1, 1, 1001, 1001
ATT, 34276882, 0, 0.82, 0, 0.71, 4.47, 4.48, 0, 1
RATE, 34276892, -3.722771, -0.05350303, -0.008688119, -3.231334, 0.06054559, -0.008001073, 0.02334407, -0.06041307, 0.0001261929, -371.8978, 0.1448631, 0
NKF1, 34276901, 0.82, 0.71, 4.48, -0.009765543, -0.008744394, -0.009182662, 0, 0, 0, -0.07622238, -0.01, 0, 0
NKF2, 34276901, 0, 0, 0, 0, 0, 0, 0, 0, 0, 0, 0, 0, 0
NKF3, 34276901, 0, 0, 0, -0.01, 0, -0.01, 0, 0, 0, 0, 0
NKF4, 34276901, 0, 0, 0, 0, 0, 5.334828E-07, 0, 0, 0, 19, 229, 0, 0
NKF5, 34276901, 0, 0, 0, 0, 0.2, 0.13, 0, 0.19, 0.5, 3.628713E-05, 0.0009851977, 0.002132808
NKQ1, 34276901, 0.9991453, 0.002160027, 0.01324121, 0.03909769
AHR2, 34276948, 0.79, 0.72, 4.47, -0.27, 0, 0, 0.9991959, 0.006707356, 0.006613354, 0.03897271
MOTB, 34276955, 1, 1, 0, 1
RCIN, 34276959, 0, 0, 0, 0, 0, 0, 0, 0, 0, 0, 0, 0, 0, 0
RCOU, 34276964, 1101, 1101, 1101, 1101, 0, 0, 0, 0, 0, 0, 0, 0, 0, 0
VIBE, 34276973, 0.022932, 0.01993816, 0.03198458, 0, 0, 0
CTRL, 34276979, 0.008786154, 0.0002554646, 0.007609371, 0.0003807083, 0.0001244366
PRX, 34277011, 2, 0.63, 0, 0.66, 0, 0.69, 0, 2.38, 0, 0, 0, 0.63
IMU, 34314350, -0.0008964519, 0.0007470529, -0.0005872265, 0.2641628, -0.04744057, -9.797848, 0, 0, 37.72675, 1, 1, 1001, 1001
RFND, 34324104, 0.2, 25, 0, 0
IMU, 34354007, 6.455145E-05, -0.001466919, -0.00071469, 0.2540533, -0.05487428, -9.793459, 0, 0, 37.72685, 1, 1, 1001, 1001
MAG, 34374236, 396, 509, 326, 0, 0, 0, 0, 0, 0, 1, 34374227
RFND, 34374270, 0.2, 25, 0, 0
BARO, 34374304, -0.141286, 993.5101, 35.84, 0.4415186, 34374, 0, 35
CTUN, 34374317, 0, 0, 0, 0.2624286, 0.07623293, 0.07623293, -0.14, 0, 0.19, 0, 0, 0
ATT, 34377428, 0, 0.82, 0, 0.72, 4.47, 4.48, 0, 1
RATE, 34377439, -3.719779, -0.01599131, -0.008896889, -3.242123, 0.08913554, -0.008140976, 0.02492325, 0.05085008, 5.652137E-05, -342.5905, -0.7653236, 0
NKF1, 34377446, 0.82, 0.72, 4.48, -0.009909617, -0.00858009, -0.008459023, 0, 0, 0, -0.07625814, -0.01, 0, 0
NKF2, 34377446, 0, 0, 0, 0, 0, 0, 0, 0, 0, 0, 0, 0, 0
NKF3, 34377446, 0, 0, 0, -0.01, 0, -0.01, 0, 0, 0, 0, 0
NKF4, 34377446, 0, 0, 0, 0, 0, 4.801224E-07, 0, 0, 0, 19, 229, 0, 0
NKF5, 34377446, 0, 0, 0, 0, 0.2, 0.13, 0, 0.19, 0.5, 3.604583E-05, 0.001029425, 0.002283526
NKQ1, 34377446, 0.9991449, 0.002150402, 0.01326481, 0.03910407
AHR2, 34377490, 0.79, 0.73, 4.47, -0.14, 0, 0, 0.9991955, 0.006698844, 0.006640535, 0.03897903
MOTB, 34377498, 1, 1, 0, 1
RCIN, 34377502, 0, 0, 0, 0, 0, 0, 0, 0, 0, 0, 0, 0, 0, 0
RCOU, 34377508, 1101, 1101, 1101, 1101, 0, 0, 0, 0, 0, 0, 0, 0, 0, 0
VIBE, 34377517, 0.02130242, 0.02381068, 0.03165321, 0, 0, 0
CTRL, 34377523, 0.008774451, 0.0002478033, 0.007628659, 0.000354805, 0.0001161805
PRX, 34377554, 2, 0.63, 0, 0.66, 0, 3.6, 0, 2.38, 0, 0, 0, 0.63
IMU, 34394015, 0.0002313438, 0.0001631851, 9.172122E-05, 0.2525328, -0.05764239, -9.80456, 0, 0, 37.72695, 1, 1, 1001, 1001
RFND, 34424022, 0.2, 25, 0, 0
IMU, 34434424, 0.000616799, -0.0008996242, 0.0006452797, 0.2604524, -0.06806943, -9.802061, 0, 0, 37.72734, 1, 1, 1001, 1001
MAG, 34474066, 389, 512, 326, 0, 0, 0, 0, 0, 0, 1, 34474058
RFND, 34474100, 0.2, 25, 0, 0
BARO, 34474134, -0.1299831, 993.5087, 35.84, 0.7523479, 34474, 0, 35
CTUN, 34474148, 0, 0, 0, 0.2624286, 0.07611921, 0.07611921, -0.12, 0, 0.19, 0, 0, 0
IMU, 34474253, 0.0008374482, 0.0003250434, -0.0004376106, 0.2694342, -0.05501653, -9.810487, 0, 0, 37.72779, 1, 1, 1001, 1001
ATT, 34476459, 0, 0.83, 0, 0.71, 4.47, 4.48, 0, 1
RATE, 34476471, -3.735151, 0.05191681, -0.008856061, -3.236675, 0.00429396, -0.007480688, 0.02435446, -0.05706152, -2.257867E-05, -373.41, 2.049065, 0
NKF1, 34476479, 0.83, 0.71, 4.48, -0.009699216, -0.009228745, -0.00922, 0, 0, 0, -0.0761467, -0.01, 0, 0
NKF2, 34476479, 0, 0, 0, 0, 0, 0, 0, 0, 0, 0, 0, 0, 0
NKF3, 34476479, 0, 0, 0, -0.01, 0, -0.01, 0, 0, 0, 0, 0
NKF4, 34476479, 0, 0, 0, 0, 0, 4.720223E-07, 0, 0, 0, 19, 229, 0, 0
NKF5, 34476479, 0, 0, 0, 0, 0.2, 0.13, 0, 0.19, 0.5, 3.605202E-05, 0.0008910039, 0.001890699
NKQ1, 34476479, 0.9991441, 0.002182994, 0.01325248, 0.0391253
AHR2, 34476523, 0.8, 0.72, 4.47, -0.12, 0, 0, 0.9991946, 0.006731323, 0.006631386, 0.03900006
MOTB, 34476531, 1, 1, 0, 1
RCIN, 34476535, 0, 0, 0, 0, 0, 0, 0, 0, 0, 0, 0, 0, 0, 0
RCOU, 34476540, 1101, 1101, 1101, 1101, 0, 0, 0, 0, 0, 0, 0, 0, 0, 0
VIBE, 34476549, 0.01891227, 0.02077377, 0.03225157, 0, 0, 0
CTRL, 34476555, 0.008806784, 0.0002198112, 0.007626059, 0.0003180392, 9.718702E-05
PRX, 34476586, 2, 0.63, 0, 0.65, 0, 0.64, 0, 2.39, 0, 0, 0, 0.63
IMU, 34514201, 0.0004228138, 0.001014239, -0.0002528153, 0.2533951, -0.05629968, -9.804764, 0, 0, 37.72747, 1, 1, 1001, 1001
RFND, 34523925, 0.2, 25, 0, 0
IMU, 34554130, -0.0001476565, -0.001531747, -0.000270343, 0.2610743, -0.05063468, -9.805094, 0, 0, 37.72705, 1, 1, 1001, 1001
MAG, 34574250, 396, 513, 324, 0, 0, 0, 0, 0, 0, 1, 34574241
RFND, 34574284, 0.2, 25, 0, 0
BARO, 34574316, -0.1921489, 993.5156, 35.84, 0.7611783, 34574, 0, 35
CTUN, 34574330, 0, 0, 0, 0.2624286, 0.07616758, 0.07616758, -0.19, 0, 0.19, 0, 0, 0
ATT, 34576466, 0, 0.83, 0, 0.71, 4.47, 4.48, 0, 1
RATE, 34576475, -3.74122, -0.01940769, -0.008595893, -3.225972, -0.04431635, -0.007664492, 0.02461559, -0.066397, 0.0001289124, -382.7915, -1.545525, 0
NKF1, 34576483, 0.83, 0.71, 4.48, -0.009738462, -0.009019682, -0.009451642, 0, 0, 0, -0.07619579, -0.01, 0, 0
NKF2, 34576483, 0, 0, 0, 0, 0, 0, 0, 0, 0, 0, 0, 0, 0
NKF3, 34576483, 0, 0, 0, -0.01, -0.01, -0.01, 0, 0, 0, 0, 0
NKF4, 34576483, 0, 0, 0, 0, 0, 4.845782E-07, 0, 0, 0, 19, 229, 0, 0
NKF5, 34576483, 0, 0, 0, 0, 0.2, 0.13, 0, 0.19, 0.5, 3.578752E-05, 0.0009173637, 0.001988009
NKQ1, 34576483, 0.9991454, 0.002196644, 0.01323233, 0.03909736
AHR2, 34576527, 0.8, 0.72, 4.47, -0.19, 0, 0, 0.9991957, 0.006743053, 0.006613714, 0.03897211
MOTB, 34576535, 1, 1, 0, 1
RCIN, 34576539, 0, 0, 0, 0, 0, 0, 0, 0, 0, 0, 0, 0, 0, 0
RCOU, 34576545, 1101, 1101, 1101, 1101, 0, 0, 0, 0, 0, 0, 0, 0, 0, 0
VIBE, 34576553, 0.01957278, 0.01963802, 0.03215662, 0, 0, 0
CTRL, 34576560, 0.008825979, 0.0001983268, 0.007610596, 0.0002863898, 9.642149E-05
PRX, 34576591, 2, 0.63, 0, 0.65, 0, 0.64, 0, 2.41, 0, 0, 0, 0.63
IMU, 34594066, -0.0007096828, -0.002650754, -0.0008195999, 0.254633, -0.04613831, -9.789591, 0, 0, 37.72767, 1, 1, 1001, 1001
RFND, 34623921, 0.2, 25, 0, 0
IMU, 34634565, 2.432153E-05, -0.001005034, -0.001304338, 0.2484265, -0.05426303, -9.80025, 0, 0, 37.72814, 1, 1, 1001, 1001
MAG, 34674064, 393, 506, 329, 0, 0, 0, 0, 0, 0, 1, 34674056
RFND, 34674100, 0.2, 25, 0, 0
BARO, 34674132, -0.4012522, 993.5383, 35.84, 0.3938347, 34674, 0, 35
CTUN, 34674145, 0, 0, 0, 0.2624286, 0.07621861, 0.07621861, -0.4, 0, 0.19, 0, 0, 0
IMU, 34674251, -0.0005199666, 0.0009287383, -0.000626998, 0.2557961, -0.05059543, -9.790201, 0, 0, 37.72856, 1, 1, 1001, 1001
ATT, 34676440, 0, 0.82, 0, 0.71, 4.47, 4.48, 0, 1
RATE, 34676450, -3.72653, -0.01305662, -0.00884873, -3.213453, 0.052799, -0.007809725, 0.02364935, -0.03900963, 0.0001752923, -380.0598, -0.488472, 0
NKF1, 34676458, 0.82, 0.71, 4.48, -0.009831388, -0.008908793, -0.009384193, 0, 0, 0, -0.07624676, -0.01, 0, 0
NKF2, 34676458, 0, 0, 0, 0, 0, 0, 0, 0, 0, 0, 0, 0, 0
NKF3, 34676458, 0, 0, 0, -0.01, -0.01, -0.01, 0, 0, 0, 0, 0
NKF4, 34676458, 0, 0, 0, 0, 0, 5.161472E-07, 0, 0, 0, 19, 229, 0, 0
NKF5, 34676458, 0, 0, 0, 0, 0.21, 0.13, 0, 0.19, 0.5, 3.580854E-05, 0.0008138327, 0.001696635
NKQ1, 34676458, 0.9991469, 0.002168716, 0.01320758, 0.03906918
AHR2, 34676502, 0.79, 0.72, 4.46, -0.4, 0, 0, 0.9991971, 0.006712941, 0.006592763, 0.0389442
MOTB, 34676510, 1, 1, 0, 1
RCIN, 34676514, 0, 0, 0, 0, 0, 0, 0, 0, 0, 0, 0, 0, 0, 0
RCOU, 34676519, 1101, 1101, 1101, 1101, 0, 0, 0, 0, 0, 0, 0, 0, 0, 0
VIBE, 34676528, 0.02014686, 0.01841578, 0.03126661, 0, 0, 0
CTRL, 34676535, 0.00879515, 0.0001762815, 0.007564819, 0.0003041555, 0.000123386
PRX, 34676565, 2, 0.63, 0, 0.66, 0, 3.6, 0, 2.38, 0, 0, 0, 0.63
IMU, 34714218, -0.0002853518, -0.0006922728, -0.0001194789, 0.2578618, -0.05539702, -9.796542, 0, 0, 37.72917, 1, 1, 1001, 1001
RFND, 34723922, 0.2, 25, 0, 0
IMU, 34754014, -0.0001387006, -0.0006346187, 0.000667738, 0.2547235, -0.0663266, -9.802061, 0, 0, 37.72982, 1, 1, 1001, 1001
MAG, 34774294, 396, 503, 333, 0, 0, 0, 0, 0, 0, 1, 34774286
RFND, 34774328, 0.2, 25, 0, 0
BARO, 34774360, -0.4577666, 993.545, 35.84, -0.2825719, 34774, 0, 35
CTUN, 34774373, 0, 0, 0, 0.2624286, 0.07618757, 0.07618757, -0.45, 0, 0.19, 0, 0, 0
ATT, 34777155, 0, 0.82, 0, 0.71, 4.47, 4.48, 0, 1
RATE, 34777188, -3.733909, 0.0626265, -0.008975104, -3.203639, 0.006268682, -0.007955514, 0.02293846, -0.02179452, 9.069168E-05, -383.465, -0.4375458, 0
NKF1, 34777197, 0.82, 0.71, 4.48, -0.009686534, -0.009007482, -0.009468272, 0, 0, 0, -0.0762064, -0.01, 0, 0
NKF2, 34777197, 0, 0, 0, 0, 0, 0, 0, 0, 0, 0, 0, 0, 0
NKF3, 34777197, 0, 0, 0, -0.01, -0.01, -0.01, 0, 0, 0, 0, 0
NKF4, 34777197, 0, 0, 0, 0, 0, 5.684341E-07, 0, 0, 0, 19, 229, 0, 0
NKF5, 34777197, 0, 0, 0, 0, 0.2, 0.13, 0, 0.19, 0.5, 3.546452E-05, 0.0008163302, 0.001717564
NKQ1, 34777197, 0.9991472, 0.002182852, 0.01318914, 0.03906866
AHR2, 34777245, 0.79, 0.72, 4.46, -0.45, 0, 0, 0.9991971, 0.006724981, 0.006579692, 0.03894364
MOTB, 34777253, 1, 1, 0, 1
RCIN, 34777258, 0, 0, 0, 0, 0, 0, 0, 0, 0, 0, 0, 0, 0, 0
RCOU, 34777263, 1101, 1101, 1101, 1101, 0, 0, 0, 0, 0, 0, 0, 0, 0, 0
VIBE, 34777271, 0.02137838, 0.01879737, 0.03068883, 0, 0, 0
CTRL, 34777276, 0.008807602, 0.0001600916, 0.007543049, 0.0002849282, 0.0001246053
PRX, 34777307, 2, 0.63, 0, 0.65, 0, 3.6, 0, 2.4, 0, 0, 0, 0.63
IMU, 34794075, 0.0005859799, 0.0005368896, 0.0001432944, 0.2605942, -0.05158404, -9.780713, 0, 0, 37.73047, 1, 1, 1001, 1001
RFND, 34823958, 0.2, 25, 0, 0
IMU, 34834333, -0.001111358, 0.001944421, -0.0001749744, 0.2564096, -0.05197186, -9.796628, 0, 0, 37.7303, 1, 1, 1001, 1001
MAG, 34874099, 389, 508, 329, 0, 0, 0, 0, 0, 0, 1, 34874091
RFND, 34874133, 0.2, 25, 0, 0
BARO, 34874165, -0.4012522, 993.5383, 35.84, -0.8583122, 34874, 0, 35
CTUN, 34874179, 0, 0, 0, 0.2624286, 0.0763039, 0.0763039, -0.4, 0, 0.19, 0, 0, 0
DU32, 34874201, 7, 50389208
IMU, 34874343, 5.429758E-05, 0.0002969296, 0.000240493, 0.261477, -0.05018769, -9.818252, 0, 0, 37.73062, 1, 1, 1001, 1001
ATT, 34876495, 0, 0.83, 0, 0.71, 4.47, 4.48, 0, 1
RATE, 34876505, -3.741081, 0.00859587, -0.008757122, -3.221211, 0.01170376, -0.00746247, 0.02435815, 0.01711491, 8.781432E-05, -381.722, 2.453899, 0
NKF1, 34876513, 0.83, 0.71, 4.48, -0.009477718, -0.008594097, -0.009425235, 0, 0, 0, -0.07632267, -0.01, 0, 0
NKF2, 34876513, 0, 0, 0, 0, 0, 0, 0, 0, 0, 0, 0, 0, 0
NKF3, 34876513, 0, 0, 0, -0.01, -0.01, -0.01, 0, 0, 0, 0, 0
NKF4, 34876513, 0, 0, 0, 0, 0, 6.176019E-07, 0, 0, 0, 19, 229, 0, 0
NKF5, 34876513, 0, 0, 0, 0, 0.21, 0.13, 0, 0.19, 0.5, 3.572748E-05, 0.0007518072, 0.001548419
NKQ1, 34876513, 0.9991466, 0.002194795, 0.01322511, 0.0390689
AHR2, 34876559, 0.8, 0.72, 4.46, -0.4, 0, 0, 0.9991968, 0.006733444, 0.006620625, 0.0389436
MOTB, 34876567, 1, 1, 0, 1
RCIN, 34876571, 0, 0, 0, 0, 0, 0, 0, 0, 0, 0, 0, 0, 0, 0
RCOU, 34876577, 1101, 1101, 1101, 1101, 0, 0, 0, 0, 0, 0, 0, 0, 0, 0
VIBE, 34876585, 0.01948822, 0.02119198, 0.03231465, 0, 0, 0
CTRL, 34876591, 0.008825723, 0.0001673681, 0.007590813, 0.0002709925, 0.0001141375
PRX, 34876624, 2, 0.63, 0, 0.66, 0, 3.6, 0, 2.4, 0, 0, 0, 0.63
IMU, 34914398, -0.0009007435, -0.000437881, 0.0002781459, 0.2548749, -0.0460623, -9.788182, 0, 0, 37.73067, 1, 1, 1001, 1001
RFND, 34923989, 0.2, 25, 0, 0
IMU, 34954090, -0.0006643501, -0.0001307874, 0.000705564, 0.2535868, -0.05410696, -9.791691, 0, 0, 37.73089, 1, 1, 1001, 1001
MAG, 34974292, 395, 512, 327, 0, 0, 0, 0, 0, 0, 1, 34974283
RFND, 34974326, 0.2, 25, 0, 0
BARO, 34974359, -0.3842978, 993.5366, 35.84, -0.8300551, 34974, 0, 35
CTUN, 34974372, 0, 0, 0, 0.2624286, 0.07621359, 0.07621359, -0.38, 0, 0.19, 0, 0, 0
ATT, 34976450, 0, 0.82, 0, 0.71, 4.47, 4.48, 0, 1
RATE, 34976460, -3.731608, 0.02449069, -0.008789058, -3.227273, 0.07098161, -0.008059979, 0.02285413, -0.03284672, 6.779169E-05, -350.2178, -1.606178, 0
NKF1, 34976468, 0.82, 0.71, 4.48, -0.009572409, -0.008510201, -0.008647353, 0, 0, 0, -0.07623088, -0.01, 0, 0
NKF2, 34976468, 0, 0, 0, 0, 0, 0, 0, 0, 0, 0, 0, 0, 0
NKF3, 34976468, 0, 0, 0, -0.02, -0.01, -0.01, 0, 0, 0, 0, 0
NKF4, 34976468, 0, 0, 0, 0, 0, 6.989902E-07, 0, 0, 0, 19, 229, 0, 0
NKF5, 34976468, 0, 0, 0, 0, 0.2, 0.13, 0, 0.19, 0.5, 3.53541E-05, 0.0007382782, 0.001519828
NKQ1, 34976468, 0.9991465, 0.002177631, 0.01323516, 0.03906929
AHR2, 34977475, 0.79, 0.72, 4.46, -0.38, 0, 0, 0.9991968, 0.006711781, 0.006635101, 0.03894404
MOTB, 34977488, 1, 1, 0, 1
RCIN, 34977492, 0, 0, 0, 0, 0, 0, 0, 0, 0, 0, 0, 0, 0, 0
RCOU, 34977498, 1101, 1101, 1101, 1101, 0, 0, 0, 0, 0, 0, 0, 0, 0, 0
VIBE, 34977506, 0.02254662, 0.0177323, 0.03843712, 0, 0, 0
CTRL, 34977513, 0.008804546, 0.0001830289, 0.007597699, 0.000257724, 0.0001015031
PRX, 34977545, 2, 0.63, 0, 0.65, 0, 3.6, 0, 2.4, 0, 0, 0, 0.63
IMU, 34994018, 0.0006189565, -0.00020824, 0.001004342, 0.2518434, -0.05697112, -9.776076, 0, 0, 37.73096, 1, 1, 1001, 1001
RFND, 35024042, 0.2, 25, 0, 0
IMU, 35034253, 0.0002948445, -0.001017959, 0.0006288557, 0.2575162, -0.05659058, -9.815861, 0, 0, 37.73109, 1, 1, 1001, 1001
MAG, 35074074, 392, 511, 323, 0, 0, 0, 0, 0, 0, 1, 35074066
RFND, 35074108, 0.2, 25, 0, 0
BARO, 35074140, -0.4012522, 993.5383, 35.85, -0.3249577, 35074, 0, 35
CTUN, 35074153, 0, 0, 0, 0.2624286, 0.07620908, 0.07620908, -0.4, 0, 0.19, 0, 0, 0
IMU, 35074256, -0.000371144, -0.001412911, -0.0003181049, 0.2550789, -0.04563434, -9.824788, 0, 0, 37.7311, 1, 1, 1001, 1001
ATT, 35076543, 0, 0.83, 0, 0.71, 4.47, 4.48, 0, 1
RATE, 35076554, -3.736383, 0.009178979, -0.008837469, -3.210647, -0.06933444, -0.007364674, 0.02342258, -0.02586644, 6.169238E-05, -372.8456, 2.916336, 0
NKF1, 35076561, 0.83, 0.71, 4.48, -0.009703748, -0.00810408, -0.009206063, 0, 0, 0, -0.07623655, -0.01, 0, 0
NKF2, 35076561, 0, 0, 0, 0, 0, 0, 0, 0, 0, 0, 0, 0, 0
NKF3, 35076561, 0, 0, 0, -0.02, -0.01, -0.01, 0, 0, 0, 0, 0
NKF4, 35076561, 0, 0, 0, 0, 0, 7.718613E-07, 0, 0, 0, 19, 229, 0, 0
NKF5, 35076561, 0, 0, 0, 0, 0.2, 0.13, 0, 0.19, 0.5, 3.50542E-05, 0.0008184229, 0.001762884
NKQ1, 35076561, 0.9991466, 0.002187918, 0.01320356, 0.03907692
AHR2, 35076605, 0.79, 0.72, 4.46, -0.4, 0, 0, 0.9991967, 0.006717781, 0.006606923, 0.03895172
MOTB, 35076613, 1, 1, 0, 1
RCIN, 35076617, 0, 0, 0, 0, 0, 0, 0, 0, 0, 0, 0, 0, 0, 0
RCOU, 35076623, 1101, 1101, 1101, 1101, 0, 0, 0, 0, 0, 0, 0, 0, 0, 0
VIBE, 35076631, 0.02252955, 0.02078179, 0.03380685, 0, 0, 0
CTRL, 35076637, 0.008813676, 0.0001813495, 0.007566892, 0.0002298102, 8.804601E-05
PRX, 35076788, 2, 0.63, 0, 0.65, 0, 3.6, 0, 2.38, 0, 0, 0, 0.63
IMU, 35114359, -0.0009802033, 0.001283541, -0.0001384908, 0.2489644, -0.0579291, -9.813232, 0, 0, 37.73111, 1, 1, 1001, 1001
RFND, 35123941, 0.2, 25, 0, 0
IMU, 35154031, 0.000449876, -0.00114764, -0.0006678383, 0.2665551, -0.0535243, -9.801326, 0, 0, 37.73096, 1, 1, 1001, 1001
MAG, 35174174, 396, 512, 326, 0, 0, 0, 0, 0, 0, 1, 35174165
RFND, 35174210, 0.2, 25, 0, 0
BARO, 35174315, -0.4803723, 993.5472, 35.85, 0.02472506, 35174, 0, 35
CTUN, 35174329, 0, 0, 0, 0.2624286, 0.0762286, 0.0762286, -0.48, 0, 0.19, 0, 0, 1
ATT, 35176467, 0, 0.83, 0, 0.71, 4.46, 4.48, 0, 1
RATE, 35176477, -3.742051, 0.02481058, -0.008937452, -3.205278, 0.04385962, -0.008151854, 0.02259647, -0.04227351, 0.0001756774, -419.5138, 1.332569, 0
NKF1, 35176485, 0.83, 0.71, 4.48, -0.009578805, -0.008131979, -0.01035837, 0, 0, 0, -0.07625967, -0.01, 0, 0
NKF2, 35176485, 0, 0, 0, 0, 0, 0, 0, 0, 0, 0, 0, 0, 0
NKF3, 35176485, 0, 0, 0, -0.02, -0.01, -0.01, 0, 0, 0, 0, 0
NKF4, 35176485, 0, 0, 0, 0, 0, 8.67954E-07, 0, 0, 0, 19, 229, 0, 0
NKF5, 35176485, 0, 0, 0, 0, 0.21, 0.13, 0, 0.19, 0.5, 3.519528E-05, 0.0006720542, 0.001359952
NKQ1, 35176485, 0.9991478, 0.002199679, 0.01319269, 0.03904793
AHR2, 35176530, 0.79, 0.72, 4.46, -0.48, 0, 0, 0.9991978, 0.006725442, 0.006597881, 0.0389227
MOTB, 35176537, 1, 1, 0, 1
RCIN, 35176541, 0, 0, 0, 0, 0, 0, 0, 0, 0, 0, 0, 0, 0, 0
RCOU, 35176546, 1101, 1101, 1101, 1101, 0, 0, 0, 0, 0, 0, 0, 0, 0, 0
VIBE, 35176555, 0.01889269, 0.02138459, 0.03071651, 0, 0, 0
CTRL, 35176562, 0.008826662, 0.0001940725, 0.007538252, 0.0002364658, 0.0001003533
PRX, 35176593, 2, 0.63, 0, 0.66, 0, 3.6, 0, 2.4, 0, 0, 0, 0.63
IMU, 35194000, 0.0005812373, 0.001791838, -0.0003393838, 0.2648166, -0.05337168, -9.790518, 0, 0, 37.73088, 1, 1, 1001, 1001
RFND, 35224222, 0.2, 25, 0, 0
IMU, 35234298, -0.0002495867, -0.00160077, -3.232308E-06, 0.2516788, -0.0513849, -9.807618, 0, 0, 37.73105, 1, 1, 1001, 1001
EV, 35246203, 57
MAG, 35274255, 393, 512, 327, 0, 0, 0, 0, 0, 0, 1, 35274247
RFND, 35274291, 0.2, 25, 0, 0
BARO, 35274322, -0.3899493, 993.537, 35.85, -0.02472503, 35274, 0, 35
CTUN, 35274335, 0, 0, 0, 0.2624286, 0.07632474, 0.07632474, -0.38, 0, 0.19, 0, 0, 0
IMU, 35274439, -0.0003397625, -0.0005433817, -0.000500019, 0.2505732, -0.06414694, -9.787399, 0, 0, 37.73127, 1, 1, 1001, 1001
ATT, 35276601, 0, 0.83, 0, 0.7, 4.46, 4.47, 0, 1
RATE, 35276609, -3.740018, -0.0189889, -0.008671053, -3.192781, -0.02334512, -0.007679688, 0.02314004, -0.002035584, 0.0002141775, -393.2057, -1.295853, 0
NKF1, 35276617, 0.83, 0.7, 4.47, -0.009520627, -0.00838173, -0.009708784, 0, 0, 0, -0.07634417, -0.01, 0, 0
NKF2, 35276617, 0, 0, 0, 0, 0, 0, 0, 0, 0, 0, 0, 0, 0
NKF3, 35276617, 0, 0, 0, -0.02, -0.01, -0.01, 0, 0, 0, 0, 0
NKF4, 35276617, 0, 0, 0, 0, 0, 9.661414E-07, 0, 0, 0, 19, 229, 0, 0
NKF5, 35276617, 0, 0, 0, 0, 0.2, 0.13, 0, 0.19, 0.5, 3.479633E-05, 0.0007162818, 0.001502189
NKQ1, 35276617, 0.9991491, 0.002195525, 0.01316893, 0.03902335
AHR2, 35276780, 0.79, 0.72, 4.46, -0.38, 0, 0, 0.999199, 0.006716864, 0.00657629, 0.0388983
MOTB, 35276790, 1, 1, 0, 1
RCIN, 35276794, 0, 0, 0, 0, 0, 0, 0, 0, 0, 0, 0, 0, 0, 0
RCOU, 35276800, 1107, 1107, 1107, 1107, 0, 0, 0, 0, 0, 0, 0, 0, 0, 0
VIBE, 35276808, 0.02031191, 0.01894106, 0.03200958, 0, 0, 0
CTRL, 35276814, 0.008826649, 0.000174682, 0.007526746, 0.0002590481, 0.0001264538
PRX, 35276844, 2, 0.63, 0, 0.66, 0, 3.6, 0, 2.39, 0, 0, 0, 0.63
IMU, 35314028, -0.0009197849, -0.0008361565, 0.0001446099, 0.2681829, -0.05594827, -9.778282, 0, 0, 37.73182, 1, 1, 1001, 1001
RFND, 35323903, 0.2, 25, 0, 0
IMU, 35354416, -0.0008963109, 0.00171992, -8.796947E-05, 0.2561308, -0.04687493, -9.777096, 0, 0, 37.73244, 1, 1, 1001, 1001
MAG, 35374217, 392, 508, 324, 0, 0, 0, 0, 0, 0, 1, 35374208
RFND, 35374251, 0.2, 25, 0, 0
BARO, 35374283, -0.4351608, 993.5421, 35.85, -0.1289234, 35374, 0, 35
CTUN, 35374296, 0, 0, 0, 0.2624286, 0.07633453, 0.07633453, -0.43, 0, 0.19, 0, 0, 0
ATT, 35376537, 0, 0.82, 0, 0.7, 4.46, 4.47, 0, 1
RATE, 35376549, -3.730721, -0.0267929, -0.008568592, -3.178791, -0.09039312, -0.006924619, 0.02298057, 0.02066872, 7.955207E-05, -337.8792, 0.7142067, 0
NKF1, 35376557, 0.82, 0.7, 4.47, -0.008932019, -0.008348594, -0.008342694, 0, 0, 0, -0.07636803, -0.01, 0, 0
NKF2, 35376557, 0, 0, 0, 0, 0, 0, 0, 0, 0, 0, 0, 0, 0
NKF3, 35376557, 0, 0, 0, -0.02, -0.01, -0.01, 0, 0, 0, 0, 0
NKF4, 35376557, 0, 0, 0, 0, 0, 1.063051E-06, 0, 0, 0, 19, 229, 0, 0
NKF5, 35376557, 0, 0, 0, 0, 0.21, 0.13, 0, 0.19, 0.5, 3.502044E-05, 0.0006218578, 0.001247258
NKQ1, 35376557, 0.9991494, 0.002177799, 0.01314161, 0.03902736
AHR2, 35376602, 0.79, 0.72, 4.46, -0.43, 0, 0, 0.9991992, 0.006694429, 0.006551725, 0.03890259
MOTB, 35376609, 1, 1, 0, 1
RCIN, 35376613, 0, 0, 0, 0, 0, 0, 0, 0, 0, 0, 0, 0, 0, 0
RCOU, 35376618, 1131, 1131, 1131, 1131, 0, 0, 0, 0, 0, 0, 0, 0, 0, 0
VIBE, 35376627, 0.02019978, 0.02012815, 0.03374124, 0, 0, 0
CTRL, 35376634, 0.008808469, 0.0001678026, 0.00750175, 0.0003056296, 0.0001253623
PRX, 35376780, 2, 0.63, 0, 0.65, 0, 3.6, 0, 2.39, 0, 0, 0, 0.63
IMU, 35394077, -0.0004222132, 0.0004278376, -0.0005148132, 0.260115, -0.06547234, -9.783937, 0, 0, 37.73336, 1, 1, 1001, 1001
RFND, 35424992, 0.2, 25, 0, 0
IMU, 35434247, -0.0003420456, -0.001830837, 0.0003911032, 0.2522142, -0.06438974, -9.785508, 0, 0, 37.73412, 1, 1, 1001, 1001
MAG, 35474031, 393, 506, 327, 0, 0, 0, 0, 0, 0, 1, 35474022
RFND, 35474064, 0.2, 25, 0, 0
BARO, 35474096, -0.4690695, 993.5461, 35.86, -0.06711084, 35474, 0, 35
CTUN, 35474109, 0, 0, 0, 0.2624286, 0.0762075, 0.0762075, -0.46, 0, 0.19, 0, 0, 0
IMU, 35474214, -0.0003517404, -0.000628054, 0.0005952677, 0.2608113, -0.05766965, -9.820108, 0, 0, 37.73505, 1, 1, 1001, 1001
ATT, 35476459, 0, 0.82, 0, 0.7, 4.46, 4.48, 0, 1
RATE, 35476469, -3.722351, -0.04529765, -0.008385289, -3.164875, -0.04993401, -0.007118503, 0.02285375, 0.05655503, 2.135526E-05, -340.5264, 2.218628, 0
NKF1, 35476476, 0.82, 0.7, 4.48, -0.008905812, -0.008896512, -0.008408058, 0, 0, 0, -0.07623286, -0.01, 0, 0
NKF2, 35476476, 0, 0, 0, 0, 0, 0, 0, 0, 0, 0, 0, 0, 0
NKF3, 35476476, 0, 0, 0, -0.02, -0.01, -0.01, 0, 0, 0, 0, 0
NKF4, 35476476, 0, 0, 0, 0, 0, 1.184615E-06, 0, 0, 0, 19, 229, 0, 0
NKF5, 35476476, 0, 0, 0, 0, 0.2, 0.13, 0, 0.19, 0.5, 3.454129E-05, 0.000642804, 0.001315036
NKQ1, 35476476, 0.999149, 0.002162389, 0.0131159, 0.03904884
AHR2, 35476520, 0.79, 0.71, 4.46, -0.46, 0, 0, 0.9991986, 0.006677332, 0.006529911, 0.03892438
MOTB, 35476527, 1, 1, 0, 1
RCIN, 35476532, 0, 0, 0, 0, 0, 0, 0, 0, 0, 0, 0, 0, 0, 0
RCOU, 35476537, 1155, 1155, 1155, 1155, 0, 0, 0, 0, 0, 0, 0, 0, 0, 0
VIBE, 35476546, 0.02007616, 0.01837906, 0.0354601, 0, 0, 0
CTRL, 35476552, 0.008794351, 0.0001645828, 0.007472302, 0.0002781115, 0.000108205
PRX, 35476584, 2, 0.63, 0, 0.66, 0, 3.6, 0, 2.4, 0, 0, 0, 0.63
IMU, 35514142, 0.0002044865, -0.001505681, 4.252681E-05, 0.2595174, -0.05469514, -9.783321, 0, 0, 37.73608, 1, 1, 1001, 1001
RFND, 35524270, 0.2, 25, 0, 0
IMU, 35554296, -0.0008139581, -0.0001925533, -0.0003261396, 0.2655842, -0.05949602, -9.797921, 0, 0, 37.73675, 1, 1, 1001, 1001
MAG, 35573983, 391, 508, 324, 0, 0, 0, 0, 0, 0, 1, 35573975
RFND, 35574063, 0.2, 25, 0, 0
BARO, 35574097, -0.3956007, 993.5377, 35.86, -0.01766078, 35574, 0, 35
CTUN, 35574111, 0, 0, 0, 0.2624286, 0.07622115, 0.07622115, -0.39, 0, 0.19, 0, 0, 0
ATT, 35576471, 0, 0.82, 0, 0.69, 4.46, 4.47, 0, 1
RATE, 35576483, -3.725693, 0.02494254, -0.008854896, -3.139543, -0.08692435, -0.006986033, 0.02267103, -0.03198975, 0.0001261228, -333.4866, 1.067924, 0
NKF1, 35576490, 0.82, 0.69, 4.47, -0.007952509, -0.008804115, -0.008234236, 0, 0, 0, -0.0762457, -0.01, 0, 0
NKF2, 35576490, 0, 0, 0, 0, 0, 0, 0, 0, 0, 0, 0, 0, 0
NKF3, 35576490, 0, 0, 0, -0.02, -0.01, -0.01, 0, 0, 0, 0, 0
NKF4, 35576490, 0, 0, 0, 0, 0, 1.288295E-06, 0, 0, 0, 19, 229, 0, 0
NKF5, 35576490, 0, 0, 0, 0, 0.21, 0.13, 0, 0.19, 0.5, 3.485684E-05, 0.0005852449, 0.001179153
NKQ1, 35576490, 0.9991502, 0.002173275, 0.01306472, 0.03903246
AHR2, 35576534, 0.79, 0.71, 4.46, -0.39, 0, 0, 0.9991994, 0.006690682, 0.006483979, 0.03890829
MOTB, 35576542, 1, 1, 0, 1
RCIN, 35576546, 0, 0, 0, 0, 0, 0, 0, 0, 0, 0, 0, 0, 0, 0
RCOU, 35576552, 1179, 1179, 1179, 1179, 0, 0, 0, 0, 0, 0, 0, 0, 0, 0
VIBE, 35576560, 0.03611278, 0.03029342, 0.04070083, 0, 0, 0
CTRL, 35576567, 0.008789738, 0.0001927501, 0.007412982, 0.0002528953, 9.479492E-05
PRX, 35576598, 2, 0.63, 0, 0.66, 0, 3.6, 0, 2.4, 0, 0, 0, 0.63
IMU, 35593987, 0.001368314, 0.0003489567, 0.00024253, 0.2576966, -0.05880106, -9.811228, 0, 0, 37.7369, 1, 1, 1001, 1001
RFND, 35624160, 0.2, 25, 0, 0
IMU, 35634874, -0.0004540687, -8.566402E-05, 0.00220024, 0.2537842, -0.04895544, -9.788441, 0, 0, 37.73705, 1, 1, 1001, 1001
MAG, 35674076, 393, 510, 319, 0, 0, 0, 0, 0, 0, 1, 35674068
RFND, 35674111, 0.2, 25, 0, 0
BARO, 35674145, -0.4408123, 993.543, 35.86, -0.0300233, 35674, 0, 35
CTUN, 35674157, 0, 0, 0, 0.2624286, 0.07602838, 0.07602838, -0.44, 0, 0.19, 0, 0, 0
IMU, 35674308, 0.001746915, 0.003074804, -0.006241584, 0.3351525, -0.07332776, -9.765209, 0, 0, 37.73731, 1, 1, 1001, 1001
ATT, 35676793, 0, 0.83, 0, 0.7, 4.47, 4.49, 0, 1
RATE, 35676805, -3.735864, 0.1473418, -0.009668524, -3.183972, 0.237632, -0.008794563, 0.0230497, -0.0899432, -0.0001363673, -279.3228, -2.411461, 0
NKF1, 35676813, 0.83, 0.7, 4.49, -0.007356295, -0.007412032, -0.006896859, 0, 0, 0, -0.0760506, -0.01, 0, 0
NKF2, 35676813, 0, 0, 0, 0, 0, 0, 0, 0, 0, 0, 0, 0, 0
NKF3, 35676813, 0, 0, 0, -0.02, -0.01, -0.01, 0, 0, 0, 0, 0
NKF4, 35676813, 0, 0, 0, 0, 0, 1.438091E-06, 0, 0, 0, 19, 229, 0, 0
NKF5, 35676813, 0, 0, 0, 0, 0.2, 0.13, 0, 0.19, 0.5, 3.43899E-05, 0.0005808657, 0.001170247
NKQ1, 35676813, 0.9991449, 0.002188687, 0.01314933, 0.03914104
AHR2, 35676859, 0.79, 0.72, 4.47, -0.44, 0, 0, 0.9991944, 0.006704458, 0.006574793, 0.03901644
MOTB, 35676867, 1, 1, 0, 1
RCIN, 35676871, 0, 0, 0, 0, 0, 0, 0, 0, 0, 0, 0, 0, 0, 0
RCOU, 35676897, 1203, 1203, 1203, 1203, 0, 0, 0, 0, 0, 0, 0, 0, 0, 0
VIBE, 35676906, 0.2252585, 0.2305869, 0.2017015, 0, 0, 0
CTRL, 35676913, 0.008811767, 0.0003336567, 0.007453912, 0.0003146576, 0.0001987543
PRX, 35676945, 2, 0.63, 0, 0.66, 0, 3.6, 0, 2.39, 0, 0, 0, 0.63
IMU, 35714036, -0.002843994, 0.004315402, -0.005819364, 0.3113109, -0.08004236, -9.750409, 0, 0, 37.73773, 1, 1, 1001, 1001
RFND, 35724219, 0.2, 25, 0, 0
IMU, 35754357, 0.001042662, -0.001153775, -0.02080422, 0.1684867, -0.04072126, -9.771102, 0, 0, 37.7389, 1, 1, 1001, 1001
MAG, 35774009, 385, 505, 324, 0, 0, 0, 0, 0, 0, 1, 35774000
RFND, 35774044, 0.2, 25, 0, 0
BARO, 35774076, -0.3673435, 993.5345, 35.86, 0.0335554, 35774, 0, 35
CTUN, 35774089, 0, 0, 0, 0.2624286, 0.0759297, 0.0759297, -0.36, 0, 0.19, 0, 0, 0
ATT, 35776757, 0, 0.82, 0, 0.71, 4.48, 4.49, 0, 1
RATE, 35776767, -3.721969, -0.1957487, -0.007842768, -3.218744, 0.08244228, -0.008262936, 0.02322497, 0.3503144, 0.0003596876, -321.5307, 2.610683, 0
NKF1, 35776775, 0.82, 0.71, 4.49, -0.008479174, -0.008632096, -0.007939029, 0, 0, 0, -0.07594506, -0.01, 0, 0
NKF2, 35776775, 0, 0, 0, 0, 0, 0, 0, 0, 0, 0, 0, 0, 0
NKF3, 35776775, 0, 0, 0, -0.02, -0.01, -0.01, 0, 0, 0, 0, 0
NKF4, 35776775, 0, 0, 0, 0, 0, 1.558258E-06, 0, 0, 0, 19, 229, 0, 0
NKF5, 35776775, 0, 0, 0, 0, 0.2, 0.13, 0, 0.19, 0.5, 3.383486E-05, 0.0006967864, 0.001504441
NKQ1, 35776775, 0.9991415, 0.002147461, 0.01322789, 0.03920158
AHR2, 35776823, 0.79, 0.73, 4.48, -0.36, 0, 0, 0.9991919, 0.006654229, 0.006659555, 0.03907691
MOTB, 35776831, 1, 1, 0, 1
RCIN, 35776836, 0, 0, 0, 0, 0, 0, 0, 0, 0, 0, 0, 0, 0, 0
RCOU, 35776841, 1235, 1236, 1221, 1248, 0, 0, 0, 0, 0, 0, 0, 0, 0, 0
VIBE, 35776850, 0.4537083, 0.4958193, 0.4785933, 0, 0, 0
CTRL, 35776855, 0.008757786, 0.0005304481, 0.007557556, 0.0004011824, 0.0003685577
PRX, 35776885, 2, 0.63, 0, 0.65, 0, 3.6, 0, 2.39, 0, 0, 0, 0.63
IMU, 35794014, 0.003131347, 0.00273508, -0.009729838, 0.1521405, -0.03980028, -9.796763, 0, 0, 37.73935, 1, 1, 1001, 1001
RFND, 35823928, 0.2, 25, 0, 0
IMU, 35834066, -0.001105336, 0.005508509, -0.0234401, 0.3033805, -0.09830093, -9.796211, 0, 0, 37.73922, 1, 1, 1001, 1001
MAG, 35873997, 389, 512, 329, 0, 0, 0, 0, 0, 0, 1, 35873989
RFND, 35874032, 0.2, 25, 0, 0
BARO, 35874065, -0.3673435, 993.5349, 35.86, 0.1359877, 35874, 0, 35
CTUN, 35874079, 0, 0, 0, 0.2624286, 0.07565594, 0.07565594, -0.36, 0, 0.19, 0, 0, 0
DU32, 35874099, 7, 33611992
IMU, 35874190, -0.001652469, -0.002140344, 0.01361357, 0.2734467, -0.03772863, -9.797891, 0, 0, 37.7397, 1, 1, 1001, 1001
PM, 35874203, 89, 4000, 4918, 10, 0, 0, 42, 262144
ATT, 35876454, 0, 0.82, 0, 0.72, 4.45, 4.47, 0, 1
RATE, 35876463, -3.707593, -0.170603, -0.007196545, -3.280324, -0.08269976, -0.006763197, 0.02357899, 0.345003, 0.0005014404, -294.2006, 0.4534721, 0
NKF1, 35876471, 0.82, 0.72, 4.47, -0.008153112, -0.01008486, -0.007264211, 0, 0, 0, -0.07568485, -0.01, 0, 0
NKF2, 35876471, 0, 0, 0, 0, 0, 0, 0, 0, 0, 0, 0, 0, 0
NKF3, 35876471, 0, 0, 0, -0.02, -0.01, -0.01, 0, 0, 0, 0, 0
NKF4, 35876471, 0, 0, 0, 0, 0, 1.713705E-06, 0, 0, 0, 19, 229, 0, 0
NKF5, 35876471, 0, 0, 0, 0, 0.21, 0.13, 0, 0.19, 0.5, 3.412522E-05, 0.0005366829, 0.001076205
NKQ1, 35876471, 0.9991492, 0.002118296, 0.01334566, 0.03896761
AHR2, 35876516, 0.78, 0.74, 4.45, -0.36, 0, 0, 0.9992005, 0.006612543, 0.00677808, 0.03884267
MOTB, 35876523, 1, 1, 0, 1
RCIN, 35876527, 0, 0, 0, 0, 0, 0, 0, 0, 0, 0, 0, 0, 0, 0
RCOU, 35876533, 1234, 1233, 1221, 1244, 0, 0, 0, 0, 0, 0, 0, 0, 0, 0
VIBE, 35876541, 0.554167, 0.456207, 0.5746425, 0, 0, 0
CTRL, 35876547, 0.0087659, 0.0005705897, 0.007740954, 0.0008724662, 0.000498886
PRX, 35876579, 2, 0.64, 0, 0.66, 0, 3.6, 0, 2.38, 0, 0, 0, 0.64
IMU, 35914015, 0.001442374, -0.0009144958, 0.009950814, 0.1726663, -0.1089274, -9.794601, 0, 0, 37.74072, 1, 1, 1001, 1001
RFND, 35924058, 0.2, 25, 0, 0
IMU, 35954094, 0.0006087574, 0.003680652, 0.002501928, 0.30795, -0.06474189, -9.792621, 0, 0, 37.74213, 1, 1, 1001, 1001
MAG, 35973857, 393, 511, 332, 0, 0, 0, 0, 0, 0, 1, 35973848
RFND, 35973905, 0.2, 25, 0, 0
BARO, 35973937, -0.2486633, 993.5217, 35.86, 0.229687, 35973, 0, 35
CTUN, 35973950, 0, 0, 0, 0.2624286, 0.07541875, 0.07541875, -0.24, 0, 0.19, 0, 0, 0
ATT, 35976346, 0, 0.82, 0, 0.73, 4.46, 4.47, 0, 1
RATE, 35976354, -3.712613, -0.08318783, -0.009913161, -3.320348, -0.2699913, -0.006142933, 0.02390204, 0.656254, 0.0001186745, -279.6096, 3.767586, 0
NKF1, 35976362, 0.82, 0.73, 4.47, -0.007478646, -0.009572264, -0.006903941, 0, 0, 0, -0.07543883, -0.01, 0, 0
NKF2, 35976362, 0, 0, 0, 0, 0, 0, 0, 0, 0, 0, 0, 0, 0
NKF3, 35976362, 0, 0, 0, -0.02, -0.02, -0.01, 0, 0, 0, 0, 0
NKF4, 35976362, 0, 0, 0, 0, 0, 1.8681E-06, 0, 0, 0, 19, 229, 0, 0
NKF5, 35976362, 0, 0, 0, 0, 0.2, 0.13, 0, 0.19, 0.5, 3.345567E-05, 0.000608043, 0.001288825
NKQ1, 35976362, 0.9991458, 0.002115607, 0.01343165, 0.03902332
AHR2, 35976404, 0.78, 0.75, 4.46, -0.24, 0, 0, 0.9991979, 0.006597346, 0.006859607, 0.03889809
MOTB, 35976411, 1, 1, 0, 1
RCIN, 35976415, 0, 0, 0, 0, 0, 0, 0, 0, 0, 0, 0, 0, 0, 0
RCOU, 35976420, 1238, 1232, 1221, 1248, 0, 0, 0, 0, 0, 0, 0, 0, 0, 0
VIBE, 35976429, 0.4470712, 0.4993868, 0.4955315, 0, 0, 0
CTRL, 35976435, 0.008722606, 0.0007344186, 0.007851808, 0.0009529809, 0.0005051809
PRX, 35976467, 2, 0.63, 0, 0.65, 0, 3.6, 0, 2.38, 0, 0, 0, 0.63
IMU, 35994073, 0.007901042, 0.002876962, -0.009530607, 0.3828312, -0.1106537, -9.789992, 0, 0, 37.74279, 1, 1, 1001, 1001
RFND, 36024128, 0.2, 25, 0, 0
IMU, 36034068, 0.003123617, 0.002485788, 0.007823219, 0.3714689, -0.05415631, -9.770386, 0, 0, 37.74247, 1, 1, 1001, 1001
MAG, 36074097, 391, 509, 330, 0, 0, 0, 0, 0, 0, 1, 36074089
RFND, 36074133, 0.2, 25, 0, 0
BARO, 36074165, -0.2656176, 993.5237, 35.87, 0.3625056, 36074, 0, 35
CTUN, 36074177, 0, 0, 0, 0.2624286, 0.07520088, 0.07520088, -0.26, 0, 0.19, 0, 0, 0
IMU, 36074231, -0.0009583816, -0.00037377, 0.003491237, 0.4214213, -0.0792475, -9.768822, 0, 0, 37.74408, 1, 1, 1001, 1001
ATT, 36076497, 0, 0.82, 0, 0.74, 4.47, 4.48, 0, 1
RATE, 36076506, -3.6961, -0.1356084, -0.007090445, -3.36708, 0.03310965, -0.00890524, 0.02412716, 0.1479825, -0.0004301619, -208.459, -3.921604, 0
NKF1, 36076514, 0.82, 0.74, 4.48, -0.003696107, -0.008346441, -0.005147136, 0, 0, 0, -0.07521161, -0.01, 0, 0
NKF2, 36076514, 0, 0, 0, 0, 0, 0, 0, 0, 0, 0, 0, 0, 0
NKF3, 36076514, 0, 0, 0, -0.02, -0.02, -0.01, 0, 0, 0, 0, 0
NKF4, 36076514, 0, 0, 0, 0, 0, 2.016564E-06, 0, 0, 0, 19, 229, 0, 0
NKF5, 36076514, 0, 0, 0, 0, 0.2, 0.13, 0, 0.19, 0.5, 3.381797E-05, 0.0005065683, 0.001014231
NKQ1, 36076514, 0.9991423, 0.002092467, 0.0135075, 0.03909099
AHR2, 36076560, 0.78, 0.76, 4.47, -0.26, 0, 0, 0.9991949, 0.00657407, 0.006939238, 0.03896569
MOTB, 36076568, 1, 1, 0, 1
RCIN, 36076572, 0, 0, 0, 0, 0, 0, 0, 0, 0, 0, 0, 0, 0, 0
RCOU, 36076577, 1232, 1235, 1221, 1248, 0, 0, 0, 0, 0, 0, 0, 0, 0, 0
VIBE, 36076586, 0.4359787, 0.4733683, 0.5707808, 0, 0, 0
CTRL, 36076592, 0.008764856, 0.00126737, 0.00791794, 0.001011393, 0.0004499113
PRX, 36076623, 2, 0.63, 0, 0.66, 0, 3.6, 0, 2.4, 0, 0, 0, 0.63
IMU, 36114118, 0.004218016, 0.007075961, -0.003423242, 0.4600875, -0.06110276, -9.780035, 0, 0, 37.74548, 1, 1, 1001, 1001
RFND, 36123956, 0.2, 25, 0, 0
IMU, 36154442, 0.004465651, 0.01536505, -0.006291582, 0.437162, -0.02274393, -9.756935, 0, 0, 37.74691, 1, 1, 1001, 1001
MAG, 36174242, 384, 509, 324, 0, 0, 0, 0, 0, 0, 1, 36174235
RFND, 36174277, 0.2, 25, 0, 0
BARO, 36174307, -0.3503892, 993.533, 35.88, 0.4194916, 36174, 0, 35
CTUN, 36174320, 0, 0, 0, 0.2624286, 0.07476833, 0.07476833, -0.35, 0, 0.19, 0, 0, 0
ATT, 36176421, 0, 0.83, 0, 0.74, 4.46, 4.47, 0, 1
RATE, 36176430, -3.747193, 0.1603768, -0.009850884, -3.3506, -0.1171861, -0.007271231, 0.02434181, 0.2077285, 0.0002918883, -158.3308, 2.271461, 0
NKF1, 36176438, 0.83, 0.74, 4.47, -0.00363769, -0.008151662, -0.003909403, 0, 0, 0, -0.07477743, -0.01, 0, 0
NKF2, 36176438, 0, 0, 0, 0, 0, 0, 0, 0, 0, 0, 0, 0, 0
NKF3, 36176438, 0, 0, 0, -0.03, -0.02, -0.01, 0, 0, 0, 0, 0
NKF4, 36176438, 0, 0, 0, 0, 0, 2.195888E-06, 0, 0, 0, 19, 229, 0, 0
NKF5, 36176438, 0, 0, 0, 0, 0.2, 0.13, 0, 0.19, 0.5, 3.298134E-05, 0.0005369882, 0.001117596
NKQ1, 36176438, 0.9991452, 0.002192742, 0.0134815, 0.03901627
AHR2, 36176483, 0.79, 0.76, 4.46, -0.35, 0, 0, 0.999197, 0.006696273, 0.006931689, 0.03889063
MOTB, 36176490, 1, 1, 0, 1
RCIN, 36176494, 0, 0, 0, 0, 0, 0, 0, 0, 0, 0, 0, 0, 0, 0
RCOU, 36176499, 1238, 1234, 1221, 1249, 0, 0, 0, 0, 0, 0, 0, 0, 0, 0
VIBE, 36176508, 0.5025545, 0.4311656, 0.4994054, 0, 0, 0
CTRL, 36176514, 0.008815113, 0.001329709, 0.007919176, 0.001687407, 0.0003898458
PRX, 36176546, 2, 0.63, 0, 0.66, 0, 3.6, 0, 2.4, 0, 0, 0, 0.63
IMU, 36194380, -0.008800659, 0.001345336, -0.005448501, 0.2145074, -0.01152162, -9.759789, 0, 0, 37.74767, 1, 1, 1001, 1001
RFND, 36224349, 0.2, 25, 0, 0
IMU, 36234036, -0.003990863, -0.005462689, -0.005608889, -0.03550282, -0.08606477, -9.767851, 0, 0, 37.74718, 1, 1, 1001, 1001
MAG, 36274785, 388, 510, 329, 0, 0, 0, 0, 0, 0, 1, 36274708
RFND, 36274820, 0.2, 25, 0, 0
BARO, 36274966, -0.4577666, 993.5447, 35.88, 0.1748414, 36274, 0, 35
CTUN, 36274981, 0, 0, 0, 0.2624286, 0.07440949, 0.07440949, -0.45, 0, 0.19, 0, 0, 0
IMU, 36275133, 0.004432274, -0.001522224, 0.01504054, 0.166708, -0.03849731, -9.855977, 0, 0, 37.74585, 1, 1, 1001, 1001
ATT, 36277640, 0, 0.83, 0, 0.74, 4.46, 4.47, 0, 1
RATE, 36277648, -3.750505, 0.2405648, -0.01002184, -3.350459, -0.006366991, -0.007564671, 0.024363, 0.5534006, -0.0001129211, -141.0072, -0.06856918, 0
NKF1, 36277656, 0.83, 0.74, 4.47, -0.004944416, -0.008844505, -0.003481659, 0, 0, 0, -0.07442352, -0.01, 0, 0
NKF2, 36277656, 0, 0, 0, 0, 0, 0, 0, 0, 0, 0, 0, 0, 0
NKF3, 36277656, 0, 0, 0, -0.03, -0.02, -0.01, 0, 0, 0, 0, 0
NKF4, 36277656, 0, 0, 0, 0, 0, 2.337271E-06, 0, 0, 0, 19, 229, 0, 0
NKF5, 36277656, 0, 0, 0, 0, 0.2, 0.13, 0, 0.19, 0.5, 3.354334E-05, 0.0004943087, 0.001034158
NKQ1, 36277656, 0.9991443, 0.002189596, 0.01349074, 0.03903886
AHR2, 36277857, 0.79, 0.76, 4.46, -0.45, 0, 0, 0.999196, 0.00669503, 0.00695313, 0.03891334
MOTB, 36277868, 1, 1, 0, 1
RCIN, 36277885, 0, 0, 0, 0, 0, 0, 0, 0, 0, 0, 0, 0, 0, 0
RCOU, 36277891, 1238, 1234, 1221, 1250, 0, 0, 0, 0, 0, 0, 0, 0, 0, 0
VIBE, 36277900, 0.5063242, 0.4188047, 0.5314133, 0, 0, 0
CTRL, 36277905, 0.008836842, 0.001357021, 0.007942975, 0.001926318, 0.0003325027
PRX, 36277937, 2, 0.63, 0, 0.66, 0, 3.6, 0, 2.39, 0, 0, 0, 0.63
IMU, 36314041, 0.003536701, -0.001052376, 0.001559429, 0.2533799, -0.0786789, -9.816623, 0, 0, 37.74382, 1, 1, 1001, 1001
RFND, 36324174, 0.2, 25, 0, 0
IMU, 36354263, 0.0007245464, -0.0001250796, -0.01478111, 0.4326694, -0.006500693, -9.768693, 0, 0, 37.74054, 1, 1, 1001, 1001
MAG, 36373987, 392, 515, 329, 0, 0, 0, 0, 0, 0, 1, 36373978
RFND, 36374020, 0.2, 25, 0, 0
BARO, 36374052, -0.4690695, 993.5461, 35.87, -0.302974, 36374, 0, 35
CTUN, 36374066, 0, 0, 0, 0.2624286, 0.07371387, 0.07371387, -0.46, 0, 0.19, 0, 0, 0
ATT, 36376437, 0, 0.83, 0, 0.74, 4.46, 4.47, 0, 1
RATE, 36376447, -3.756538, 0.5175674, -0.01300131, -3.357878, 0.0398928, -0.007994961, 0.02445514, 0.1924148, 5.080807E-05, -86.35896, 5.282593, 0
NKF1, 36376454, 0.83, 0.74, 4.47, -0.005827168, -0.009973541, -0.00213232, 0, 0, 0, -0.07371907, -0.01, 0, 0
NKF2, 36376454, 0, 0, 0, 0, 0, 0, 0, 0, 0, 0, 0, 0, 0
NKF3, 36376454, 0, 0, 0, -0.03, -0.02, 0, 0, 0, 0, 0, 0
NKF4, 36376454, 0, 0, 0, 0, 0, 2.541736E-06, 0, 0, 0, 19, 229, 0, 0
NKF5, 36376454, 0, 0, 0, 0, 0.2, 0.13, 0, 0.19, 0.5, 3.277532E-05, 0.0004962969, 0.001056122
NKQ1, 36376454, 0.9991444, 0.002210707, 0.01349613, 0.03903086
AHR2, 36376500, 0.79, 0.76, 4.46, -0.46, 0, 0, 0.9991964, 0.00667642, 0.006956877, 0.03890518
MOTB, 36376507, 1, 1, 0, 1
RCIN, 36376512, 0, 0, 0, 0, 0, 0, 0, 0, 0, 0, 0, 0, 0, 0
RCOU, 36376517, 1243, 1235, 1221, 1255, 0, 0, 0, 0, 0, 0, 0, 0, 0, 0
VIBE, 36376526, 0.5043177, 0.4670532, 0.6362052, 0, 0, 0
CTRL, 36376533, 0.008813122, 0.001395861, 0.007933701, 0.001812099, 0.0002941981
PRX, 36376563, 2, 0.63, 0, 0.65, 0, 3.6, 0, 2.38, 0, 0, 0, 0.63
IMU, 36394105, -0.001911077, 0.003172731, -0.002830061, 0.4788389, 0.0727537, -9.73214, 0, 0, 37.73562, 1, 1, 1001, 1001
RFND, 36424231, 0.2, 25, 0, 0
