FMT, 128, 89, FMT, BBnNZ, Type,Length,Name,Format,Columns
FMT, 129, 31, PARM, QNf, TimeUS,Name,Value
FMT, 130, 46, GPS, QBIHBcLLefffB, TimeUS,Status,GMS,GWk,NSats,HDop,Lat,Lng,Alt,Spd,GCrs,VZ,U
FMT, 131, 46, GPS2, QBIHBcLLefffB, TimeUS,Status,GMS,GWk,NSats,HDop,Lat,Lng,Alt,Spd,GCrs,VZ,U
FMT, 132, 46, GPSB, QBIHBcLLefffB, TimeUS,Status,GMS,GWk,NSats,HDop,Lat,Lng,Alt,Spd,GCrs,VZ,U
FMT, 193, 24, GPA, QCCCCBI, TimeUS,VDop,HAcc,VAcc,SAcc,VV,SMS
FMT, 194, 24, GPA2, QCCCCBI, TimeUS,VDop,HAcc,VAcc,SAcc,VV,SMS
FMT, 195, 24, GPAB, QCCCCBI, TimeUS,VDop,HAcc,VAcc,SAcc,VV,SMS
FMT, 133, 53, IMU, QffffffIIfBBHH, TimeUS,GyrX,GyrY,GyrZ,AccX,AccY,AccZ,EG,EA,T,GH,AH,GHz,AHz
FMT, 134, 75, MSG, QZ, TimeUS,Message
FMT, 135, 39, RCIN, QHHHHHHHHHHHHHH, TimeUS,C1,C2,C3,C4,C5,C6,C7,C8,C9,C10,C11,C12,C13,C14
FMT, 136, 39, RCOU, QHHHHHHHHHHHHHH, TimeUS,C1,C2,C3,C4,C5,C6,C7,C8,C9,C10,C11,C12,C13,C14
FMT, 137, 15, RSSI, Qf, TimeUS,RXRSSI
FMT, 139, 37, BARO, QffcfIff, TimeUS,Alt,Press,Temp,CRt,SMS,Offset,GndTemp
FMT, 140, 22, POWR, QffHB, TimeUS,Vcc,VServo,Flags,Safety
FMT, 143, 45, CMD, QHHHfffffff, TimeUS,CTot,CNum,CId,Prm1,Prm2,Prm3,Prm4,Lat,Lng,Alt
FMT, 144, 20, RAD, QBBBBBHH, TimeUS,RSSI,RemRSSI,TxBuf,Noise,RemNoise,RxErrors,Fixed
FMT, 146, 43, CAM, QIHLLeeeccC, TimeUS,GPSTime,GPSWeek,Lat,Lng,Alt,RelAlt,GPSAlt,Roll,Pitch,Yaw
FMT, 232, 43, TRIG, QIHLLeeeccC, TimeUS,GPSTime,GPSWeek,Lat,Lng,Alt,RelAlt,GPSAlt,Roll,Pitch,Yaw
FMT, 162, 30, ARSP, QffcffB, TimeUS,Airspeed,DiffPress,Temp,RawPress,Offset,U
FMT, 164, 45, CURR, QfffcHHHHHHHHHH, TimeUS,Volt,Curr,CurrTot,Temp,V1,V2,V3,V4,V5,V6,V7,V8,V9,V10
FMT, 165, 45, CUR2, QfffcHHHHHHHHHH, TimeUS,Volt,Curr,CurrTot,Temp,V1,V2,V3,V4,V5,V6,V7,V8,V9,V10
FMT, 163, 27, ATT, QccccCCCC, TimeUS,DesRoll,Roll,DesPitch,Pitch,DesYaw,Yaw,ErrRP,ErrYaw
FMT, 166, 34, MAG, QhhhhhhhhhBI, TimeUS,MagX,MagY,MagZ,OfsX,OfsY,OfsZ,MOfsX,MOfsY,MOfsZ,Health,S
FMT, 169, 14, MODE, QMBB, TimeUS,Mode,ModeNum,Rsn
FMT, 196, 17, RFND, QCBCB, TimeUS,Dist1,Orient1,Dist2,Orient2
FMT, 223, 33, DMS, IIIIIBBBBBBBBBB, TimeMS,N,Dp,RT,RS,Er,Fa,Fmn,Fmx,Pa,Pmn,Pmx,Sa,Smn,Smx
FMT, 240, 41, BCN, QBBfffffff, TimeUS,Health,Cnt,D0,D1,D2,D3,PosX,PosY,PosZ
FMT, 138, 53, IMU2, QffffffIIfBBHH, TimeUS,GyrX,GyrY,GyrZ,AccX,AccY,AccZ,EG,EA,T,GH,AH,GHz,AHz
FMT, 147, 53, IMU3, QffffffIIfBBHH, TimeUS,GyrX,GyrY,GyrZ,AccX,AccY,AccZ,EG,EA,T,GH,AH,GHz,AHz
FMT, 141, 45, AHR2, QccCfLLffff, TimeUS,Roll,Pitch,Yaw,Alt,Lat,Lng,Q1,Q2,Q3,Q4
FMT, 180, 31, POS, QLLfff, TimeUS,Lat,Lng,Alt,RelHomeAlt,RelOriginAlt
FMT, 142, 45, SIM, QccCfLLffff, TimeUS,Roll,Pitch,Yaw,Alt,Lat,Lng,Q1,Q2,Q3,Q4
FMT, 198, 51, NKF1, QccCfffffffccc, TimeUS,Roll,Pitch,Yaw,VN,VE,VD,dPD,PN,PE,PD,GX,GY,GZ
FMT, 199, 35, NKF2, QbccccchhhhhhB, TimeUS,AZbias,GSX,GSY,GSZ,VWN,VWE,MN,ME,MD,MX,MY,MZ,MI
FMT, 200, 33, NKF3, Qcccccchhhcc, TimeUS,IVN,IVE,IVD,IPN,IPE,IPD,IMX,IMY,IMZ,IYAW,IVT
FMT, 201, 35, NKF4, QcccccfbbHBHHb, TimeUS,SV,SP,SH,SM,SVT,errRP,OFN,OFE,FS,TS,SS,GPS,PI
FMT, 202, 40, NKF5, QBhhhcccCCfff, TimeUS,NI,FIX,FIY,AFI,HAGL,offset,RI,rng,Herr,eAng,eVel,ePos
FMT, 203, 51, NKF6, QccCfffffffccc, TimeUS,Roll,Pitch,Yaw,VN,VE,VD,dPD,PN,PE,PD,GX,GY,GZ
FMT, 204, 35, NKF7, QbccccchhhhhhB, TimeUS,AZbias,GSX,GSY,GSZ,VWN,VWE,MN,ME,MD,MX,MY,MZ,MI
FMT, 205, 33, NKF8, Qcccccchhhcc, TimeUS,IVN,IVE,IVD,IPN,IPE,IPD,IMX,IMY,IMZ,IYAW,IVT
FMT, 206, 35, NKF9, QcccccfbbHBHHb, TimeUS,SV,SP,SH,SM,SVT,errRP,OFN,OFE,FS,TS,SS,GPS,PI
FMT, 207, 36, NKF0, QBccCCcccccccc, TimeUS,ID,rng,innov,SIV,TR,BPN,BPE,BPD,OFH,OFL,OFN,OFE,OFD
FMT, 208, 27, NKQ1, Qffff, TimeUS,Q1,Q2,Q3,Q4
FMT, 209, 27, NKQ2, Qffff, TimeUS,Q1,Q2,Q3,Q4
FMT, 210, 51, XKF1, QccCfffffffccc, TimeUS,Roll,Pitch,Yaw,VN,VE,VD,dPD,PN,PE,PD,GX,GY,GZ
FMT, 211, 34, XKF2, QccccchhhhhhB, TimeUS,AX,AY,AZ,VWN,VWE,MN,ME,MD,MX,MY,MZ,MI
FMT, 212, 33, XKF3, Qcccccchhhcc, TimeUS,IVN,IVE,IVD,IPN,IPE,IPD,IMX,IMY,IMZ,IYAW,IVT
FMT, 213, 35, XKF4, QcccccfbbHBHHb, TimeUS,SV,SP,SH,SM,SVT,errRP,OFN,OFE,FS,TS,SS,GPS,PI
FMT, 214, 40, XKF5, QBhhhcccCCfff, TimeUS,NI,FIX,FIY,AFI,HAGL,offset,RI,rng,Herr,eAng,eVel,ePos
FMT, 215, 51, XKF6, QccCfffffffccc, TimeUS,Roll,Pitch,Yaw,VN,VE,VD,dPD,PN,PE,PD,GX,GY,GZ
FMT, 216, 34, XKF7, QccccchhhhhhB, TimeUS,AX,AY,AZ,VWN,VWE,MN,ME,MD,MX,MY,MZ,MI
FMT, 217, 33, XKF8, Qcccccchhhcc, TimeUS,IVN,IVE,IVD,IPN,IPE,IPD,IMX,IMY,IMZ,IYAW,IVT
FMT, 218, 35, XKF9, QcccccfbbHBHHb, TimeUS,SV,SP,SH,SM,SVT,errRP,OFN,OFE,FS,TS,SS,GPS,PI
FMT, 219, 36, XKF0, QBccCCcccccccc, TimeUS,ID,rng,innov,SIV,TR,BPN,BPE,BPD,OFH,OFL,OFN,OFE,OFD
FMT, 220, 27, XKQ1, Qffff, TimeUS,Q1,Q2,Q3,Q4
FMT, 221, 27, XKQ2, Qffff, TimeUS,Q1,Q2,Q3,Q4
FMT, 222, 35, XKFD, Qffffff, TimeUS,IX,IY,IZ,IVX,IVY,IVZ
FMT, 148, 34, TERR, QBLLHffHH, TimeUS,Status,Lat,Lng,Spacing,TerrH,CHeight,Pending,Loaded
FMT, 149, 18, UBX1, QBHBBH, TimeUS,Instance,noisePerMS,jamInd,aPower,agcCnt
FMT, 150, 16, UBX2, QBbBbB, TimeUS,Instance,ofsI,magI,ofsQ,magQ
FMT, 151, 18, UBY1, QBHBBH, TimeUS,Instance,noisePerMS,jamInd,aPower,agcCnt
FMT, 152, 16, UBY2, QBbBbB, TimeUS,Instance,ofsI,magI,ofsQ,magQ
FMT, 170, 42, GRAW, QIHBBddfBbB, TimeUS,WkMS,Week,numSV,sv,cpMes,prMes,doMes,mesQI,cno,lli
FMT, 171, 24, GRXH, QdHbBB, TimeUS,rcvTime,week,leapS,numMeas,recStat
FMT, 172, 41, GRXS, QddfBBBHBBBBB, TimeUS,prMes,cpMes,doMes,gnss,sv,freq,lock,cno,prD,cpD,doD,trk
FMT, 173, 63, SBFE, QIHBBdddfffff, TimeUS,TOW,WN,Mode,Err,Lat,Lng,Height,Undul,Vn,Ve,Vu,COG
FMT, 153, 19, ESC1, Qcccc, TimeUS,RPM,Volt,Curr,Temp
FMT, 154, 19, ESC2, Qcccc, TimeUS,RPM,Volt,Curr,Temp
FMT, 155, 19, ESC3, Qcccc, TimeUS,RPM,Volt,Curr,Temp
FMT, 156, 19, ESC4, Qcccc, TimeUS,RPM,Volt,Curr,Temp
FMT, 157, 19, ESC5, Qcccc, TimeUS,RPM,Volt,Curr,Temp
FMT, 158, 19, ESC6, Qcccc, TimeUS,RPM,Volt,Curr,Temp
FMT, 159, 19, ESC7, Qcccc, TimeUS,RPM,Volt,Curr,Temp
FMT, 160, 19, ESC8, Qcccc, TimeUS,RPM,Volt,Curr,Temp
FMT, 167, 34, MAG2, QhhhhhhhhhBI, TimeUS,MagX,MagY,MagZ,OfsX,OfsY,OfsZ,MOfsX,MOfsY,MOfsZ,Health,S
FMT, 168, 34, MAG3, QhhhhhhhhhBI, TimeUS,MagX,MagY,MagZ,OfsX,OfsY,OfsZ,MOfsX,MOfsY,MOfsZ,Health,S
FMT, 174, 31, ACC1, QQfff, TimeUS,SampleUS,AccX,AccY,AccZ
FMT, 175, 31, ACC2, QQfff, TimeUS,SampleUS,AccX,AccY,AccZ
FMT, 176, 31, ACC3, QQfff, TimeUS,SampleUS,AccX,AccY,AccZ
FMT, 177, 31, GYR1, QQfff, TimeUS,SampleUS,GyrX,GyrY,GyrZ
FMT, 178, 31, GYR2, QQfff, TimeUS,SampleUS,GyrX,GyrY,GyrZ
FMT, 179, 31, GYR3, QQfff, TimeUS,SampleUS,GyrX,GyrY,GyrZ
FMT, 181, 35, PIDR, Qffffff, TimeUS,Des,P,I,D,FF,AFF
FMT, 182, 35, PIDP, Qffffff, TimeUS,Des,P,I,D,FF,AFF
FMT, 183, 35, PIDY, Qffffff, TimeUS,Des,P,I,D,FF,AFF
FMT, 184, 35, PIDA, Qffffff, TimeUS,Des,P,I,D,FF,AFF
FMT, 185, 35, PIDS, Qffffff, TimeUS,Des,P,I,D,FF,AFF
FMT, 186, 35, PIDL, Qffffff, TimeUS,Des,P,I,D,FF,AFF
FMT, 161, 37, BAR2, QffcfIff, TimeUS,Alt,Press,Temp,CRt,SMS,Offset,GndTemp
FMT, 197, 37, BAR3, QffcfIff, TimeUS,Alt,Press,Temp,CRt,SMS,Offset,GndTemp
FMT, 187, 35, VIBE, QfffIII, TimeUS,VibeX,VibeY,VibeZ,Clip0,Clip1,Clip2
FMT, 188, 47, IMT, Qfffffffff, TimeUS,DelT,DelvT,DelaT,DelAX,DelAY,DelAZ,DelVX,DelVY,DelVZ
FMT, 189, 47, IMT2, Qfffffffff, TimeUS,DelT,DelvT,DelaT,DelAX,DelAY,DelAZ,DelVX,DelVY,DelVZ
FMT, 190, 47, IMT3, Qfffffffff, TimeUS,DelT,DelvT,DelaT,DelAX,DelAY,DelAZ,DelVX,DelVY,DelVZ
FMT, 191, 24, ORGN, QBLLe, TimeUS,Type,Lat,Lng,Alt
FMT, 192, 19, RPM, Qff, TimeUS,rpm1,rpm2
FMT, 233, 47, GMB1, Iffffffffff, TimeMS,dt,dax,day,daz,dvx,dvy,dvz,jx,jy,jz
FMT, 234, 44, GMB2, IBfffffffff, TimeMS,es,ex,ey,ez,rx,ry,rz,tx,ty,tz
FMT, 235, 13, GMB3, Ihhh, TimeMS,rl_torque_cmd,el_torque_cmd,az_torque_cmd
FMT, 236, 59, RATE, Qffffffffffff, TimeUS,RDes,R,ROut,PDes,P,POut,YDes,Y,YOut,ADes,A,AOut
FMT, 237, 23, RALY, QBBLLh, TimeUS,Tot,Seq,Lat,Lng,Alt
FMT, 238, 43, VISO, Qffffffff, TimeUS,dt,AngDX,AngDY,AngDZ,PosDX,PosDY,PosDZ,conf
FMT, 224, 23, SBPH, QIII, TimeUS,CrcError,LastInject,IARhyp
FMT, 229, 80, SBR1, QHHBZ, TimeUS,msg_type,sender_id,msg_len,d1
FMT, 230, 205, SBR2, QHZZZ, TimeUS,msg_type,d2,d3,d4
FMT, 25, 41, ATUN, QBBfffffff, TimeUS,Axis,TuneStep,Targ,Min,Max,RP,RD,SP,ddt
FMT, 26, 19, ATDE, Qff, TimeUS,Angle,Rate
FMT, 31, 22, PTUN, QBfHHH, TimeUS,Param,TunVal,CtrlIn,TunLo,TunHi
FMT, 12, 28, OF, QBffff, TimeUS,Qual,flowX,flowY,bodyX,bodyY
FMT, 5, 51, NTUN, Qffffffffff, TimeUS,DPosX,DPosY,PosX,PosY,DVelX,DVelY,VelX,VelY,DAccX,DAccY
FMT, 4, 51, CTUN, Qffffffeccfhh, TimeUS,ThI,ABst,ThO,ThH,DAlt,Alt,BAlt,DSAlt,SAlt,TAlt,DCRt,CRt
FMT, 6, 32, PM, QHHIhBHII, TimeUS,NLon,NLoop,MaxT,PMT,I2CErr,INSErr,LogDrop,Mem
FMT, 30, 27, MOTB, Qffff, TimeUS,LiftMax,BatVolt,BatRes,ThLimit
FMT, 13, 12, EV, QB, TimeUS,Id
FMT, 20, 14, D16, QBh, TimeUS,Id,Value
FMT, 21, 14, DU16, QBH, TimeUS,Id,Value
FMT, 22, 16, D32, QBi, TimeUS,Id,Value
FMT, 23, 16, DU32, QBI, TimeUS,Id,Value
FMT, 24, 16, DFLT, QBf, TimeUS,Id,Value
FMT, 19, 13, ERR, QBB, TimeUS,Subsys,ECode
FMT, 32, 19, HELI, Qff, TimeUS,DRRPM,ERRPM
FMT, 33, 29, PL, QBBffff, TimeUS,Heal,TAcq,pX,pY,vX,vY
FMT, 34, 36, GUID, QBffffff, TimeUS,Type,pX,pY,pZ,vX,vY,vZ
FMT, 35, 32, THRO, QBffffbbbb, TimeUS,Stage,Vel,VelZ,Acc,AccEfZ,Throw,AttOk,HgtOk,PosOk
FMT, 36, 56, PRX, QBfffffffffff, TimeUS,Health,D0,D45,D90,D135,D180,D225,D270,D315,DUp,CAn,CDis
MODE, 86999541, 100, 100, 2
FMT, 254, 47, NKT1, QIffffffff, TimeUS,Cnt,IMUMin,IMUMax,EKFMin,EKFMax,AngMin,AngMax,VelMin,VelM
FMT, 253, 31, CTRL, Qfffff, TimeUS,RMSRollP,RMSRollD,RMSPitchP,RMSPitchD,RMSYaw
IMU, 87048164, -0.0008939451, 0.0004046481, 0.0007000612, 0.2360687, -0.05117288, -9.819653, 0, 0, 37.36117, 1, 1, 1000, 1000
MSG, 87146396, APM:Copter V3.5.7 (38483450)
MSG, 87146401, New mission
MSG, 87146413, Frame: QUAD
MODE, 87146418, Autonomous, 100, 2
IMU, 87170636, -0.0005484124, 0.00111266, 0.0001167001, 0.2156764, -0.04355492, -9.830455, 0, 0, 37.36136, 1, 1, 1000, 1000
RFND, 87180515, 0.2, 25, 0, 0
IMU, 87210581, -0.0004917965, 0.0001051082, -0.0001528181, 0.212231, -0.05328839, -9.825634, 0, 0, 37.36181, 1, 1, 1000, 1000
MAG, 87230470, 391, 510, 334, 0, 0, 0, 0, 0, 0, 1, 87230461
RFND, 87230505, 0.2, 25, 0, 0
BARO, 87230582, 0.1208553, 993.3658, 35.42, -0.07590751, 87230, 0, 33.35
CTUN, 87230597, 0, 0, 0, 0.2293798, 0.06573968, 0.06573968, 0.12, 0, 0.19, 0, 0, 0
ATT, 87230672, 0, 0.81, 0, 0.53, 155.4, 155.41, 0, 1
RATE, 87230678, -3.647027, 0.005796554, -0.008660438, -2.387156, 0.1114151, -0.006221402, 0.01816611, 0.008418186, -1.365258E-06, -144.09, 1.509666, 0
NKF1, 87230686, 0.81, 0.53, 155.41, 0.01057429, -0.01018099, -0.003557778, 0, 0, 0, -0.06573968, -0.01, 0.02, 0
NKF2, 87230686, -2, 0, 0, 0, 0, 0, 0, 0, 0, 0, 0, 0, 0
NKF3, 87230686, 0, 0, 0, 0, 0, 0, 0, 0, 0, 0, 0
NKF4, 87230686, 0, 0, 0, 0, 0, 8.540321E-06, 0, 0, 0, 19, 229, 0, 0
NKF5, 87230686, 0, 0, 0, 0, 0.2, 0.13, 0, 0.19, 0.5, 2.568419E-05, 0.0007229173, 0.001407826
NKQ1, 87230686, 0.2128747, -0.01070994, 0.004921677, 0.9770085
AHR2, 87230731, 0.81, 0.56, 155.45, 0.12, 0, 0, 0.2126267, -0.003268341, 0.007968692, 0.9770955
MOTB, 87230739, 1, 1, 0, 1
RCIN, 87230743, 0, 0, 0, 0, 0, 0, 0, 0, 0, 0, 0, 0, 0, 0
RCOU, 87230748, 1101, 1101, 1101, 1101, 0, 0, 0, 0, 0, 0, 0, 0, 0, 0
VIBE, 87230757, 0.01849248, 0.01871891, 0.02981087, 0, 0, 0
CTRL, 87230763, 0.008584203, 0.0001480989, 0.00562062, 0.0002195839, 2.996758E-05
PRX, 87230795, 2, 0.56, 0, 0.7, 0, 3.6, 0, 2.4, 0, 0, 0, 0.56
IMU, 87250575, -0.0003007785, 0.0005506874, 0.0005063901, 0.2252755, -0.04638543, -9.840746, 0, 0, 37.36258, 1, 1, 1000, 1000
RFND, 87280428, 0.2, 25, 0, 0
IMU, 87290820, -0.0009940806, -0.0006582075, -0.0009888733, 0.21276, -0.04009368, -9.824581, 0, 0, 37.36354, 1, 1, 1000, 1000
MAG, 87330461, 391, 513, 328, 0, 0, 0, 0, 0, 0, 1, 87330452
RFND, 87330495, 0.2, 25, 0, 0
BARO, 87330532, 0.1489612, 993.3628, 35.42, -0.04613731, 87330, 0, 33.35
CTUN, 87330571, 0, 0, 0, 0.2293798, 0.06608626, 0.06608626, 0.14, 0, 0.19, 0, 0, 0
ATT, 87330649, 0, 0.8, 0, 0.53, 155.4, 155.41, 0, 1
RATE, 87330656, -3.641359, 0.01483888, -0.008779949, -2.399108, 0.03987712, -0.005489169, 0.01621448, -0.01401178, 5.374479E-05, -174.0636, 1.055622, 0
NKF1, 87330664, 0.8, 0.53, 155.41, 0.01114741, -0.01082702, -0.004297866, 0, 0, 0, -0.06608626, -0.01, 0.02, 0
NKF2, 87330664, -2, 0, 0, 0, 0, 0, 0, 0, 0, 0, 0, 0, 0
NKF3, 87330664, 0, 0, 0, 0, 0, 0, 0, 0, 0, 0, 0
NKF4, 87330664, 0, 0, 0, 0, 0, 5.46956E-06, 0, 0, 0, 19, 229, 0, 0
NKF5, 87330664, 0, 0, 0, 0, 0.2, 0.13, 0, 0.19, 0.5, 2.861303E-05, 0.0008206702, 0.001601062
NKQ1, 87330664, 0.2128753, -0.01073396, 0.00491544, 0.9770081
AHR2, 87330712, 0.81, 0.56, 155.45, 0.14, 0, 0, 0.2126268, -0.003285313, 0.007965693, 0.9770955
MOTB, 87330719, 1, 1, 0, 1
RCIN, 87330723, 0, 0, 0, 0, 0, 0, 0, 0, 0, 0, 0, 0, 0, 0
RCOU, 87330728, 1101, 1101, 1101, 1101, 0, 0, 0, 0, 0, 0, 0, 0, 0, 0
VIBE, 87330737, 0.01857388, 0.01953739, 0.0316439, 0, 0, 0
CTRL, 87330743, 0.008574943, 0.0001414953, 0.005655533, 0.0002319666, 3.336494E-05
PRX, 87330774, 2, 0.57, 0, 0.7, 0, 3.6, 0, 2.31, 0, 0, 0, 0.57
IMU, 87330782, -6.051834E-05, 0.001101786, -0.0002438355, 0.2164089, -0.05606392, -9.837242, 0, 0, 37.36402, 1, 1, 1000, 1000
IMU, 87370486, -0.0005267599, 0.0002347822, 0.0002744881, 0.2126119, -0.05833961, -9.824869, 0, 0, 37.36372, 1, 1, 1000, 1000
RFND, 87380451, 0.2, 25, 0, 0
IMU, 87410529, -0.0008394699, 0.0004921092, 0.0003216272, 0.2266891, -0.03825525, -9.840771, 0, 0, 37.3638, 1, 1, 1000, 1000
MAG, 87430442, 391, 516, 330, 0, 0, 0, 0, 0, 0, 1, 87430433
RFND, 87430477, 0.2, 25, 0, 0
BARO, 87430515, 0.1798777, 993.3594, 35.42, 0.1286294, 87430, 0, 33.35
CTUN, 87430529, 0, 0, 0, 0.2293798, 0.0664814, 0.0664814, 0.17, 0, 0.19, 0, 0, 0
ATT, 87430634, 0, 0.8, 0, 0.53, 155.4, 155.41, 0, 1
RATE, 87430640, -3.637749, -0.02837527, -0.008372316, -2.393006, -0.01480046, -0.005589295, 0.01809705, -0.02799431, 2.463531E-05, -186.1394, -0.9888649, 0
NKF1, 87430648, 0.8, 0.53, 155.41, 0.01168607, -0.01083372, -0.004596034, 0, 0, 0, -0.0664814, -0.01, 0.02, 0
NKF2, 87430648, -2, 0, 0, 0, 0, 0, 0, 0, 0, 0, 0, 0, 0
NKF3, 87430648, 0, 0, 0, 0, 0, 0, 0, 0, 0, 0, 0
NKF4, 87430648, 0, 0, 0, 0, 0, 3.660688E-06, 0, 0, 0, 19, 229, 0, 0
NKF5, 87430648, 0, 0, 0, 0, 0.2, 0.13, 0, 0.19, 0.5, 3.262641E-05, 0.0008840899, 0.001749753
NKQ1, 87430648, 0.2128769, -0.01072376, 0.004907033, 0.9770079
AHR2, 87430693, 0.81, 0.55, 155.45, 0.17, 0, 0, 0.2126277, -0.003267072, 0.007959, 0.9770955
MOTB, 87430701, 1, 1, 0, 1
RCIN, 87430705, 0, 0, 0, 0, 0, 0, 0, 0, 0, 0, 0, 0, 0, 0
RCOU, 87430710, 1101, 1101, 1101, 1101, 0, 0, 0, 0, 0, 0, 0, 0, 0, 0
VIBE, 87430718, 0.02047688, 0.01953865, 0.03555499, 0, 0, 0
CTRL, 87430725, 0.008574155, 0.0001815207, 0.005640967, 0.0002093166, 4.475786E-05
PRX, 87430755, 2, 0.56, 0, 0.7, 0, 3.6, 0, 2.36, 0, 0, 0, 0.56
IMU, 87450817, -0.0001826511, 0.002058118, 0.0002745619, 0.2064414, -0.06450786, -9.804739, 0, 0, 37.36375, 1, 1, 1000, 1000
RFND, 87480475, 0.2, 25, 0, 0
IMU, 87490505, -0.0006689196, -0.0003686519, 0.0002417542, 0.2077678, -0.0553088, -9.829388, 0, 0, 37.36375, 1, 1, 1000, 1000
MAG, 87530500, 391, 516, 327, 0, 0, 0, 0, 0, 0, 1, 87530491
RFND, 87530535, 0.2, 25, 0, 0
BARO, 87530572, 0.2360895, 993.353, 35.42, 0.305187, 87530, 0, 33.35
CTUN, 87530585, 0, 0, 0, 0.2293798, 0.0668745, 0.0668745, 0.23, 0, 0.19, 0, 0, 0
ATT, 87530662, 0, 0.8, 0, 0.53, 155.4, 155.41, 0, 1
RATE, 87530667, -3.640381, -0.003215261, -0.008244077, -2.405544, -0.01339659, -0.005603219, 0.01771288, -0.09149898, 8.777462E-05, -186.6175, 0.08573532, 0
NKF1, 87530675, 0.8, 0.53, 155.41, 0.01279761, -0.01139215, -0.004607839, 0, 0, 0, -0.0668745, -0.01, 0.02, 0
NKF2, 87530675, -2, 0, 0, 0, 0, 0, 0, 0, 0, 0, 0, 0, 0
NKF3, 87530675, 0, 0, 0, 0, 0, 0, 0, 0, 0, 0, 0
NKF4, 87530675, 0, 0, 0, 0, 0, 2.496043E-06, 0, 0, 0, 19, 229, 0, 0
NKF5, 87530675, 0, 0, 0, 0, 0.2, 0.13, 0, 0.19, 0.5, 3.590564E-05, 0.0009168269, 0.001825994
NKQ1, 87530675, 0.2128805, -0.01074408, 0.004917007, 0.9770069
AHR2, 87530719, 0.81, 0.56, 155.44, 0.23, 0, 0, 0.2126308, -0.003278073, 0.007967532, 0.9770947
MOTB, 87530726, 1, 1, 0, 1
RCIN, 87530730, 0, 0, 0, 0, 0, 0, 0, 0, 0, 0, 0, 0, 0, 0
RCOU, 87530735, 1101, 1101, 1101, 1101, 0, 0, 0, 0, 0, 0, 0, 0, 0, 0
VIBE, 87530744, 0.02123703, 0.0193718, 0.03226613, 0, 0, 0
CTRL, 87530751, 0.008581839, 0.0001757582, 0.005667503, 0.0002119756, 4.128414E-05
PRX, 87530783, 2, 0.56, 0, 0.7, 0, 3.6, 0, 2.35, 0, 0, 0, 0.56
IMU, 87530790, -0.0003775379, 0.0001744196, -0.001596238, 0.2192065, -0.04489519, -9.827667, 0, 0, 37.36472, 1, 1, 1000, 1000
IMU, 87570501, -0.001008584, 0.002113803, 0.000890035, 0.2205836, -0.04554163, -9.849025, 0, 0, 37.36593, 1, 1, 1000, 1000
RFND, 87580422, 0.2, 25, 0, 0
IMU, 87610527, -0.0001800598, 0.001181015, 0.0001577846, 0.2374399, -0.04288187, -9.822485, 0, 0, 37.36715, 1, 1, 1000, 1000
MAG, 87630512, 391, 514, 329, 0, 0, 0, 0, 0, 0, 1, 87630503
RFND, 87630659, 0.2, 25, 0, 0
BARO, 87630700, 0.1152342, 993.3666, 35.43, 0.3260298, 87630, 0, 33.35
CTUN, 87630714, 0, 0, 0, 0.2293798, 0.06725683, 0.06725683, 0.11, 0, 0.19, 0, 0, 0
ATT, 87630793, 0, 0.8, 0, 0.53, 155.41, 155.42, 0, 1
RATE, 87630799, -3.632103, -0.04366842, -0.008186433, -2.429487, 0.01388397, -0.005744485, 0.0158305, -0.003627792, 3.136961E-05, -218.4776, 0.7954597, 0
NKF1, 87630808, 0.8, 0.53, 155.42, 0.01289576, -0.0118723, -0.005394509, 0, 0, 0, -0.06725683, -0.01, 0.02, 0
NKF2, 87630808, -2, 0, 0, 0, 0, 0, 0, 0, 0, 0, 0, 0, 0
NKF3, 87630808, 0, 0, 0, 0.01, -0.01, 0, 0, 0, 0, 0, 0
NKF4, 87630808, 0, 0, 0, 0, 0, 1.732375E-06, 0, 0, 0, 19, 229, 0, 0
NKF5, 87630808, 0, 0, 0, 0, 0.2, 0.13, 0, 0.19, 0.5, 3.783578E-05, 0.0009310732, 0.001880738
NKQ1, 87630808, 0.2128583, -0.01079596, 0.004910681, 0.9770111
AHR2, 87630854, 0.81, 0.56, 155.45, 0.11, 0, 0, 0.212608, -0.003320487, 0.007960176, 0.9770995
MOTB, 87630861, 1, 1, 0, 1
RCIN, 87630865, 0, 0, 0, 0, 0, 0, 0, 0, 0, 0, 0, 0, 0, 0
RCOU, 87630871, 1101, 1101, 1101, 1101, 0, 0, 0, 0, 0, 0, 0, 0, 0, 0
VIBE, 87630880, 0.01956561, 0.0201199, 0.03132422, 0, 0, 0
CTRL, 87630886, 0.008560295, 0.0001920804, 0.005716047, 0.0002192769, 4.315504E-05
PRX, 87630918, 2, 0.56, 0, 0.7, 0, 3.6, 0, 2.35, 0, 0, 0, 0.56
IMU, 87650519, -0.001033432, -0.0004398634, 0.000804916, 0.2173757, -0.04216788, -9.844089, 0, 0, 37.36785, 1, 1, 1000, 1000
RFND, 87680443, 0.2, 25, 0, 0
IMU, 87690535, -0.0008303024, 0.000581079, -3.451868E-05, 0.2223071, -0.04849973, -9.826769, 0, 0, 37.36778, 1, 1, 1000, 1000
MAG, 87730506, 388, 516, 329, 0, 0, 0, 0, 0, 0, 1, 87730497
RFND, 87730541, 0.2, 25, 0, 0
BARO, 87730579, 0.1152342, 993.3666, 35.43, 0.1467364, 87730, 0, 33.35
CTUN, 87730592, 0, 0, 0, 0.2293798, 0.06767753, 0.06767753, 0.11, 0, 0.19, 0, 0, 0
ATT, 87730672, 0, 0.8, 0, 0.54, 155.4, 155.42, 0, 1
RATE, 87730678, -3.634151, 0.06240354, -0.008920142, -2.442713, 0.07355804, -0.00599635, 0.01701388, 0.03153175, 0.0001119849, -195.0349, -2.667999, 0
NKF1, 87730686, 0.8, 0.54, 155.42, 0.01371348, -0.01223171, -0.004815677, 0, 0, 0, -0.06767753, -0.01, 0.02, 0
NKF2, 87730686, -2, 0, 0, 0, 0, 0, 0, 0, 0, 0, 0, 0, 0
NKF3, 87730686, 0, 0, 0, 0.01, -0.01, 0, 0, 0, 0, 0, 0
NKF4, 87730686, 0, 0, 0, 0, 0, 1.231714E-06, 0, 0, 0, 19, 229, 0, 0
NKF5, 87730686, 0, 0, 0, 0, 0.2, 0.13, 0, 0.19, 0.5, 3.84942E-05, 0.0009356597, 0.001926245
NKQ1, 87730686, 0.2128712, -0.01082142, 0.004920341, 0.9770079
AHR2, 87730731, 0.81, 0.56, 155.45, 0.11, 0, 0, 0.2126203, -0.003337451, 0.007969159, 0.9770967
MOTB, 87730738, 1, 1, 0, 1
RCIN, 87730743, 0, 0, 0, 0, 0, 0, 0, 0, 0, 0, 0, 0, 0, 0
RCOU, 87730748, 1101, 1101, 1101, 1101, 0, 0, 0, 0, 0, 0, 0, 0, 0, 0
VIBE, 87730756, 0.02147304, 0.01954251, 0.03830869, 0, 0, 0
CTRL, 87730762, 0.008550027, 0.0001804589, 0.005745469, 0.0002041924, 5.709117E-05
PRX, 87730793, 2, 0.56, 0, 0.7, 0, 3.6, 0, 2.35, 0, 0, 0, 0.56
IMU, 87730800, 0.0007670732, 0.001692902, 0.0005510533, 0.2174221, -0.04182665, -9.80023, 0, 0, 37.36819, 1, 1, 1000, 1000
IMU, 87770918, -0.0009763553, 0.0007378592, 0.0008514358, 0.2110515, -0.04350707, -9.835354, 0, 0, 37.36856, 1, 1, 1000, 1000
RFND, 87780441, 0.2, 25, 0, 0
IMU, 87810911, -0.0007517788, -0.0008686052, -0.0002380595, 0.2254024, -0.04115187, -9.824898, 0, 0, 37.36908, 1, 1, 1000, 1000
MAG, 87830391, 392, 515, 335, 0, 0, 0, 0, 0, 0, 1, 87830383
RFND, 87830426, 0.2, 25, 0, 0
BARO, 87830464, 0.157393, 993.3619, 35.43, -0.1317464, 87830, 0, 33.35
CTUN, 87830478, 0, 0, 0, 0.2293798, 0.0680054, 0.0680054, 0.15, 0, 0.19, 0, 0, 0
ATT, 87830574, 0, 0.8, 0, 0.54, 155.41, 155.42, 0, 1
RATE, 87830581, -3.626703, -0.08826756, -0.008125459, -2.432657, 0.01070552, -0.005848939, 0.01604571, 0.02492589, -2.153403E-05, -207.1802, 0.2043724, 0
NKF1, 87830589, 0.8, 0.54, 155.42, 0.01428262, -0.01265621, -0.005115561, 0, 0, 0, -0.0680054, -0.01, 0.02, 0
NKF2, 87830589, -2, 0, 0, 0, 0, 0, 0, 0, 0, 0, 0, 0, 0
NKF3, 87830589, 0, 0, 0, 0.01, -0.01, 0, 0, 0, 0, 0, 0
NKF4, 87830589, 0, 0, 0, 0, 0, 9.137057E-07, 0, 0, 0, 19, 229, 0, 0
NKF5, 87830589, 0, 0, 0, 0, 0.2, 0.13, 0, 0.19, 0.5, 3.879345E-05, 0.0009121145, 0.001878827
NKQ1, 87830589, 0.2128352, -0.01080543, 0.004901793, 0.9770161
AHR2, 87830635, 0.8, 0.56, 155.45, 0.15, 0, 0, 0.2125833, -0.003313625, 0.007949254, 0.977105
MOTB, 87830642, 1, 1, 0, 1
RCIN, 87830646, 0, 0, 0, 0, 0, 0, 0, 0, 0, 0, 0, 0, 0, 0
RCOU, 87830652, 1101, 1101, 1101, 1101, 0, 0, 0, 0, 0, 0, 0, 0, 0, 0
VIBE, 87830661, 0.02198164, 0.02069309, 0.03162181, 0, 0, 0
CTRL, 87830667, 0.008546822, 0.0001738221, 0.005729409, 0.0002084656, 5.441379E-05
PRX, 87830698, 2, 0.56, 0, 0.7, 0, 3.6, 0, 2.34, 0, 0, 0, 0.56
IMU, 87850427, -0.0008434851, -0.000913456, -0.0004715761, 0.2276817, -0.05407966, -9.840882, 0, 0, 37.36893, 1, 1, 1000, 1000
RFND, 87880360, 0.2, 25, 0, 0
IMU, 87890390, 0.0002976172, 0.0005535578, -0.0004288505, 0.207459, -0.05087709, -9.843753, 0, 0, 37.3688, 1, 1, 1000, 1000
MAG, 87930538, 389, 510, 332, 0, 0, 0, 0, 0, 0, 1, 87930529
RFND, 87930572, 0.2, 25, 0, 0
BARO, 87930608, 0.2641954, 993.35, 35.43, -0.1809317, 87930, 0, 33.35
CTUN, 87930622, 0, 0, 0, 0.2293798, 0.06838402, 0.06838402, 0.26, 0, 0.19, 0, 0, 0
DU32, 87930656, 7, 50389208
ATT, 87930756, 0, 0.8, 0, 0.53, 155.41, 155.42, 0, 1
RATE, 87930763, -3.630367, -0.01117648, -0.008421122, -2.412434, -0.1141603, -0.0054775, 0.0187273, 0.01778657, 7.916061E-05, -232.8635, 0.60606, 0
NKF1, 87930771, 0.8, 0.53, 155.42, 0.0154938, -0.01305241, -0.005749715, 0, 0, 0, -0.06838402, -0.01, 0.02, 0
NKF2, 87930771, -2, 0, 0, 0, 0, 0, 0, 0, 0, 0, 0, 0, 0
NKF3, 87930771, 0, 0, 0, 0.01, -0.01, 0, 0, 0, 0, 0, 0
NKF4, 87930771, 0, 0, 0, 0, 0, 7.151586E-07, 0, 0, 0, 19, 229, 0, 0
NKF5, 87930771, 0, 0, 0, 0, 0.2, 0.13, 0, 0.19, 0.5, 3.826446E-05, 0.0009001086, 0.001891618
NKQ1, 87930771, 0.2128567, -0.01076515, 0.00490039, 0.9770119
AHR2, 87930818, 0.8, 0.55, 155.45, 0.26, 0, 0, 0.2126038, -0.003265361, 0.007943545, 0.9771008
MOTB, 87930825, 1, 1, 0, 1
RCIN, 87930830, 0, 0, 0, 0, 0, 0, 0, 0, 0, 0, 0, 0, 0, 0
RCOU, 87930835, 1101, 1101, 1101, 1101, 0, 0, 0, 0, 0, 0, 0, 0, 0, 0
VIBE, 87930843, 0.02081725, 0.01944257, 0.03267801, 0, 0, 0
CTRL, 87930849, 0.008549729, 0.0001674339, 0.005690845, 0.0002186947, 5.819886E-05
PRX, 87930880, 2, 0.57, 0, 0.7, 0, 3.6, 0, 2.36, 0, 0, 0, 0.57
IMU, 87930887, -0.0005180702, -0.001582214, 0.0003111557, 0.2187999, -0.04392415, -9.833003, 0, 0, 37.36964, 1, 1, 1000, 1000
IMU, 87970495, 0.0009191166, 0.001272846, -0.0002066347, 0.2118139, -0.05703071, -9.831171, 0, 0, 37.37014, 1, 1, 1000, 1000
RFND, 87980475, 0.2, 25, 0, 0
IMU, 88010539, 0.0002376702, 0.001356987, 0.0003568965, 0.2276001, -0.0460116, -9.845695, 0, 0, 37.36943, 1, 1, 1000, 1000
MAG, 88030449, 392, 514, 332, 0, 0, 0, 0, 0, 0, 1, 88030441
RFND, 88030484, 0.2, 25, 0, 0
BARO, 88030522, 0.2136048, 993.3555, 35.43, 0.1115452, 88030, 0, 33.35
CTUN, 88030534, 0, 0, 0, 0.2293798, 0.06878924, 0.06878924, 0.21, 0, 0.19, 0, 0, 0
ATT, 88030643, 0, 0.8, 0, 0.53, 155.41, 155.42, 0, 1
RATE, 88030650, -3.630787, -0.05483237, -0.008419914, -2.41837, 0.03059991, -0.005728887, 0.01650666, 0.007303254, 2.082283E-05, -276.2162, 1.899624, 0
NKF1, 88030657, 0.8, 0.53, 155.42, 0.01644872, -0.013192, -0.006820153, 0, 0, 0, -0.06878924, -0.01, 0.02, 0
NKF2, 88030657, -2, 0, 0, 0, 0, 0, 0, 0, 0, 0, 0, 0, 0
NKF3, 88030657, 0, 0, 0, 0.01, -0.01, 0, 0, 0, 0, 0, 0
NKF4, 88030657, 0, 0, 0, 0, 0, 6.011484E-07, 0, 0, 0, 19, 229, 0, 0
NKF5, 88030657, 0, 0, 0, 0, 0.2, 0.13, 0, 0.19, 0.5, 3.788715E-05, 0.0008609371, 0.001801564
NKQ1, 88030657, 0.2128483, -0.01077582, 0.004903347, 0.9770135
AHR2, 88030703, 0.8, 0.55, 155.45, 0.21, 0, 0, 0.2125947, -0.003266951, 0.007943396, 0.9771028
MOTB, 88030711, 1, 1, 0, 1
RCIN, 88030715, 0, 0, 0, 0, 0, 0, 0, 0, 0, 0, 0, 0, 0, 0
RCOU, 88030720, 1101, 1101, 1101, 1101, 0, 0, 0, 0, 0, 0, 0, 0, 0, 0
VIBE, 88030729, 0.02190078, 0.01874046, 0.0339242, 0, 0, 0
CTRL, 88030736, 0.008545236, 0.0001913216, 0.005691219, 0.0002359242, 5.976947E-05
PRX, 88030766, 2, 0.57, 0, 0.7, 0, 3.6, 0, 2.34, 0, 0, 0, 0.57
IMU, 88050581, -0.0001248917, 0.001195517, -0.0006400205, 0.2233061, -0.05886841, -9.84772, 0, 0, 37.36853, 1, 1, 1000, 1000
RFND, 88080468, 0.2, 25, 0, 0
IMU, 88090534, -0.0003536879, 0.0009733717, 0.0001813827, 0.2171393, -0.05592147, -9.823835, 0, 0, 37.36778, 1, 1, 1000, 1000
MAG, 88130412, 385, 516, 331, 0, 0, 0, 0, 0, 0, 1, 88130404
RFND, 88130447, 0.2, 25, 0, 0
BARO, 88130484, 0.1967413, 993.3574, 35.44, 0.3434188, 88130, 0, 33.35
CTUN, 88130498, 0, 0, 0, 0.2293798, 0.06927801, 0.06927801, 0.19, 0, 0.19, 0, 0, 0
ATT, 88130596, 0, 0.8, 0, 0.54, 155.41, 155.42, 0, 1
RATE, 88130602, -3.641051, 0.06385408, -0.009043812, -2.430779, 0.051076, -0.005920019, 0.01652967, 0.008471802, -2.973E-05, -292.9892, -0.2293587, 0
NKF1, 88130610, 0.8, 0.54, 155.42, 0.01760959, -0.01320551, -0.007234301, 0, 0, 0, -0.06927801, -0.01, 0.02, 0
NKF2, 88130610, -2, 0, 0, 0, 0, 0, 0, 0, 0, 0, 0, 0, 0
NKF3, 88130610, 0, 0, 0, 0.01, -0.01, 0, 0, 0, 0, 0, 0
NKF4, 88130610, 0, 0, 0, 0, 0, 5.473358E-07, 0, 0, 0, 19, 229, 0, 0
NKF5, 88130610, 0, 0, 0, 0, 0.2, 0.13, 0, 0.19, 0.5, 3.714865E-05, 0.0008426852, 0.001801858
NKQ1, 88130610, 0.212823, -0.01079542, 0.004928041, 0.9770188
AHR2, 88130656, 0.81, 0.56, 155.45, 0.19, 0, 0, 0.212569, -0.003275007, 0.007967555, 0.9771081
MOTB, 88130664, 1, 1, 0, 1
RCIN, 88130668, 0, 0, 0, 0, 0, 0, 0, 0, 0, 0, 0, 0, 0, 0
RCOU, 88130673, 1101, 1101, 1101, 1101, 0, 0, 0, 0, 0, 0, 0, 0, 0, 0
VIBE, 88130682, 0.02092754, 0.01778516, 0.03409562, 0, 0, 0
CTRL, 88130687, 0.008559423, 0.000173953, 0.005719041, 0.0002069006, 5.291848E-05
PRX, 88130719, 2, 0.57, 0, 0.7, 0, 3.6, 0, 2.36, 0, 0, 0, 0.57
IMU, 88130725, 0.0007908061, 0.001302544, 0.0001485825, 0.2215614, -0.05787182, -9.824562, 0, 0, 37.36773, 1, 1, 1000, 1000
IMU, 88170435, -0.00104112, 0.001329125, 0.0002328367, 0.2241957, -0.04696459, -9.83513, 0, 0, 37.36783, 1, 1, 1000, 1000
RFND, 88180659, 0.2, 25, 0, 0
IMU, 88210647, -0.0008771372, 0.001590187, 0.000757238, 0.2139207, -0.06623374, -9.822754, 0, 0, 37.36775, 1, 1, 1000, 1000
MAG, 88230415, 383, 509, 328, 0, 0, 0, 0, 0, 0, 1, 88230407
RFND, 88230448, 0.2, 25, 0, 0
BARO, 88230484, 0.05340119, 993.3734, 35.44, 0.170392, 88230, 0, 33.35
CTUN, 88230497, 0, 0, 0, 0.2293798, 0.06981151, 0.06981151, 0.05, 0, 0.19, 0, 0, 0
ATT, 88230568, 0, 0.8, 0, 0.54, 155.41, 155.42, 0, 1
RATE, 88230574, -3.636644, 0.01269526, -0.008673576, -2.443871, -0.005819866, -0.005459519, 0.01456267, 0.008369187, -1.867063E-05, -338.6746, 2.735519, 0
NKF1, 88230582, 0.8, 0.54, 155.42, 0.0188522, -0.01329271, -0.008362336, 0, 0, 0, -0.06981151, -0.01, 0.02, 0
NKF2, 88230582, -2, 0, 0, 0, 0, 0, 0, 0, 0, 0, 0, 0, 0
NKF3, 88230582, 0, 0, 0, 0.01, -0.01, 0, 0, 0, 0, 0, 0
NKF4, 88230582, 0, 0, 0, 0, 0, 5.271965E-07, 0, 0, 0, 19, 229, 0, 0
NKF5, 88230582, 0, 0, 0, 0, 0.2, 0.13, 0, 0.19, 0.5, 3.672326E-05, 0.0007970231, 0.001684293
NKQ1, 88230582, 0.2128013, -0.01082225, 0.00492511, 0.9770232
AHR2, 88230625, 0.81, 0.56, 155.45, 0.05, 0, 0, 0.2125467, -0.003289603, 0.007964842, 0.9771129
MOTB, 88230633, 1, 1, 0, 1
RCIN, 88230637, 0, 0, 0, 0, 0, 0, 0, 0, 0, 0, 0, 0, 0, 0
RCOU, 88230642, 1101, 1101, 1101, 1101, 0, 0, 0, 0, 0, 0, 0, 0, 0, 0
VIBE, 88230650, 0.02218143, 0.01949773, 0.03195683, 0, 0, 0
CTRL, 88230657, 0.008557245, 0.0001656787, 0.005760526, 0.0001924243, 4.482495E-05
PRX, 88230687, 2, 0.56, 0, 0.7, 0, 3.6, 0, 2.36, 0, 0, 0, 0.56
IMU, 88250445, -0.00149426, -0.0009418322, 0.0009371058, 0.2265578, -0.05592574, -9.828968, 0, 0, 37.36775, 1, 1, 1000, 1000
RFND, 88280402, 0.2, 25, 0, 0
IMU, 88291295, -0.001171264, 0.0006453334, -0.0005548181, 0.2177681, -0.05368188, -9.847988, 0, 0, 37.36811, 1, 1, 1000, 1000
MAG, 88330683, 388, 515, 331, 0, 0, 0, 0, 0, 0, 1, 88330675
RFND, 88330713, 0.2, 25, 0, 0
BARO, 88330751, 0.005621179, 993.3787, 35.44, -0.2696409, 88330, 0, 33.35
CTUN, 88330765, 0, 0, 0, 0.2293798, 0.07033334, 0.07033334, 0, 0, 0.19, 0, 0, 0
ATT, 88330841, 0, 0.8, 0, 0.54, 155.41, 155.42, 0, 1
RATE, 88330847, -3.619366, 0.02960753, -0.008739306, -2.438696, -0.04857941, -0.005660638, 0.01674504, -0.05938536, 4.38367E-05, -360.3944, 1.103878, 0
NKF1, 88330855, 0.8, 0.54, 155.42, 0.01923656, -0.0135705, -0.008898627, 0, 0, 0, -0.07033334, -0.01, 0.02, 0
NKF2, 88330855, -2, 0, 0, 0, 0, 0, 0, 0, 0, 0, 0, 0, 0
NKF3, 88330855, 0, 0, 0, 0.02, -0.01, 0, 0, 0, 0, 0, 0
NKF4, 88330855, 0, 0, 0, 0, 0, 5.513219E-07, 0, 0, 0, 19, 229, 0, 0
NKF5, 88330855, 0, 0, 0, 0, 0.2, 0.13, 0, 0.19, 0.5, 3.610698E-05, 0.0007779736, 0.001683139
NKQ1, 88330855, 0.2127986, -0.01081744, 0.004890799, 0.977024
AHR2, 88330901, 0.8, 0.55, 155.46, 0, 0, 0, 0.212543, -0.003270319, 0.007933304, 0.9771141
MOTB, 88330909, 1, 1, 0, 1
RCIN, 88330913, 0, 0, 0, 0, 0, 0, 0, 0, 0, 0, 0, 0, 0, 0
RCOU, 88330919, 1101, 1101, 1101, 1101, 0, 0, 0, 0, 0, 0, 0, 0, 0, 0
VIBE, 88330927, 0.02089345, 0.02025853, 0.03313835, 0, 0, 0
CTRL, 88330934, 0.008519446, 0.0001722529, 0.005739727, 0.0002300457, 4.358787E-05
PRX, 88330964, 2, 0.56, 0, 0.7, 0, 3.6, 0, 2.36, 0, 0, 0, 0.56
IMU, 88330971, 0.0001925868, -0.0004361197, -0.001035749, 0.2227727, -0.04625322, -9.837967, 0, 0, 37.3697, 1, 1, 1000, 1000
IMU, 88370510, 0.0003632212, -0.0001720789, 0.0001160006, 0.2167264, -0.04139755, -9.821825, 0, 0, 37.3721, 1, 1, 1000, 1000
RFND, 88380502, 0.2, 25, 0, 0
IMU, 88410498, -0.000396776, 0.0003051434, 0.0002179709, 0.2181656, -0.05466365, -9.821821, 0, 0, 37.37459, 1, 1, 1000, 1000
MAG, 88430479, 383, 512, 325, 0, 0, 0, 0, 0, 0, 1, 88430470
RFND, 88430509, 0.2, 25, 0, 0
BARO, 88430549, 0.09274945, 993.3689, 35.45, -0.5937369, 88430, 0, 33.35
CTUN, 88430562, 0, 0, 0, 0.2293798, 0.07091909, 0.07091909, 0.09, 0, 0.19, 0, 0, 0
ATT, 88430638, 0, 0.8, 0, 0.54, 155.41, 155.42, 0, 1
RATE, 88430644, -3.615673, -0.02686125, -0.008407765, -2.442547, 0.06615683, -0.006059289, 0.01710624, -0.0123444, 6.716026E-05, -325.2945, -1.034832, 0
NKF1, 88430651, 0.8, 0.54, 155.42, 0.02052082, -0.01422047, -0.008031963, 0, 0, 0, -0.07091909, -0.01, 0.02, 0
NKF2, 88430651, -2, 0, 0, 0, 0, 0, 0, 0, 0, 0, 0, 0, 0
NKF3, 88430651, 0, 0, 0, 0.02, -0.01, 0, 0, 0, 0, 0, 0
NKF4, 88430651, 0, 0, 0, 0, 0, 5.775867E-07, 0, 0, 0, 19, 229, 0, 0
NKF5, 88430651, 0, 0, 0, 0, 0.2, 0.13, 0, 0.19, 0.5, 3.605404E-05, 0.0007310334, 0.001551276
NKQ1, 88430651, 0.2128037, -0.01082736, 0.004884092, 0.9770228
AHR2, 88430696, 0.8, 0.55, 155.45, 0.09, 0, 0, 0.2125474, -0.003266851, 0.007928276, 0.9771132
MOTB, 88430704, 1, 1, 0, 1
RCIN, 88430708, 0, 0, 0, 0, 0, 0, 0, 0, 0, 0, 0, 0, 0, 0
RCOU, 88430713, 1101, 1101, 1101, 1101, 0, 0, 0, 0, 0, 0, 0, 0, 0, 0
VIBE, 88430721, 0.02119885, 0.02057033, 0.03152753, 0, 0, 0
CTRL, 88430728, 0.008513846, 0.0001543263, 0.00573737, 0.0002043423, 5.366736E-05
PRX, 88430759, 2, 0.56, 0, 0.7, 0, 3.6, 0, 2.33, 0, 0, 0, 0.56
IMU, 88450516, -0.001065093, 0.001041039, 2.488323E-05, 0.1992378, -0.04651638, -9.818628, 0, 0, 37.37739, 1, 1, 1000, 1000
RFND, 88480362, 0.2, 25, 0, 0
IMU, 88490621, -0.0004247266, 0.000498092, 5.638721E-05, 0.2231591, -0.04906047, -9.81628, 0, 0, 37.38016, 1, 1, 1000, 1000
MAG, 88530567, 390, 514, 329, 0, 0, 0, 0, 0, 0, 1, 88530532
RFND, 88530599, 0.2, 25, 0, 0
BARO, 88530639, 0.2136048, 993.3554, 35.45, -0.4655038, 88530, 0, 33.35
CTUN, 88530651, 0, 0, 0, 0.2293798, 0.0712747, 0.0712747, 0.21, 0, 0.19, 0, 0, 0
ATT, 88530729, 0, 0.8, 0, 0.54, 155.41, 155.42, 0, 1
RATE, 88530735, -3.616781, 0.04135133, -0.008804644, -2.457101, 0.07704075, -0.00593156, 0.01886592, 0.004573875, 4.623669E-05, -294.6919, 0.4524231, 0
NKF1, 88530743, 0.8, 0.54, 155.42, 0.02182982, -0.01447605, -0.007276343, 0, 0, 0, -0.0712747, -0.01, 0.02, 0
NKF2, 88530743, -2, 0, 0, 0, 0, 0, 0, 0, 0, 0, 0, 0, 0
NKF3, 88530743, 0, 0, 0, 0.02, -0.02, 0, 0, 0, 0, 0, 0
NKF4, 88530743, 0, 0, 0, 0, 0, 6.506614E-07, 0, 0, 0, 19, 229, 0, 0
NKF5, 88530743, 0, 0, 0, 0, 0.2, 0.13, 0, 0.19, 0.5, 3.542071E-05, 0.0007154584, 0.001562704
NKQ1, 88530743, 0.2127986, -0.01085539, 0.004892866, 0.9770236
AHR2, 88530788, 0.8, 0.56, 155.46, 0.21, 0, 0, 0.2125417, -0.003284896, 0.007934734, 0.9771143
MOTB, 88530795, 1, 1, 0, 1
RCIN, 88530800, 0, 0, 0, 0, 0, 0, 0, 0, 0, 0, 0, 0, 0, 0
RCOU, 88530805, 1101, 1101, 1101, 1101, 0, 0, 0, 0, 0, 0, 0, 0, 0, 0
VIBE, 88530813, 0.02022855, 0.02052931, 0.03332743, 0, 0, 0
CTRL, 88530820, 0.008508228, 0.0001410748, 0.005777403, 0.0001953077, 5.569874E-05
PRX, 88530850, 2, 0.56, 0, 0.7, 0, 3.6, 0, 2.35, 0, 0, 0, 0.56
IMU, 88530857, 0.0003972157, 0.001756811, 8.054889E-05, 0.2180447, -0.06017907, -9.83152, 0, 0, 37.38207, 1, 1, 1000, 1000
IMU, 88570623, -0.001099509, 0.0004507045, -0.0003099442, 0.2205988, -0.04926251, -9.848001, 0, 0, 37.38395, 1, 1, 1000, 1000
RFND, 88580405, 0.2, 25, 0, 0
IMU, 88610500, -0.0004777884, -0.0001534686, 0.0004624232, 0.2158893, -0.04546355, -9.828646, 0, 0, 37.38591, 1, 1, 1000, 1000
MAG, 88630465, 384, 520, 333, 0, 0, 0, 0, 0, 0, 1, 88630455
RFND, 88630494, 0.2, 25, 0, 0
BARO, 88630534, 0.2136048, 993.3555, 35.45, 0.08256105, 88630, 0, 33.35
CTUN, 88630576, 0, 0, 0, 0.2293798, 0.07167242, 0.07167242, 0.21, 0, 0.19, 0, 0, 0
ATT, 88630653, 0, 0.8, 0, 0.54, 155.41, 155.43, 0, 1
RATE, 88630658, -3.606023, -0.1080176, -0.00804001, -2.464842, -0.004907284, -0.00589083, 0.01649171, 0.0157296, 1.817961E-05, -299.2592, -0.3011703, 0
NKF1, 88630666, 0.8, 0.54, 155.43, 0.02255872, -0.01532556, -0.007389116, 0, 0, 0, -0.07167242, -0.01, 0.02, 0
NKF2, 88630666, -2, 0, 0, 0, 0, 0, 0, 0, 0, 0, 0, 0, 0
NKF3, 88630666, 0, 0, 0, 0.02, -0.02, 0, 0, 0, 0, 0, 0
NKF4, 88630666, 0, 0, 0, 0, 0, 7.148603E-07, 0, 0, 0, 19, 229, 0, 0
NKF5, 88630666, 0, 0, 0, 0, 0.2, 0.13, 0, 0.19, 0.5, 3.493417E-05, 0.0007394382, 0.001707884
NKQ1, 88630666, 0.2127864, -0.01087488, 0.004875356, 0.9770261
AHR2, 88630712, 0.8, 0.56, 155.46, 0.21, 0, 0, 0.2125288, -0.003293981, 0.007915063, 0.9771172
MOTB, 88630720, 1, 1, 0, 1
RCIN, 88630724, 0, 0, 0, 0, 0, 0, 0, 0, 0, 0, 0, 0, 0, 0
RCOU, 88630729, 1101, 1101, 1101, 1101, 0, 0, 0, 0, 0, 0, 0, 0, 0, 0
VIBE, 88630738, 0.02004187, 0.01923833, 0.03721955, 0, 0, 0
CTRL, 88630744, 0.008500124, 0.0001810628, 0.005798184, 0.0001833947, 5.054029E-05
PRX, 88630774, 2, 0.57, 0, 0.7, 0, 3.6, 0, 2.34, 0, 0, 0, 0.57
IMU, 88650510, -0.0008745929, -0.0003733712, -0.000136843, 0.2169239, -0.03804716, -9.817902, 0, 0, 37.38714, 1, 1, 1000, 1000
RFND, 88680442, 0.2, 25, 0, 0
IMU, 88690538, -0.0002535789, -0.0001128509, 0.0002553045, 0.2097918, -0.05528427, -9.842593, 0, 0, 37.38866, 1, 1, 1000, 1000
MAG, 88730822, 389, 521, 331, 0, 0, 0, 0, 0, 0, 1, 88730813
RFND, 88730852, 0.2, 25, 0, 0
BARO, 88730891, 0.1995518, 993.3572, 35.45, 0.5261071, 88730, 0, 33.35
CTUN, 88730905, 0, 0, 0, 0.2293798, 0.07194392, 0.07194392, 0.19, 0, 0.19, 0, 0, 0
ATT, 88730979, 0, 0.8, 0, 0.54, 155.41, 155.43, 0, 1
RATE, 88730984, -3.600805, -0.01920918, -0.008648177, -2.466036, 0.04780202, -0.005787704, 0.01711417, 0.0554162, 5.642991E-05, -277.6415, -1.349449, 0
NKF1, 88730991, 0.8, 0.54, 155.43, 0.02419508, -0.01609516, -0.006855345, 0, 0, 0, -0.07194392, -0.01, 0.02, 0
NKF2, 88730991, -2, 0, 0, 0, 0, 0, 0, 0, 0, 0, 0, 0, 0
NKF3, 88730991, 0, 0, 0, 0.02, -0.02, 0, 0, 0, 0, 0, 0
NKF4, 88730991, 0, 0, 0, 0, 0, 8.146254E-07, 0, 0, 0, 19, 229, 0, 0
NKF5, 88730991, 0, 0, 0, 0, 0.2, 0.13, 0, 0.19, 0.5, 3.505829E-05, 0.0006564526, 0.001449816
NKQ1, 88730991, 0.2127789, -0.0108803, 0.004864777, 0.9770277
AHR2, 88731036, 0.8, 0.56, 155.46, 0.19, 0, 0, 0.2125204, -0.003287671, 0.007902331, 0.9771191
MOTB, 88731043, 1, 1, 0, 1
RCIN, 88731047, 0, 0, 0, 0, 0, 0, 0, 0, 0, 0, 0, 0, 0, 0
RCOU, 88731052, 1101, 1101, 1101, 1101, 0, 0, 0, 0, 0, 0, 0, 0, 0, 0
VIBE, 88731152, 0.0201212, 0.02019397, 0.03139587, 0, 0, 0
CTRL, 88731163, 0.008480058, 0.0001948473, 0.005802822, 0.0001767957, 4.586337E-05
PRX, 88731195, 2, 0.57, 0, 0.7, 0, 3.6, 0, 2.34, 0, 0, 0, 0.57
IMU, 88731203, -0.0006600089, 0.001246827, 0.0009679128, 0.2077514, -0.05117145, -9.813803, 0, 0, 37.38988, 1, 1, 1000, 1000
IMU, 88770528, -0.0007805325, 0.0002785566, -0.0005504304, 0.2199109, -0.04846054, -9.834231, 0, 0, 37.39066, 1, 1, 1000, 1000
RFND, 88780919, 0.2, 25, 0, 0
IMU, 88811045, -0.000663909, 0.0007265307, 0.0007652126, 0.2236795, -0.04720793, -9.821985, 0, 0, 37.38986, 1, 1, 1000, 1000
MAG, 88830491, 385, 515, 329, 0, 0, 0, 0, 0, 0, 1, 88830483
RFND, 88830522, 0.2, 25, 0, 0
BARO, 88830560, 0.1489612, 993.3627, 35.45, 0.4611123, 88830, 0, 33.35
CTUN, 88830573, 0, 0, 0, 0.2293798, 0.07219686, 0.07219686, 0.14, 0, 0.19, 0, 0, 0
ATT, 88830653, 0, 0.79, 0, 0.54, 155.42, 155.43, 0, 1
RATE, 88830659, -3.599003, 0.01398981, -0.008619807, -2.468664, -0.02554021, -0.005542692, 0.01491658, 0.03061679, 4.195285E-06, -260.3391, -1.84803, 0
NKF1, 88830666, 0.79, 0.54, 155.43, 0.02514816, -0.01636977, -0.006428125, 0, 0, 0, -0.07219686, -0.01, 0.02, 0
NKF2, 88830666, -2, 0, 0, 0, 0, 0, 0, 0, 0, 0, 0, 0, 0
NKF3, 88830666, 0, 0, 0, 0.03, -0.02, 0, 0, 0, 0, 0, 0
NKF4, 88830666, 0, 0, 0, 0, 0, 9.141373E-07, 0, 0, 0, 19, 229, 0, 0
NKF5, 88830666, 0, 0, 0, 0, 0.2, 0.13, 0, 0.19, 0.5, 3.450773E-05, 0.0006856842, 0.001613259
NKQ1, 88830666, 0.2127639, -0.01088525, 0.004862355, 0.977031
AHR2, 88830711, 0.8, 0.55, 155.46, 0.14, 0, 0, 0.2125047, -0.003280903, 0.007897643, 0.9771227
MOTB, 88830718, 1, 1, 0, 1
RCIN, 88830723, 0, 0, 0, 0, 0, 0, 0, 0, 0, 0, 0, 0, 0, 0
RCOU, 88830728, 1101, 1101, 1101, 1101, 0, 0, 0, 0, 0, 0, 0, 0, 0, 0
VIBE, 88830737, 0.01742096, 0.02260934, 0.0327932, 0, 0, 0
CTRL, 88830743, 0.00846948, 0.0001651919, 0.005820121, 0.0001621046, 4.168445E-05
PRX, 88830774, 2, 0.57, 0, 0.7, 0, 3.6, 0, 2.36, 0, 0, 0, 0.57
IMU, 88850541, -0.001344148, 0.0008284506, 1.921627E-05, 0.2156246, -0.04530793, -9.835203, 0, 0, 37.38925, 1, 1, 1000, 1000
RFND, 88880829, 0.2, 25, 0, 0
IMU, 88890477, -0.0008044723, 0.0001353593, 4.30656E-05, 0.2213767, -0.0495449, -9.828641, 0, 0, 37.38945, 1, 1, 1000, 1000
MAG, 88930479, 387, 516, 331, 0, 0, 0, 0, 0, 0, 1, 88930470
RFND, 88930511, 0.2, 25, 0, 0
BARO, 88930580, 0.09837063, 993.3683, 35.46, 0.07729121, 88930, 0, 33.35
CTUN, 88930593, 0, 0, 0, 0.2293798, 0.07238269, 0.07238269, 0.09, 0, 0.19, 0, 0, 0
DU32, 88930628, 7, 50389208
ATT, 88930730, 0, 0.79, 0, 0.54, 155.42, 155.43, 0, 1
RATE, 88930736, -3.594567, 0.05382595, -0.008823994, -2.465491, -0.03656857, -0.005568884, 0.01763673, -0.002154251, 3.087286E-05, -272.6884, 0.2082825, 0
NKF1, 88930744, 0.79, 0.54, 155.43, 0.0264658, -0.0168434, -0.006733048, 0, 0, 0, -0.07238269, -0.01, 0.02, 0
NKF2, 88930744, -2, 0, 0, 0, 0, 0, 0, 0, 0, 0, 0, 0, 0
NKF3, 88930744, 0, 0, 0, 0.03, -0.02, 0, 0, 0, 0, 0, 0
NKF4, 88930744, 0, 0, 0, 0, 0, 1.031201E-06, 0, 0, 0, 19, 229, 0, 0
NKF5, 88930744, 0, 0, 0, 0, 0.2, 0.13, 0, 0.19, 0.5, 3.474822E-05, 0.0005975308, 0.001326344
NKQ1, 88930744, 0.2127629, -0.01088039, 0.004853795, 0.9770312
AHR2, 88930790, 0.8, 0.55, 155.46, 0.09, 0, 0, 0.212503, -0.00326254, 0.007886462, 0.9771232
MOTB, 88930798, 1, 1, 0, 1
RCIN, 88930802, 0, 0, 0, 0, 0, 0, 0, 0, 0, 0, 0, 0, 0, 0
RCOU, 88930808, 1101, 1101, 1101, 1101, 0, 0, 0, 0, 0, 0, 0, 0, 0, 0
VIBE, 88930816, 0.01900684, 0.02113672, 0.03165705, 0, 0, 0
CTRL, 88930822, 0.008458045, 0.0001640812, 0.005807036, 0.0001588615, 3.528086E-05
PRX, 88930853, 2, 0.56, 0, 0.7, 0, 3.6, 0, 2.35, 0, 0, 0, 0.56
IMU, 88930860, 0.0006145405, -0.0002254999, -3.688435E-05, 0.2056157, -0.05450779, -9.829433, 0, 0, 37.38923, 1, 1, 1000, 1000
IMU, 88970513, -0.001077334, 0.0009853328, 0.0007736596, 0.2248688, -0.03793739, -9.824827, 0, 0, 37.38896, 1, 1, 1000, 1000
RFND, 88980479, 0.2, 25, 0, 0
EV, 89000153, 57
IMU, 89010525, -4.220022E-05, -0.0008359852, 0.001039056, 0.2151611, -0.05294563, -9.837817, 0, 0, 37.3887, 1, 1, 1000, 1000
MAG, 89030551, 389, 517, 329, 0, 0, 0, 0, 0, 0, 1, 89030543
RFND, 89030582, 0.2, 25, 0, 0
BARO, 89030621, 0.1911201, 993.3582, 35.46, -0.2143074, 89030, 0, 33.35
CTUN, 89030634, 0, 0, 0, 0.2293798, 0.07252268, 0.07252268, 0.19, 0, 0.19, 0, 0, 0
ATT, 89030711, 0, 0.79, 0, 0.54, 155.42, 155.43, 0, 1
RATE, 89030717, -3.592071, -0.06760579, -0.008027402, -2.47234, 0.05177439, -0.006255797, 0.0171988, 0.08096776, -8.039081E-05, -278.8225, -0.1028061, 0
NKF1, 89030724, 0.79, 0.54, 155.43, 0.02758401, -0.0173825, -0.006884506, 0, 0, 0, -0.07252268, -0.01, 0.02, 0
NKF2, 89030724, -2, 0, 0, 0, 0, 0, 0, 0, 0, 0, 0, 0, 0
NKF3, 89030724, 0, 0, 0, 0.03, -0.02, 0, 0, 0, 0, 0, 0
NKF4, 89030724, 0, 0, 0, 0, 0, 1.168703E-06, 0, 0, 0, 19, 229, 0, 0
NKF5, 89030724, 0, 0, 0, 0, 0.2, 0.13, 0, 0.19, 0.5, 3.412588E-05, 0.0006240927, 0.001488894
NKQ1, 89030724, 0.2127208, -0.01089665, 0.004849212, 0.9770402
AHR2, 89030771, 0.8, 0.55, 155.46, 0.19, 0, 0, 0.2124602, -0.003265238, 0.007879987, 0.9771325
MOTB, 89030778, 1, 1, 0, 1
RCIN, 89030782, 0, 0, 0, 0, 0, 0, 0, 0, 0, 0, 0, 0, 0, 0
RCOU, 89030788, 1107, 1107, 1107, 1107, 0, 0, 0, 0, 0, 0, 0, 0, 0, 0
VIBE, 89030796, 0.01880487, 0.02122825, 0.03259136, 0, 0, 0
CTRL, 89030802, 0.008461923, 0.0001813088, 0.005812401, 0.000189496, 3.642444E-05
PRX, 89030834, 2, 0.56, 0, 0.7, 0, 3.6, 0, 2.36, 0, 0, 0, 0.56
IMU, 89050553, -0.0008550206, -0.0004440598, -0.0003602756, 0.2107986, -0.03915098, -9.849937, 0, 0, 37.38923, 1, 1, 1000, 1000
RFND, 89080749, 0.2, 25, 0, 0
IMU, 89090505, -0.001369421, 6.378062E-05, 0.0009816379, 0.2214384, -0.05304112, -9.830465, 0, 0, 37.39057, 1, 1, 1000, 1000
MAG, 89130499, 386, 514, 327, 0, 0, 0, 0, 0, 0, 1, 89130490
RFND, 89130530, 0.2, 25, 0, 0
BARO, 89130570, 0.1883095, 993.3585, 35.46, -0.1941063, 89130, 0, 33.35
CTUN, 89130584, 0, 0, 0, 0.2293798, 0.07276413, 0.07276413, 0.18, 0, 0.19, 0, 0, 0
ATT, 89130661, 0, 0.79, 0, 0.54, 155.42, 155.43, 0, 1
RATE, 89130668, -3.574511, -0.04914543, -0.008216375, -2.470532, -0.03912224, -0.00560061, 0.01706064, 0.04507816, 4.021261E-07, -313.6826, 2.135849, 0
NKF1, 89130676, 0.79, 0.54, 155.43, 0.02860872, -0.01815305, -0.007745249, 0, 0, 0, -0.07276413, -0.01, 0.02, 0
NKF2, 89130676, -2, 0, 0, 0, 0, 0, 0, 0, 0, 0, 0, 0, 0
NKF3, 89130676, 0, 0, 0, 0.03, -0.02, 0, 0, 0, 0, 0, 0
NKF4, 89130676, 0, 0, 0, 0, 0, 1.300285E-06, 0, 0, 0, 19, 229, 0, 0
NKF5, 89130676, 0, 0, 0, 0, 0.2, 0.13, 0, 0.19, 0.5, 3.4465E-05, 0.0005370759, 0.001190003
NKQ1, 89130676, 0.2127148, -0.01089948, 0.004815746, 0.9770417
AHR2, 89130719, 0.79, 0.55, 155.47, 0.18, 0, 0, 0.2124533, -0.003256634, 0.007844944, 0.9771343
MOTB, 89130727, 1, 1, 0, 1
RCIN, 89130731, 0, 0, 0, 0, 0, 0, 0, 0, 0, 0, 0, 0, 0, 0
RCOU, 89130736, 1131, 1131, 1131, 1131, 0, 0, 0, 0, 0, 0, 0, 0, 0, 0
VIBE, 89130745, 0.01926676, 0.02279425, 0.03543611, 0, 0, 0
CTRL, 89130751, 0.008426033, 0.0001850931, 0.005821494, 0.0002198625, 3.790951E-05
PRX, 89130782, 2, 0.57, 0, 0.7, 0, 3.6, 0, 2.37, 0, 0, 0, 0.57
IMU, 89130789, -0.001182735, -0.0002699335, 0.0007874727, 0.2174066, -0.04446999, -9.848499, 0, 0, 37.39252, 1, 1, 1000, 1000
IMU, 89170729, 0.0002946232, -0.0001204613, -0.0001402435, 0.2199749, -0.04324966, -9.846617, 0, 0, 37.39394, 1, 1, 1000, 1000
RFND, 89180465, 0.2, 25, 0, 0
IMU, 89210607, -0.0005560106, 0.001674771, 0.001259877, 0.2239865, -0.04681722, -9.828262, 0, 0, 37.39428, 1, 1, 1000, 1000
MAG, 89230729, 388, 514, 329, 0, 0, 0, 0, 0, 0, 1, 89230720
RFND, 89230759, 0.2, 25, 0, 0
BARO, 89230798, 0.2810589, 993.3483, 35.46, 0.07289966, 89230, 0, 33.35
CTUN, 89230811, 0, 0, 0, 0.2293798, 0.07297546, 0.07297546, 0.28, 0, 0.19, 0, 0, 0
ATT, 89230888, 0, 0.79, 0, 0.55, 155.42, 155.43, 0, 1
RATE, 89230894, -3.57921, -0.05207837, -0.008115806, -2.48136, 0.0590183, -0.005975637, 0.01721431, -0.03117785, -2.371327E-05, -327.682, -1.588345, 0
NKF1, 89230902, 0.79, 0.55, 155.43, 0.02916766, -0.01855056, -0.008090913, 0, 0, 0, -0.07297546, -0.01, 0.02, 0
NKF2, 89230902, -2, 0, 0, 0, 0, 0, 0, 0, 0, 0, 0, 0, 0
NKF3, 89230902, 0, 0, 0, 0.04, -0.03, 0, 0, 0, 0, 0, 0
NKF4, 89230902, 0, 0, 0, 0, 0, 1.4802E-06, 0, 0, 0, 19, 229, 0, 0
NKF5, 89230902, 0, 0, 0, 0, 0.2, 0.13, 0, 0.19, 0.5, 3.372264E-05, 0.000556094, 0.001338318
NKQ1, 89230902, 0.2127099, -0.01091603, 0.00483063, 0.9770426
AHR2, 89230947, 0.8, 0.55, 155.47, 0.28, 0, 0, 0.212448, -0.003261839, 0.007858117, 0.9771353
MOTB, 89230954, 1, 1, 0, 1
RCIN, 89230958, 0, 0, 0, 0, 0, 0, 0, 0, 0, 0, 0, 0, 0, 0
RCOU, 89230963, 1155, 1155, 1155, 1155, 0, 0, 0, 0, 0, 0, 0, 0, 0, 0
VIBE, 89230972, 0.01835773, 0.01873956, 0.03496141, 0, 0, 0
CTRL, 89230978, 0.008433498, 0.0001775544, 0.00583293, 0.0001949052, 3.781611E-05
PRX, 89231009, 2, 0.57, 0, 0.7, 0, 3.6, 0, 2.36, 0, 0, 0, 0.57
IMU, 89250560, -0.0001960511, 0.0001127924, -0.0003152559, 0.2313811, -0.04568598, -9.827416, 0, 0, 37.39421, 1, 1, 1000, 1000
RFND, 89280457, 0.2, 25, 0, 0
IMU, 89291629, 0.0007792684, 0.0006596994, -0.0001283716, 0.2187815, -0.05208461, -9.843051, 0, 0, 37.39518, 1, 1, 1000, 1000
MAG, 89330769, 381, 514, 331, 0, 0, 0, 0, 0, 0, 1, 89330760
RFND, 89330800, 0.2, 25, 0, 0
BARO, 89330840, 0.2445213, 993.3521, 35.46, 0.3197045, 89330, 0, 33.35
CTUN, 89330854, 0, 0, 0, 0.2293798, 0.07327963, 0.07327963, 0.24, 0, 0.19, 0, 0, 0
ATT, 89330930, 0, 0.79, 0, 0.55, 155.42, 155.43, 0, 1
RATE, 89330936, -3.590102, 0.02177369, -0.008631238, -2.478403, 0.008112237, -0.005917679, 0.01723726, 0.03206022, 0.0001054909, -321.8224, 0.4322052, 0
NKF1, 89330944, 0.79, 0.55, 155.43, 0.03016713, -0.01928078, -0.007946233, 0, 0, 0, -0.07327963, -0.01, 0.02, 0
NKF2, 89330944, -2, 0, 0, 0, 0, 0, 0, 0, 0, 0, 0, 0, 0
NKF3, 89330944, 0, 0, 0, 0.04, -0.03, 0, 0, 0, 0, 0, 0
NKF4, 89330944, 0, 0, 0, 0, 0, 1.625561E-06, 0, 0, 0, 19, 229, 0, 0
NKF5, 89330944, 0, 0, 0, 0, 0.2, 0.13, 0, 0.19, 0.5, 3.413279E-05, 0.0004747437, 0.001038542
NKQ1, 89330944, 0.2127321, -0.01090764, 0.004849278, 0.9770377
AHR2, 89330993, 0.8, 0.55, 155.46, 0.24, 0, 0, 0.2124696, -0.003245455, 0.007872128, 0.9771306
MOTB, 89331000, 1, 1, 0, 1
RCIN, 89331004, 0, 0, 0, 0, 0, 0, 0, 0, 0, 0, 0, 0, 0, 0
RCOU, 89331009, 1179, 1179, 1179, 1179, 0, 0, 0, 0, 0, 0, 0, 0, 0, 0
VIBE, 89331018, 0.02733154, 0.03150156, 0.04555903, 0, 0, 0
CTRL, 89331025, 0.008446458, 0.0001663387, 0.005836548, 0.0001792048, 6.001924E-05
PRX, 89331058, 2, 0.57, 0, 0.7, 0, 3.6, 0, 2.35, 0, 0, 0, 0.57
IMU, 89331584, 5.554899E-05, 0.0005538457, 0.0005602605, 0.2144032, -0.04410517, -9.831499, 0, 0, 37.39545, 1, 1, 1000, 1000
IMU, 89370537, 0.0006038406, 0.0003722627, -0.002625408, 0.2433001, -0.04952065, -9.853201, 0, 0, 37.395, 1, 1, 1000, 1000
RFND, 89380452, 0.2, 25, 0, 0
IMU, 89410627, -0.004039191, 0.005244159, 0.02347154, 0.215624, -0.1091557, -9.790052, 0, 0, 37.395, 1, 1, 1000, 1000
MAG, 89430962, 387, 517, 334, 0, 0, 0, 0, 0, 0, 1, 89430954
RFND, 89431141, 0.2, 25, 0, 0
BARO, 89431186, 0.2136048, 993.3555, 35.47, 0.3433853, 89431, 0, 33.35
CTUN, 89431200, 0, 0, 0, 0.2293798, 0.07350501, 0.07350501, 0.21, 0, 0.19, 0, 0, 0
ATT, 89431341, 0, 0.79, 0, 0.57, 155.44, 155.45, 0, 1
RATE, 89431348, -3.560691, -0.1711488, -0.006309334, -2.58889, 0.6924793, -0.00970468, 0.01772192, -1.205947, -0.0006655097, -364.575, -3.511333, 0
NKF1, 89431356, 0.79, 0.57, 155.45, 0.03248407, -0.01847468, -0.009001853, 0, 0, 0, -0.07350501, -0.01, 0.02, 0
NKF2, 89431356, -2, 0, 0, 0, 0, 0, 0, 0, 0, 0, 0, 0, 0
NKF3, 89431356, 0, 0, 0, 0.04, -0.03, 0, 0, 0, 0, 0, 0
NKF4, 89431356, 0, 0, 0, 0, 0, 1.853846E-06, 0, 0, 0, 19, 229, 0, 0
NKF5, 89431356, 0, 0, 0, 0, 0.2, 0.13, 0, 0.19, 0.5, 3.330734E-05, 0.0004845745, 0.001168989
NKQ1, 89431356, 0.2125462, -0.0110921, 0.004852513, 0.9770761
AHR2, 89431403, 0.79, 0.57, 155.49, 0.21, 0, 0, 0.2122838, -0.003424207, 0.007871734, 0.9771703
MOTB, 89431411, 1, 1, 0, 1
RCIN, 89431415, 0, 0, 0, 0, 0, 0, 0, 0, 0, 0, 0, 0, 0, 0
RCOU, 89431421, 1203, 1203, 1203, 1203, 0, 0, 0, 0, 0, 0, 0, 0, 0, 0
VIBE, 89431430, 0.2346143, 0.2920548, 0.1915785, 0, 0, 0
CTRL, 89431436, 0.008442855, 0.0003989603, 0.005992484, 0.0005489498, 0.0004567546
PRX, 89431467, 2, 0.56, 0, 0.7, 0, 3.6, 0, 2.35, 0, 0, 0, 0.56
IMU, 89450533, -0.0004212385, 0.001133062, 0.01020008, 0.2844536, -0.08683189, -9.883386, 0, 0, 37.3966, 1, 1, 1000, 1000
RFND, 89480549, 0.2, 25, 0, 0
IMU, 89490856, 0.002463951, 0.007627548, -0.02487033, 0.1969036, -0.04328967, -9.866344, 0, 0, 37.39853, 1, 1, 1000, 1000
MAG, 89530505, 388, 518, 328, 0, 0, 0, 0, 0, 0, 1, 89530496
RFND, 89530536, 0.2, 25, 0, 0
BARO, 89530602, 0.1995518, 993.3572, 35.47, 0.1474858, 89530, 0, 33.35
CTUN, 89530615, 0, 0, 0, 0.2293798, 0.07389727, 0.07389727, 0.19, 0, 0.19, 0, 0, 0
ATT, 89530691, 0, 0.79, 0, 0.57, 155.44, 155.46, 0, 1
RATE, 89530697, -3.566059, -0.007594728, -0.009508207, -2.59521, -0.1127323, -0.005445906, 0.01793716, -0.4690615, -0.0007926596, -389.5398, -3.792858, 0
NKF1, 89530705, 0.79, 0.57, 155.46, 0.03117296, -0.01910405, -0.009618266, 0, 0, 0, -0.07389727, -0.01, 0.02, 0
NKF2, 89530705, -2, 0, 0, 0, 0, 0, 0, 0, 0, 0, 0, 0, 0
NKF3, 89530705, 0, 0, 0, 0.05, -0.03, 0, 0, 0, 0, 0, 0
NKF4, 89530705, 0, 0, 0, 0, 0, 2.043299E-06, 0, 0, 0, 19, 229, 0, 0
NKF5, 89530705, 0, 0, 0, 0, 0.2, 0.13, 0, 0.19, 0.5, 3.248991E-05, 0.0005738795, 0.001519476
NKQ1, 89530705, 0.21253, -0.01112483, 0.004856653, 0.9770792
AHR2, 89530752, 0.79, 0.57, 155.49, 0.19, 0, 0, 0.2122672, -0.003462524, 0.007866285, 0.9771739
MOTB, 89530759, 1, 1, 0, 1
RCIN, 89530764, 0, 0, 0, 0, 0, 0, 0, 0, 0, 0, 0, 0, 0, 0
RCOU, 89530770, 1236, 1229, 1221, 1246, 0, 0, 0, 0, 0, 0, 0, 0, 0, 0
VIBE, 89530778, 0.4252951, 0.4144241, 0.5730033, 0, 0, 0
CTRL, 89530784, 0.008390192, 0.0005447796, 0.006083278, 0.000843233, 0.000491727
PRX, 89530816, 2, 0.56, 0, 0.7, 0, 3.6, 0, 2.34, 0, 0, 0, 0.56
IMU, 89530823, -0.0004571464, -0.001555051, -0.008185978, 0.2813547, -0.08035197, -9.787496, 0, 0, 37.39945, 1, 1, 1000, 1000
IMU, 89570685, -0.002773321, 0.0008313641, 0.02431029, 0.2053181, -0.05133767, -9.823714, 0, 0, 37.39947, 1, 1, 1000, 1000
RFND, 89580493, 0.2, 25, 0, 0
IMU, 89610404, 0.001982547, 0.01396797, 0.01855486, 0.2292094, -0.01875763, -9.864586, 0, 0, 37.39941, 1, 1, 1000, 1000
MAG, 89630819, 390, 512, 329, 0, 0, 0, 0, 0, 0, 1, 89630811
RFND, 89630851, 0.2, 25, 0, 0
BARO, 89630890, 0.1995518, 993.3572, 35.47, -0.08818489, 89630, 0, 33.35
CTUN, 89630904, 0, 0, 0, 0.2293798, 0.07423668, 0.07423668, 0.19, 0, 0.19, 0, 0, 0
ATT, 89630981, 0, 0.78, 0, 0.59, 155.46, 155.47, 0, 1
RATE, 89630987, -3.556122, -0.260218, -0.006936943, -2.658539, -0.2306869, -0.001656757, 0.01837572, 0.8732861, -0.0008382207, -356.4102, -4.716969, 0
NKF1, 89630994, 0.78, 0.59, 155.47, 0.03483744, -0.02098166, -0.008800251, 0, 0, 0, -0.07423668, -0.01, 0.02, 0
NKF2, 89630994, -2, 0, 0, 0, 0, 0, 0, 0, 0, 0, 0, 0, 0
NKF3, 89630994, 0, 0, 0, 0.05, -0.03, 0, 0, 0, 0, 0, 0
NKF4, 89630994, 0, 0, 0, 0, 0, 2.295201E-06, 0, 0, 0, 19, 229, 0, 0
NKF5, 89630994, 0, 0, 0, 0, 0.2, 0.13, 0, 0.19, 0.5, 3.290809E-05, 0.000420115, 0.001011047
NKQ1, 89630994, 0.2124364, -0.01129008, 0.004844365, 0.9770977
AHR2, 89631039, 0.79, 0.59, 155.5, 0.19, 0, 0, 0.2121736, -0.003628375, 0.007845236, 0.9771938
MOTB, 89631047, 1, 1, 0, 1
RCIN, 89631051, 0, 0, 0, 0, 0, 0, 0, 0, 0, 0, 0, 0, 0, 0
RCOU, 89631056, 1231, 1222, 1221, 1236, 0, 0, 0, 0, 0, 0, 0, 0, 0, 0
VIBE, 89631154, 0.4788704, 0.3430584, 0.5512968, 0, 0, 0
CTRL, 89631164, 0.008398767, 0.0006501543, 0.006415212, 0.001364978, 0.0005007797
PRX, 89631196, 2, 0.57, 0, 0.7, 0, 3.6, 0, 2.36, 0, 0, 0, 0.57
IMU, 89650876, 0.003449222, 0.01082612, -0.04333818, 0.2964522, -0.06328389, -9.844554, 0, 0, 37.40009, 1, 1, 1000, 1000
RFND, 89680448, 0.2, 25, 0, 0
IMU, 89690556, -0.0007832079, -0.006703545, 0.02262397, 0.1956372, -0.1636817, -9.790942, 0, 0, 37.40063, 1, 1, 1000, 1000
MAG, 89730508, 385, 521, 333, 0, 0, 0, 0, 0, 0, 1, 89730499
RFND, 89730539, 0.2, 25, 0, 0
BARO, 89730579, 0.1798777, 993.3592, 35.47, -0.1747835, 89730, 0, 33.35
CTUN, 89730592, 0, 0, 0, 0.2293798, 0.07463443, 0.07463443, 0.17, 0, 0.19, 0, 0, 1
ATT, 89730672, 0, 0.79, 0, 0.63, 155.47, 155.49, 0, 1
RATE, 89730678, -3.591712, 0.2603267, -0.01086294, -2.844373, 0.3591459, -0.006553743, 0.01987465, 1.077852, -0.001017933, -407.3326, 5.608559, 0
NKF1, 89730685, 0.79, 0.63, 155.49, 0.03397696, -0.02118984, -0.01005759, 0, 0, 0, -0.07463443, -0.01, 0.02, 0
NKF2, 89730685, -2, 0, 0, 0, 0, 0, 0, 0, 0, 0, 0, 0, 0
NKF3, 89730685, 0, 0, 0, 0.05, -0.04, 0, 0, 0, 0, 0, 0
NKF4, 89730685, 0, 0, 0, 0, 0, 2.538908E-06, 0, 0, 0, 19, 229, 0, 0
NKF5, 89730685, 0, 0, 0, 0, 0.2, 0.13, 0, 0.19, 0.5, 3.195024E-05, 0.0005141211, 0.001389535
NKQ1, 89730685, 0.2122744, -0.01163491, 0.004981763, 0.9771281
AHR2, 89730731, 0.79, 0.63, 155.52, 0.17, 0, 0, 0.2120132, -0.00392908, 0.007973777, 0.9772264
MOTB, 89730740, 1, 1, 0, 1
RCIN, 89730744, 0, 0, 0, 0, 0, 0, 0, 0, 0, 0, 0, 0, 0, 0
RCOU, 89730749, 1238, 1230, 1221, 1250, 0, 0, 0, 0, 0, 0, 0, 0, 0, 0
VIBE, 89730758, 0.439864, 0.4081534, 0.5654167, 0, 0, 0
CTRL, 89730764, 0.008384462, 0.0007148831, 0.006760472, 0.001782898, 0.0006275921
PRX, 89730795, 2, 0.56, 0, 0.7, 0, 3.6, 0, 2.36, 0, 0, 0, 0.56
IMU, 89730802, 0.004218261, 0.006681726, 0.01881275, 0.1275767, -0.02437192, -9.885641, 0, 0, 37.40124, 1, 1, 1000, 1000
IMU, 89770557, -0.001237159, 0.006926823, 0.01015061, 0.1415544, -0.02441671, -9.818811, 0, 0, 37.40173, 1, 1, 1000, 1000
RFND, 89780729, 0.2, 25, 0, 0
IMU, 89810528, -0.003247943, -0.0177931, 0.002451514, 0.1733884, -0.0470692, -9.84951, 0, 0, 37.40121, 1, 1, 1000, 1000
MAG, 89830475, 387, 519, 334, 0, 0, 0, 0, 0, 0, 1, 89830466
RFND, 89830505, 0.2, 25, 0, 0
BARO, 89830569, 0.08712827, 993.3697, 35.47, -0.1634758, 89830, 0, 33.35
CTUN, 89830583, 0, 0, 0, 0.2293798, 0.07501251, 0.07501251, 0.08, 0, 0.19, 0, 0, 1
ATT, 89830660, 0, 0.8, 0, 0.62, 155.42, 155.43, 0, 1
RATE, 89830667, -3.589604, -0.03892372, -0.00771008, -2.831672, 0.9032301, -0.01427958, 0.01963606, -1.096086, 0.0009935095, -434.1894, 2.320576, 0
NKF1, 89830675, 0.8, 0.62, 155.43, 0.03409662, -0.02228696, -0.01072073, 0, 0, 0, -0.07501251, -0.01, 0.02, 0
NKF2, 89830675, -2, 0, 0, 0, 0, 0, 0, 0, 0, 0, 0, 0, 0
NKF3, 89830675, 0, 0, 0, 0.05, -0.04, 0, 0, 0, 0, 0, 0
NKF4, 89830675, 0, 0, 0, 0, 0, 2.810147E-06, 0, 0, 0, 19, 229, 0, 0
NKF5, 89830675, 0, 0, 0, 0, 0.2, 0.13, 0, 0.19, 0.5, 3.259948E-05, 0.0003604564, 0.0008964631
NKQ1, 89830675, 0.2127359, -0.01154189, 0.00501029, 0.9770287
AHR2, 89830721, 0.8, 0.61, 155.46, 0.08, 0, 0, 0.2124736, -0.003792446, 0.007990361, 0.9771268
MOTB, 89830729, 1, 1, 0, 1
RCIN, 89830733, 0, 0, 0, 0, 0, 0, 0, 0, 0, 0, 0, 0, 0, 0
RCOU, 89830738, 1236, 1246, 1221, 1257, 0, 0, 0, 0, 0, 0, 0, 0, 0, 0
VIBE, 89830747, 0.4362667, 0.4040114, 0.5489356, 0, 0, 0
CTRL, 89830753, 0.00851004, 0.001229272, 0.006633291, 0.002397374, 0.0006007242
PRX, 89830785, 2, 0.57, 0, 0.7, 0, 3.6, 0, 2.35, 0, 0, 0, 0.57
IMU, 89850407, -0.002014634, -0.007143524, 0.005231809, 0.1387338, -0.05481293, -9.845585, 0, 0, 37.40043, 1, 1, 1000, 1000
RFND, 89880333, 0.2, 25, 0, 0
IMU, 89890401, 0.00264922, 0.005174936, 0.01646542, 0.390108, -0.05344563, -9.815666, 0, 0, 37.40039, 1, 1, 1000, 1000
MAG, 89930378, 392, 521, 330, 0, 0, 0, 0, 0, 0, 1, 89930369
RFND, 89930407, 0.2, 25, 0, 0
BARO, 89930445, 0.09837063, 993.3684, 35.48, -0.2349048, 89930, 0, 33.35
CTUN, 89930457, 0, 0, 0, 0.2293798, 0.07543059, 0.07543059, 0.09, 0, 0.19, 0, 0, 1
DU32, 89930491, 7, 33611992
ATT, 89930610, 0, 0.81, 0, 0.61, 155.42, 155.43, 0, 1
RATE, 89930618, -3.640575, 0.4510283, -0.0105726, -2.751359, -0.1337281, -0.008997478, 0.01938948, -0.3167708, 0.0001839837, -457.8655, 2.913475, 0
NKF1, 89930625, 0.81, 0.61, 155.43, 0.03225244, -0.02010867, -0.01130532, 0, 0, 0, -0.07543059, -0.01, 0.02, 0
NKF2, 89930625, -2, 0, 0, 0, 0, 0, 0, 0, 0, 0, 0, 0, 0
NKF3, 89930625, 0, 0, 0, 0.06, -0.04, 0, 0, 0, 0, 0, 0
NKF4, 89930625, 0, 0, 0, 0, 0, 3.111779E-06, 0, 0, 0, 19, 229, 0, 0
NKF5, 89930625, 0, 0, 0, 0, 0.2, 0.13, 0, 0.19, 0.5, 3.146544E-05, 0.0004565979, 0.001287249
NKQ1, 89930625, 0.2127146, -0.01139342, 0.005062858, 0.9770349
AHR2, 89930670, 0.81, 0.6, 155.47, 0.09, 0, 0, 0.2124513, -0.00363086, 0.008053971, 0.9771317
MOTB, 89930677, 1, 1, 0, 1
RCIN, 89930681, 0, 0, 0, 0, 0, 0, 0, 0, 0, 0, 0, 0, 0, 0
RCOU, 89930686, 1239, 1237, 1221, 1253, 0, 0, 0, 0, 0, 0, 0, 0, 0, 0
VIBE, 89930694, 0.5496032, 0.3620317, 0.484956, 0, 0, 0
CTRL, 89930701, 0.008573242, 0.001357576, 0.006501517, 0.002420274, 0.0005910217
PRX, 89930731, 2, 0.56, 0, 0.7, 0, 3.6, 0, 2.34, 0, 0, 0, 0.56
IMU, 89930738, 0.007547187, -0.001921188, -0.005528023, 0.6111649, -0.04050086, -9.846711, 0, 0, 37.40031, 1, 1, 1000, 1000
IMU, 89971743, -0.005763073, 0.0004523347, -0.009643874, 0.414388, -0.009634547, -9.775437, 0, 0, 37.4003, 1, 1, 1000, 1000
RFND, 89980811, 0.2, 25, 0, 0
IMU, 90010646, -0.005725588, 0.009603386, -0.002182507, 0.04299313, -0.05958882, -9.80798, 0, 0, 37.4002, 1, 1, 1000, 1000
MAG, 90030492, 391, 515, 332, 0, 0, 0, 0, 0, 0, 1, 90030483
RFND, 90030523, 0.2, 25, 0, 0
BARO, 90030561, 0.05340119, 993.3734, 35.47, -0.3522855, 90030, 0, 33.35
CTUN, 90030574, 0, 0, 0, 0.2293798, 0.07570355, 0.07570355, 0.05, 0, 0.19, 0, 0, 0
ATT, 90030649, 0, 0.8, 0, 0.6, 155.42, 155.43, 0, 1
RATE, 90030655, -3.628705, -0.1529445, -0.007985951, -2.725127, -0.1117897, -0.005971237, 0.01916663, -0.3501319, -3.334201E-05, -332.9946, -0.8337975, 0
NKF1, 90030662, 0.8, 0.6, 155.43, 0.0332209, -0.02123275, -0.008222089, 0, 0, 0, -0.07570355, -0.01, 0.02, 0
NKF2, 90030662, -2, 0, 0, 0, 0, 0, 0, 0, 0, 0, 0, 0, 0
NKF3, 90030662, 0, 0, 0, 0.06, -0.04, 0, 0, 0, 0, 0, 0
NKF4, 90030662, 0, 0, 0, 0, 0, 3.395028E-06, 0, 0, 0, 19, 229, 0, 0
NKF5, 90030662, 0, 0, 0, 0, 0.2, 0.13, 0, 0.19, 0.5, 3.216851E-05, 0.0003021279, 0.0007418121
NKQ1, 90030662, 0.2127291, -0.01134711, 0.005029161, 0.9770324
AHR2, 90030707, 0.81, 0.59, 155.46, 0.05, 0, 0, 0.2124648, -0.003571245, 0.008029914, 0.9771293
MOTB, 90030714, 1, 1, 0, 1
RCIN, 90030718, 0, 0, 0, 0, 0, 0, 0, 0, 0, 0, 0, 0, 0, 0
RCOU, 90030723, 1234, 1231, 1221, 1244, 0, 0, 0, 0, 0, 0, 0, 0, 0, 0
VIBE, 90030732, 0.665888, 0.4507298, 0.5610313, 0, 0, 0
CTRL, 90030738, 0.008579069, 0.001454328, 0.0064866, 0.002417922, 0.0004919398
PRX, 90030769, 2, 0.57, 0, 0.7, 0, 3.6, 0, 2.34, 0, 0, 0, 0.57
IMU, 90050504, 0.005104655, -0.005900552, 0.01362198, -0.0004080907, -0.04366652, -9.889689, 0, 0, 37.39914, 1, 1, 1000, 1000
RFND, 90080725, 0.2, 25, 0, 0
IMU, 90090504, -0.0007480389, -0.005706244, -0.0007873051, 0.2763063, -0.03301514, -9.795135, 0, 0, 37.39587, 1, 1, 1000, 1000
MAG, 90130489, 387, 519, 330, 0, 0, 0, 0, 0, 0, 1, 90130480
RFND, 90130520, 0.2, 25, 0, 0
BARO, 90130583, 0.06183296, 993.3723, 35.46, -0.3530803, 90130, 0, 33.35
CTUN, 90130597, 0, 0, 0, 0.2293798, 0.07560708, 0.07560708, 0.06, 0, 0.19, 0, 0, 0
ATT, 90130672, 0, 0.8, 0, 0.6, 155.42, 155.43, 0, 1
RATE, 90130678, -3.630665, 0.04890045, -0.007587083, -2.735639, 0.3835308, -0.00867673, 0.01918962, -0.9740645, 0.0003536328, -156.8211, -7.920933, 0
NKF1, 90130686, 0.8, 0.6, 155.43, 0.03789066, -0.02404242, -0.003872126, 0, 0, 0, -0.07560708, -0.01, 0.02, 0
NKF2, 90130686, -2, 0, 0, 0, 0, 0, 0, 0, 0, 0, 0, 0, 0
NKF3, 90130686, 0, 0, 0, 0.06, -0.04, 0, 0, 0, 0, 0, 0
NKF4, 90130686, 0, 0, 0, 0, 0, 3.771004E-06, 0, 0, 0, 19, 229, 0, 0
NKF5, 90130686, 0, 0, 0, 0, 0.2, 0.13, 0, 0.19, 0.5, 3.105184E-05, 0.0004129431, 0.001179777
NKQ1, 90130686, 0.21272, -0.01134688, 0.005046046, 0.9770343
AHR2, 90130732, 0.81, 0.59, 155.47, 0.06, 0, 0, 0.2124556, -0.003566406, 0.008028801, 0.9771312
MOTB, 90130739, 1, 1, 0, 1
RCIN, 90130743, 0, 0, 0, 0, 0, 0, 0, 0, 0, 0, 0, 0, 0, 0
RCOU, 90130748, 1234, 1236, 1221, 1248, 0, 0, 0, 0, 0, 0, 0, 0, 0, 0
VIBE, 90130757, 0.6044751, 0.3643692, 0.5420218, 0, 0, 0
CTRL, 90130764, 0.008640716, 0.001344769, 0.006450423, 0.002171384, 0.0004140065
