FMT, 128, 89, FMT, BBnNZ, Type,Length,Name,Format,Columns
FMT, 129, 31, PARM, QNf, TimeUS,Name,Value
FMT, 130, 46, GPS, QBIHBcLLefffB, TimeUS,Status,GMS,GWk,NSats,HDop,Lat,Lng,Alt,Spd,GCrs,VZ,U
FMT, 131, 46, GPS2, QBIHBcLLefffB, TimeUS,Status,GMS,GWk,NSats,HDop,Lat,Lng,Alt,Spd,GCrs,VZ,U
FMT, 132, 46, GPSB, QBIHBcLLefffB, TimeUS,Status,GMS,GWk,NSats,HDop,Lat,Lng,Alt,Spd,GCrs,VZ,U
FMT, 193, 24, GPA, QCCCCBI, TimeUS,VDop,HAcc,VAcc,SAcc,VV,SMS
FMT, 194, 24, GPA2, QCCCCBI, TimeUS,VDop,HAcc,VAcc,SAcc,VV,SMS
FMT, 195, 24, GPAB, QCCCCBI, TimeUS,VDop,HAcc,VAcc,SAcc,VV,SMS
FMT, 133, 53, IMU, QffffffIIfBBHH, TimeUS,GyrX,GyrY,GyrZ,AccX,AccY,AccZ,EG,EA,T,GH,AH,GHz,AHz
FMT, 134, 75, MSG, QZ, TimeUS,Message
FMT, 135, 39, RCIN, QHHHHHHHHHHHHHH, TimeUS,C1,C2,C3,C4,C5,C6,C7,C8,C9,C10,C11,C12,C13,C14
FMT, 136, 39, RCOU, QHHHHHHHHHHHHHH, TimeUS,C1,C2,C3,C4,C5,C6,C7,C8,C9,C10,C11,C12,C13,C14
FMT, 137, 15, RSSI, Qf, TimeUS,RXRSSI
FMT, 139, 37, BARO, QffcfIff, TimeUS,Alt,Press,Temp,CRt,SMS,Offset,GndTemp
FMT, 140, 22, POWR, QffHB, TimeUS,Vcc,VServo,Flags,Safety
FMT, 143, 45, CMD, QHHHfffffff, TimeUS,CTot,CNum,CId,Prm1,Prm2,Prm3,Prm4,Lat,Lng,Alt
FMT, 144, 20, RAD, QBBBBBHH, TimeUS,RSSI,RemRSSI,TxBuf,Noise,RemNoise,RxErrors,Fixed
FMT, 146, 43, CAM, QIHLLeeeccC, TimeUS,GPSTime,GPSWeek,Lat,Lng,Alt,RelAlt,GPSAlt,Roll,Pitch,Yaw
FMT, 232, 43, TRIG, QIHLLeeeccC, TimeUS,GPSTime,GPSWeek,Lat,Lng,Alt,RelAlt,GPSAlt,Roll,Pitch,Yaw
FMT, 162, 30, ARSP, QffcffB, TimeUS,Airspeed,DiffPress,Temp,RawPress,Offset,U
FMT, 164, 45, CURR, QfffcHHHHHHHHHH, TimeUS,Volt,Curr,CurrTot,Temp,V1,V2,V3,V4,V5,V6,V7,V8,V9,V10
FMT, 165, 45, CUR2, QfffcHHHHHHHHHH, TimeUS,Volt,Curr,CurrTot,Temp,V1,V2,V3,V4,V5,V6,V7,V8,V9,V10
FMT, 163, 27, ATT, QccccCCCC, TimeUS,DesRoll,Roll,DesPitch,Pitch,DesYaw,Yaw,ErrRP,ErrYaw
FMT, 166, 34, MAG, QhhhhhhhhhBI, TimeUS,MagX,MagY,MagZ,OfsX,OfsY,OfsZ,MOfsX,MOfsY,MOfsZ,Health,S
FMT, 169, 14, MODE, QMBB, TimeUS,Mode,ModeNum,Rsn
FMT, 196, 17, RFND, QCBCB, TimeUS,Dist1,Orient1,Dist2,Orient2
FMT, 223, 33, DMS, IIIIIBBBBBBBBBB, TimeMS,N,Dp,RT,RS,Er,Fa,Fmn,Fmx,Pa,Pmn,Pmx,Sa,Smn,Smx
FMT, 240, 41, BCN, QBBfffffff, TimeUS,Health,Cnt,D0,D1,D2,D3,PosX,PosY,PosZ
FMT, 138, 53, IMU2, QffffffIIfBBHH, TimeUS,GyrX,GyrY,GyrZ,AccX,AccY,AccZ,EG,EA,T,GH,AH,GHz,AHz
FMT, 147, 53, IMU3, QffffffIIfBBHH, TimeUS,GyrX,GyrY,GyrZ,AccX,AccY,AccZ,EG,EA,T,GH,AH,GHz,AHz
FMT, 141, 45, AHR2, QccCfLLffff, TimeUS,Roll,Pitch,Yaw,Alt,Lat,Lng,Q1,Q2,Q3,Q4
FMT, 180, 31, POS, QLLfff, TimeUS,Lat,Lng,Alt,RelHomeAlt,RelOriginAlt
FMT, 142, 45, SIM, QccCfLLffff, TimeUS,Roll,Pitch,Yaw,Alt,Lat,Lng,Q1,Q2,Q3,Q4
FMT, 198, 51, NKF1, QccCfffffffccc, TimeUS,Roll,Pitch,Yaw,VN,VE,VD,dPD,PN,PE,PD,GX,GY,GZ
FMT, 199, 35, NKF2, QbccccchhhhhhB, TimeUS,AZbias,GSX,GSY,GSZ,VWN,VWE,MN,ME,MD,MX,MY,MZ,MI
FMT, 200, 33, NKF3, Qcccccchhhcc, TimeUS,IVN,IVE,IVD,IPN,IPE,IPD,IMX,IMY,IMZ,IYAW,IVT
FMT, 201, 35, NKF4, QcccccfbbHBHHb, TimeUS,SV,SP,SH,SM,SVT,errRP,OFN,OFE,FS,TS,SS,GPS,PI
FMT, 202, 40, NKF5, QBhhhcccCCfff, TimeUS,NI,FIX,FIY,AFI,HAGL,offset,RI,rng,Herr,eAng,eVel,ePos
FMT, 203, 51, NKF6, QccCfffffffccc, TimeUS,Roll,Pitch,Yaw,VN,VE,VD,dPD,PN,PE,PD,GX,GY,GZ
FMT, 204, 35, NKF7, QbccccchhhhhhB, TimeUS,AZbias,GSX,GSY,GSZ,VWN,VWE,MN,ME,MD,MX,MY,MZ,MI
FMT, 205, 33, NKF8, Qcccccchhhcc, TimeUS,IVN,IVE,IVD,IPN,IPE,IPD,IMX,IMY,IMZ,IYAW,IVT
FMT, 206, 35, NKF9, QcccccfbbHBHHb, TimeUS,SV,SP,SH,SM,SVT,errRP,OFN,OFE,FS,TS,SS,GPS,PI
FMT, 207, 36, NKF0, QBccCCcccccccc, TimeUS,ID,rng,innov,SIV,TR,BPN,BPE,BPD,OFH,OFL,OFN,OFE,OFD
FMT, 208, 27, NKQ1, Qffff, TimeUS,Q1,Q2,Q3,Q4
FMT, 209, 27, NKQ2, Qffff, TimeUS,Q1,Q2,Q3,Q4
FMT, 210, 51, XKF1, QccCfffffffccc, TimeUS,Roll,Pitch,Yaw,VN,VE,VD,dPD,PN,PE,PD,GX,GY,GZ
FMT, 211, 34, XKF2, QccccchhhhhhB, TimeUS,AX,AY,AZ,VWN,VWE,MN,ME,MD,MX,MY,MZ,MI
FMT, 212, 33, XKF3, Qcccccchhhcc, TimeUS,IVN,IVE,IVD,IPN,IPE,IPD,IMX,IMY,IMZ,IYAW,IVT
FMT, 213, 35, XKF4, QcccccfbbHBHHb, TimeUS,SV,SP,SH,SM,SVT,errRP,OFN,OFE,FS,TS,SS,GPS,PI
FMT, 214, 40, XKF5, QBhhhcccCCfff, TimeUS,NI,FIX,FIY,AFI,HAGL,offset,RI,rng,Herr,eAng,eVel,ePos
FMT, 215, 51, XKF6, QccCfffffffccc, TimeUS,Roll,Pitch,Yaw,VN,VE,VD,dPD,PN,PE,PD,GX,GY,GZ
FMT, 216, 34, XKF7, QccccchhhhhhB, TimeUS,AX,AY,AZ,VWN,VWE,MN,ME,MD,MX,MY,MZ,MI
FMT, 217, 33, XKF8, Qcccccchhhcc, TimeUS,IVN,IVE,IVD,IPN,IPE,IPD,IMX,IMY,IMZ,IYAW,IVT
FMT, 218, 35, XKF9, QcccccfbbHBHHb, TimeUS,SV,SP,SH,SM,SVT,errRP,OFN,OFE,FS,TS,SS,GPS,PI
FMT, 219, 36, XKF0, QBccCCcccccccc, TimeUS,ID,rng,innov,SIV,TR,BPN,BPE,BPD,OFH,OFL,OFN,OFE,OFD
FMT, 220, 27, XKQ1, Qffff, TimeUS,Q1,Q2,Q3,Q4
FMT, 221, 27, XKQ2, Qffff, TimeUS,Q1,Q2,Q3,Q4
FMT, 222, 35, XKFD, Qffffff, TimeUS,IX,IY,IZ,IVX,IVY,IVZ
FMT, 148, 34, TERR, QBLLHffHH, TimeUS,Status,Lat,Lng,Spacing,TerrH,CHeight,Pending,Loaded
FMT, 149, 18, UBX1, QBHBBH, TimeUS,Instance,noisePerMS,jamInd,aPower,agcCnt
FMT, 150, 16, UBX2, QBbBbB, TimeUS,Instance,ofsI,magI,ofsQ,magQ
FMT, 151, 18, UBY1, QBHBBH, TimeUS,Instance,noisePerMS,jamInd,aPower,agcCnt
FMT, 152, 16, UBY2, QBbBbB, TimeUS,Instance,ofsI,magI,ofsQ,magQ
FMT, 170, 42, GRAW, QIHBBddfBbB, TimeUS,WkMS,Week,numSV,sv,cpMes,prMes,doMes,mesQI,cno,lli
FMT, 171, 24, GRXH, QdHbBB, TimeUS,rcvTime,week,leapS,numMeas,recStat
FMT, 172, 41, GRXS, QddfBBBHBBBBB, TimeUS,prMes,cpMes,doMes,gnss,sv,freq,lock,cno,prD,cpD,doD,trk
FMT, 173, 63, SBFE, QIHBBdddfffff, TimeUS,TOW,WN,Mode,Err,Lat,Lng,Height,Undul,Vn,Ve,Vu,COG
FMT, 153, 19, ESC1, Qcccc, TimeUS,RPM,Volt,Curr,Temp
FMT, 154, 19, ESC2, Qcccc, TimeUS,RPM,Volt,Curr,Temp
FMT, 155, 19, ESC3, Qcccc, TimeUS,RPM,Volt,Curr,Temp
FMT, 156, 19, ESC4, Qcccc, TimeUS,RPM,Volt,Curr,Temp
FMT, 157, 19, ESC5, Qcccc, TimeUS,RPM,Volt,Curr,Temp
FMT, 158, 19, ESC6, Qcccc, TimeUS,RPM,Volt,Curr,Temp
FMT, 159, 19, ESC7, Qcccc, TimeUS,RPM,Volt,Curr,Temp
FMT, 160, 19, ESC8, Qcccc, TimeUS,RPM,Volt,Curr,Temp
FMT, 167, 34, MAG2, QhhhhhhhhhBI, TimeUS,MagX,MagY,MagZ,OfsX,OfsY,OfsZ,MOfsX,MOfsY,MOfsZ,Health,S
FMT, 168, 34, MAG3, QhhhhhhhhhBI, TimeUS,MagX,MagY,MagZ,OfsX,OfsY,OfsZ,MOfsX,MOfsY,MOfsZ,Health,S
FMT, 174, 31, ACC1, QQfff, TimeUS,SampleUS,AccX,AccY,AccZ
FMT, 175, 31, ACC2, QQfff, TimeUS,SampleUS,AccX,AccY,AccZ
FMT, 176, 31, ACC3, QQfff, TimeUS,SampleUS,AccX,AccY,AccZ
FMT, 177, 31, GYR1, QQfff, TimeUS,SampleUS,GyrX,GyrY,GyrZ
FMT, 178, 31, GYR2, QQfff, TimeUS,SampleUS,GyrX,GyrY,GyrZ
FMT, 179, 31, GYR3, QQfff, TimeUS,SampleUS,GyrX,GyrY,GyrZ
FMT, 181, 35, PIDR, Qffffff, TimeUS,Des,P,I,D,FF,AFF
FMT, 182, 35, PIDP, Qffffff, TimeUS,Des,P,I,D,FF,AFF
FMT, 183, 35, PIDY, Qffffff, TimeUS,Des,P,I,D,FF,AFF
FMT, 184, 35, PIDA, Qffffff, TimeUS,Des,P,I,D,FF,AFF
FMT, 185, 35, PIDS, Qffffff, TimeUS,Des,P,I,D,FF,AFF
FMT, 186, 35, PIDL, Qffffff, TimeUS,Des,P,I,D,FF,AFF
FMT, 161, 37, BAR2, QffcfIff, TimeUS,Alt,Press,Temp,CRt,SMS,Offset,GndTemp
FMT, 197, 37, BAR3, QffcfIff, TimeUS,Alt,Press,Temp,CRt,SMS,Offset,GndTemp
FMT, 187, 35, VIBE, QfffIII, TimeUS,VibeX,VibeY,VibeZ,Clip0,Clip1,Clip2
FMT, 188, 47, IMT, Qfffffffff, TimeUS,DelT,DelvT,DelaT,DelAX,DelAY,DelAZ,DelVX,DelVY,DelVZ
FMT, 189, 47, IMT2, Qfffffffff, TimeUS,DelT,DelvT,DelaT,DelAX,DelAY,DelAZ,DelVX,DelVY,DelVZ
FMT, 190, 47, IMT3, Qfffffffff, TimeUS,DelT,DelvT,DelaT,DelAX,DelAY,DelAZ,DelVX,DelVY,DelVZ
FMT, 191, 24, ORGN, QBLLe, TimeUS,Type,Lat,Lng,Alt
FMT, 192, 19, RPM, Qff, TimeUS,rpm1,rpm2
FMT, 233, 47, GMB1, Iffffffffff, TimeMS,dt,dax,day,daz,dvx,dvy,dvz,jx,jy,jz
FMT, 234, 44, GMB2, IBfffffffff, TimeMS,es,ex,ey,ez,rx,ry,rz,tx,ty,tz
FMT, 235, 13, GMB3, Ihhh, TimeMS,rl_torque_cmd,el_torque_cmd,az_torque_cmd
FMT, 236, 59, RATE, Qffffffffffff, TimeUS,RDes,R,ROut,PDes,P,POut,YDes,Y,YOut,ADes,A,AOut
FMT, 237, 23, RALY, QBBLLh, TimeUS,Tot,Seq,Lat,Lng,Alt
FMT, 238, 43, VISO, Qffffffff, TimeUS,dt,AngDX,AngDY,AngDZ,PosDX,PosDY,PosDZ,conf
FMT, 224, 23, SBPH, QIII, TimeUS,CrcError,LastInject,IARhyp
FMT, 229, 80, SBR1, QHHBZ, TimeUS,msg_type,sender_id,msg_len,d1
FMT, 230, 205, SBR2, QHZZZ, TimeUS,msg_type,d2,d3,d4
FMT, 25, 41, ATUN, QBBfffffff, TimeUS,Axis,TuneStep,Targ,Min,Max,RP,RD,SP,ddt
FMT, 26, 19, ATDE, Qff, TimeUS,Angle,Rate
FMT, 31, 22, PTUN, QBfHHH, TimeUS,Param,TunVal,CtrlIn,TunLo,TunHi
FMT, 12, 28, OF, QBffff, TimeUS,Qual,flowX,flowY,bodyX,bodyY
FMT, 5, 51, NTUN, Qffffffffff, TimeUS,DPosX,DPosY,PosX,PosY,DVelX,DVelY,VelX,VelY,DAccX,DAccY
FMT, 4, 51, CTUN, Qffffffeccfhh, TimeUS,ThI,ABst,ThO,ThH,DAlt,Alt,BAlt,DSAlt,SAlt,TAlt,DCRt,CRt
FMT, 6, 32, PM, QHHIhBHII, TimeUS,NLon,NLoop,MaxT,PMT,I2CErr,INSErr,LogDrop,Mem
FMT, 30, 27, MOTB, Qffff, TimeUS,LiftMax,BatVolt,BatRes,ThLimit
FMT, 13, 12, EV, QB, TimeUS,Id
FMT, 20, 14, D16, QBh, TimeUS,Id,Value
FMT, 21, 14, DU16, QBH, TimeUS,Id,Value
FMT, 22, 16, D32, QBi, TimeUS,Id,Value
FMT, 23, 16, DU32, QBI, TimeUS,Id,Value
FMT, 24, 16, DFLT, QBf, TimeUS,Id,Value
FMT, 19, 13, ERR, QBB, TimeUS,Subsys,ECode
FMT, 32, 19, HELI, Qff, TimeUS,DRRPM,ERRPM
FMT, 33, 29, PL, QBBffff, TimeUS,Heal,TAcq,pX,pY,vX,vY
FMT, 34, 36, GUID, QBffffff, TimeUS,Type,pX,pY,pZ,vX,vY,vZ
FMT, 35, 32, THRO, QBffffbbbb, TimeUS,Stage,Vel,VelZ,Acc,AccEfZ,Throw,AttOk,HgtOk,PosOk
FMT, 36, 56, PRX, QBfffffffffff, TimeUS,Health,D0,D45,D90,D135,D180,D225,D270,D315,DUp,CAn,CDis
MODE, 21934508, 100, 100, 2
IMU, 21955815, -0.0003089822, -0.000809373, 0.0004529438, 0.2089061, -0.04238913, -9.825583, 0, 0, 34.09282, 1, 1, 1000, 1000
MAG, 21995651, 389, 529, 299, 0, 0, 0, 0, 0, 0, 1, 21995642
RFND, 21995683, 0.2, 25, 0, 0
BARO, 21995720, -0.4303312, 993.385, 32.09, -0.08036412, 21995, 0, 31.58
CTUN, 21995733, 0, 0, 0, 0.2248824, 0.06655417, 0.06655417, -0.43, 0, 0.19, 0, 0, 0
ATT, 21995799, 0, 0.79, 0, 0.45, 0.12, 0.13, 0, 1
RATE, 21995804, -3.582713, 0.01456563, -0.008328193, -2.028167, 0.002788496, -0.004658536, 0.01309221, -0.01040762, 1.41726E-05, -25.75495, 0.8533478, 0
NKF1, 21995811, 0.79, 0.45, 0.13, 0.007647383, 0.002653523, -0.0006359247, 0, 0, 0, -0.06655417, -0.02, -0.01, 0
NKF2, 21995811, 0, 0, 0, 0, 0, 0, 0, 0, 0, 0, 0, 0, 0
NKF3, 21995811, 0, 0, 0, 0, 0, 0, 0, 0, 0, 0, 0
NKF4, 21995811, 0, 0, 0, 0, 0, 1.926897E-05, 0, 0, 0, 19, 229, 0, 0
NKF5, 21995811, 0, 0, 0, 0, 0.2, 0.13, 0, 0.19, 0.5, 6.779838E-05, 0.0001860211, 0.0003297371
NKQ1, 21995811, 0.999938, 0.002390382, 0.01081845, 0.001138243
FMT, 254, 47, NKT1, QIffffffff, TimeUS,Cnt,IMUMin,IMUMax,EKFMin,EKFMax,AngMin,AngMax,VelMin,VelM
NKT1, 21995811, 1519, 0.0025, 0.0025, 0.009959648, 0.01067879, 0.002999646, 0.02798374, 0.002999646, 0.02798376
AHR2, 21995916, 0.76, 0.46, 0.13, -0.43, 0, 0, 0.9999686, 0.006714333, 0.004052439, 0.00116011
MOTB, 21995924, 1, 1, 0, 1
RCIN, 21995929, 0, 0, 0, 0, 0, 0, 0, 0, 0, 0, 0, 0, 0, 0
RCOU, 21995935, 1101, 1101, 1101, 1101, 0, 0, 0, 0, 0, 0, 0, 0, 0, 0
VIBE, 21995943, 0.02041482, 0.01898885, 0.03087933, 0, 0, 0
FMT, 253, 31, CTRL, Qfffff, TimeUS,RMSRollP,RMSRollD,RMSPitchP,RMSPitchD,RMSYaw
CTRL, 21995950, 0.008457985, 0.0001841425, 0.004772818, 0.0002582253, 4.035436E-05
PRX, 21995985, 2, 0.61, 0, 0.6, 0, 3.6, 0, 2.48, 0, 0, 90, 0.6
IMU, 21995993, -0.000226829, -0.0001764144, -0.0001910849, 0.2107118, -0.04482684, -9.822349, 0, 0, 34.09428, 1, 1, 1000, 1000
MSG, 22043788, APM:Copter V3.5.7 (38483450)
MSG, 22043794, New mission
MSG, 22043805, Frame: QUAD
MODE, 22043809, Autonomous, 100, 2
RFND, 22047566, 0.2, 25, 0, 0
IMU, 22077736, -0.0008505182, 0.0002869809, 0.0007993484, 0.2206736, -0.04226863, -9.811815, 0, 0, 34.09831, 1, 1, 1000, 1000
MAG, 22097582, 391, 527, 297, 0, 0, 0, 0, 0, 0, 1, 22097573
RFND, 22097616, 0.2, 25, 0, 0
BARO, 22097654, -0.5309281, 993.3959, 32.09, -0.1048001, 22097, 0, 31.58
CTUN, 22097667, 0, 0, 0, 0.2248824, 0.06655342, 0.06655342, -0.53, 0, 0.19, 0, 0, 0
ATT, 22097733, 0, 0.79, 0, 0.45, 0.12, 0.13, 0, 1
RATE, 22097739, -3.585689, 0.04201186, -0.008691645, -2.046286, 0.08131859, -0.005059454, 0.01306373, 0.04976467, -3.610337E-05, -11.01502, 0.6100655, 0
NKF1, 22097746, 0.79, 0.45, 0.13, 0.007947505, 0.003050725, -0.0002719758, 0, 0, 0, -0.06655342, -0.02, -0.01, 0
NKF2, 22097746, 0, 0, 0, 0, 0, 0, 0, 0, 0, 0, 0, 0, 0
NKF3, 22097746, 0, 0, 0, 0, 0, 0, 0, 0, 0, 0, 0
NKF4, 22097746, 0, 0, 0, 0, 0, 1.290461E-05, 0, 0, 0, 19, 229, 0, 0
NKF5, 22097746, 0, 0, 0, 0, 0.2, 0.13, 0, 0.19, 0.5, 5.715646E-05, 0.0003340016, 0.0005219082
NKQ1, 22097746, 0.9999376, 0.002395727, 0.01085577, 0.00116773
AHR2, 22097791, 0.77, 0.46, 0.13, -0.53, 0, 0, 0.9999685, 0.006718474, 0.004064695, 0.001189332
MOTB, 22097798, 1, 1, 0, 1
RCIN, 22097802, 0, 0, 0, 0, 0, 0, 0, 0, 0, 0, 0, 0, 0, 0
RCOU, 22097808, 1101, 1101, 1101, 1101, 0, 0, 0, 0, 0, 0, 0, 0, 0, 0
VIBE, 22097816, 0.01787021, 0.01742323, 0.0329906, 0, 0, 0
CTRL, 22097822, 0.008457599, 0.0001647977, 0.004804563, 0.0002721288, 3.543012E-05
PRX, 22097853, 2, 0.61, 0, 0.6, 0, 3.6, 0, 2.47, 0, 0, 90, 0.6
IMU, 22117661, -0.0001649646, -0.0002080394, 0.0003336994, 0.2145213, -0.05157149, -9.818239, 0, 0, 34.09856, 1, 1, 1000, 1000
RFND, 22148082, 0.2, 25, 0, 0
IMU, 22157679, -5.004029E-05, -0.002655977, -0.0003251094, 0.2134218, -0.05569997, -9.811831, 0, 0, 34.09869, 1, 1, 1000, 1000
MAG, 22197645, 394, 527, 296, 0, 0, 0, 0, 0, 0, 1, 22197637
RFND, 22197681, 0.2, 25, 0, 0
BARO, 22197718, -0.4973958, 993.3925, 32.09, -0.05356088, 22197, 0, 31.58
CTUN, 22197731, 0, 0, 0, 0.2248824, 0.06658707, 0.06658707, -0.49, 0, 0.19, 0, 0, 0
ATT, 22197798, 0, 0.8, 0, 0.45, 0.12, 0.13, 0, 1
RATE, 22197804, -3.607421, 0.08105519, -0.008724801, -2.035187, -0.04182995, -0.004690818, 0.01367457, -0.002357674, 8.011732E-05, -29.19987, -0.4267693, 0
NKF1, 22197811, 0.8, 0.45, 0.13, 0.007646179, 0.002392861, -0.0007209844, 0, 0, 0, -0.06658707, -0.02, -0.01, 0
NKF2, 22197811, 0, 0, 0, 0, 0, 0, 0, 0, 0, 0, 0, 0, 0
NKF3, 22197811, 0, 0, 0, 0, 0, 0, 0, 0, 0, 0, 0
NKF4, 22197811, 0, 0, 0, 0, 0, 8.632002E-06, 0, 0, 0, 19, 229, 0, 0
NKF5, 22197811, 0, 0, 0, 0, 0.2, 0.13, 0, 0.19, 0.5, 4.824904E-05, 0.0004613057, 0.0007369567
NKQ1, 22197811, 0.9999377, 0.002438519, 0.0108327, 0.001157716
AHR2, 22197857, 0.77, 0.46, 0.13, -0.49, 0, 0, 0.9999685, 0.006745344, 0.00403001, 0.001178999
MOTB, 22197865, 1, 1, 0, 1
RCIN, 22197869, 0, 0, 0, 0, 0, 0, 0, 0, 0, 0, 0, 0, 0, 0
RCOU, 22197874, 1101, 1101, 1101, 1101, 0, 0, 0, 0, 0, 0, 0, 0, 0, 0
VIBE, 22197883, 0.01885953, 0.01857759, 0.0345239, 0, 0, 0
CTRL, 22197889, 0.008502403, 0.0001560364, 0.00478716, 0.0002803305, 3.883488E-05
PRX, 22197920, 2, 0.61, 0, 0.6, 0, 3.6, 0, 2.46, 0, 0, 90, 0.6
IMU, 22197927, 0.0009365173, -0.0009538145, -5.053015E-05, 0.2122082, -0.050574, -9.809428, 0, 0, 34.09965, 1, 1, 1000, 1000
IMU, 22237657, -0.001549138, -0.0003127253, -0.0006384195, 0.2133846, -0.04027268, -9.817817, 0, 0, 34.0994, 1, 1, 1000, 1000
RFND, 22247639, 0.2, 25, 0, 0
IMU, 22277518, -1.249077E-05, 0.000130913, 0.0004461398, 0.2109622, -0.05416721, -9.816948, 0, 0, 34.09873, 1, 1, 1000, 1000
MAG, 22297549, 391, 528, 295, 0, 0, 0, 0, 0, 0, 1, 22297541
RFND, 22297583, 0.2, 25, 0, 0
BARO, 22297620, -0.4750409, 993.39, 32.1, -0.07078668, 22297, 0, 31.58
CTUN, 22297632, 0, 0, 0, 0.2248824, 0.06665783, 0.06665783, -0.47, 0, 0.19, 0, 0, 0
ATT, 22297694, 0, 0.8, 0, 0.45, 0.12, 0.13, 0, 1
RATE, 22297700, -3.605833, 0.008639705, -0.008458378, -2.051573, -0.009205452, -0.004715451, 0.01335363, 0.07886398, 9.823279E-06, -35.18673, -0.3986359, 0
NKF1, 22297707, 0.8, 0.45, 0.13, 0.007561761, 0.002982013, -0.000868808, 0, 0, 0, -0.06665783, -0.02, -0.01, 0
NKF2, 22297707, 0, 0, 0, 0, 0, 0, 0, 0, 0, 0, 0, 0, 0
NKF3, 22297707, 0, 0, 0, 0, 0, 0, 0, 0, 0, 0, 0
NKF4, 22297707, 0, 0, 0, 0, 0, 5.760415E-06, 0, 0, 0, 19, 229, 0, 0
NKF5, 22297707, 0, 0, 0, 0, 0.2, 0.13, 0, 0.19, 0.5, 4.246058E-05, 0.000566264, 0.000946668
NKQ1, 22297707, 0.9999374, 0.002434235, 0.01086682, 0.001169746
AHR2, 22297751, 0.77, 0.46, 0.13, -0.47, 0, 0, 0.9999685, 0.006724739, 0.004052554, 0.001190817
MOTB, 22297758, 1, 1, 0, 1
RCIN, 22297762, 0, 0, 0, 0, 0, 0, 0, 0, 0, 0, 0, 0, 0, 0
RCOU, 22297768, 1101, 1101, 1101, 1101, 0, 0, 0, 0, 0, 0, 0, 0, 0, 0
VIBE, 22297776, 0.01820779, 0.02151967, 0.03589352, 0, 0, 0
CTRL, 22297783, 0.008512209, 0.0001636255, 0.004827669, 0.0002887473, 4.715192E-05
PRX, 22297814, 2, 0.61, 0, 0.6, 0, 3.6, 0, 2.47, 0, 0, 90, 0.6
IMU, 22317501, -3.609042E-05, -0.0005169647, 0.0003641244, 0.2107103, -0.04895741, -9.813486, 0, 0, 34.0985, 1, 1, 1000, 1000
RFND, 22347560, 0.2, 25, 0, 0
IMU, 22357724, -0.0004982391, -0.0009222843, 0.0002015772, 0.2115278, -0.04401715, -9.806718, 0, 0, 34.09847, 1, 1, 1000, 1000
MAG, 22397548, 392, 530, 296, 0, 0, 0, 0, 0, 0, 1, 22397490
RFND, 22397582, 0.2, 25, 0, 0
BARO, 22397617, -0.3632666, 993.3778, 32.1, -0.03085018, 22397, 0, 31.58
CTUN, 22397630, 0, 0, 0, 0.2248824, 0.06671538, 0.06671538, -0.36, 0, 0.19, 0, 0, 0
ATT, 22397693, 0, 0.79, 0, 0.45, 0.12, 0.13, 0, 1
RATE, 22397698, -3.600197, -0.04904513, -0.008111476, -2.044062, -0.04796756, -0.004367066, 0.01325826, 0.07231455, 6.643244E-06, -28.07438, -0.9143829, 0
NKF1, 22397706, 0.79, 0.45, 0.13, 0.00712687, 0.003189453, -0.0006931945, 0, 0, 0, -0.06671538, -0.02, -0.01, 0
NKF2, 22397706, 0, 0, 0, 0, 0, 0, 0, 0, 0, 0, 0, 0, 0
NKF3, 22397706, 0, 0, 0, 0, 0, 0, 0, 0, 0, 0, 0
NKF4, 22397706, 0, 0, 0, 0, 0, 3.908018E-06, 0, 0, 0, 19, 229, 0, 0
NKF5, 22397706, 0, 0, 0, 0, 0.2, 0.13, 0, 0.19, 0.5, 3.910916E-05, 0.0006245543, 0.001068505
NKQ1, 22397706, 0.9999376, 0.002422065, 0.01085137, 0.001179417
AHR2, 22397750, 0.76, 0.46, 0.14, -0.36, 0, 0, 0.9999688, 0.006696177, 0.004024569, 0.001200618
MOTB, 22397758, 1, 1, 0, 1
RCIN, 22397762, 0, 0, 0, 0, 0, 0, 0, 0, 0, 0, 0, 0, 0, 0
RCOU, 22397767, 1101, 1101, 1101, 1101, 0, 0, 0, 0, 0, 0, 0, 0, 0, 0
VIBE, 22397776, 0.01875476, 0.01893464, 0.03351345, 0, 0, 0
CTRL, 22397782, 0.008499703, 0.0001671146, 0.004817373, 0.000276307, 4.085464E-05
PRX, 22397813, 2, 0.61, 0, 0.6, 0, 3.6, 0, 2.47, 0, 0, 90, 0.6
IMU, 22397820, -0.001333983, -0.001060868, 0.001252749, 0.2046189, -0.04696897, -9.804733, 0, 0, 34.09928, 1, 1, 1000, 1000
IMU, 22437564, 0.0001899739, -0.0006785786, 0.0004775807, 0.2140274, -0.05077039, -9.810086, 0, 0, 34.10078, 1, 1, 1000, 1000
RFND, 22447549, 0.2, 25, 0, 0
IMU, 22477674, 0.000184995, -0.001163097, 0.0001143162, 0.2123366, -0.0432318, -9.834331, 0, 0, 34.10257, 1, 1, 1000, 1000
MAG, 22497642, 387, 523, 295, 0, 0, 0, 0, 0, 0, 1, 22497634
RFND, 22497734, 0.2, 25, 0, 0
BARO, 22497774, -0.3688553, 993.3782, 32.1, 0.2124443, 22497, 0, 31.58
CTUN, 22497787, 0, 0, 0, 0.2248824, 0.06679086, 0.06679086, -0.36, 0, 0.19, 0, 0, 0
ATT, 22497855, 0, 0.8, 0, 0.44, 0.12, 0.13, 0, 1
RATE, 22497861, -3.616018, 0.05118633, -0.008588642, -2.015941, -0.0862416, -0.004317315, 0.01348753, -0.02285255, 3.412643E-05, -44.49401, 0.5228043, 0
NKF1, 22497869, 0.8, 0.44, 0.13, 0.007435252, 0.00309461, -0.001098617, 0, 0, 0, -0.06679086, -0.02, -0.01, 0
NKF2, 22497869, 0, 0, 0, 0, 0, 0, 0, 0, 0, 0, 0, 0, 0
NKF3, 22497869, 0, 0, 0, 0, 0, 0, 0, 0, 0, 0, 0
NKF4, 22497869, 0, 0, 0, 0, 0, 2.668338E-06, 0, 0, 0, 19, 229, 0, 0
NKF5, 22497869, 0, 0, 0, 0, 0.2, 0.13, 0, 0.19, 0.5, 3.741817E-05, 0.0006546177, 0.00113955
NKQ1, 22497869, 0.999938, 0.002454508, 0.01079451, 0.00118762
AHR2, 22497916, 0.76, 0.45, 0.14, -0.36, 0, 0, 0.9999689, 0.006713447, 0.003956324, 0.00120887
MOTB, 22497923, 1, 1, 0, 1
RCIN, 22497927, 0, 0, 0, 0, 0, 0, 0, 0, 0, 0, 0, 0, 0, 0
RCOU, 22497933, 1101, 1101, 1101, 1101, 0, 0, 0, 0, 0, 0, 0, 0, 0, 0
VIBE, 22497941, 0.02031452, 0.02158275, 0.03078453, 0, 0, 0
CTRL, 22497947, 0.008529521, 0.0001553475, 0.004757254, 0.0002552842, 3.710623E-05
PRX, 22497979, 2, 0.61, 0, 0.6, 0, 3.6, 0, 2.46, 0, 0, 90, 0.6
IMU, 22517658, -0.0008937474, -0.001204534, 0.0004226413, 0.2257226, -0.05135711, -9.810528, 0, 0, 34.10436, 1, 1, 1000, 1000
RFND, 22547751, 0.2, 25, 0, 0
IMU, 22558039, -7.369544E-05, -0.0001700605, -0.0002858132, 0.2149202, -0.04393336, -9.811567, 0, 0, 34.10625, 1, 1, 1000, 1000
MAG, 22597611, 390, 529, 304, 0, 0, 0, 0, 0, 0, 1, 22597602
RFND, 22597645, 0.2, 25, 0, 0
BARO, 22597683, -0.3465004, 993.3755, 32.11, 0.4382779, 22597, 0, 31.58
CTUN, 22597697, 0, 0, 0, 0.2248824, 0.0668973, 0.0668973, -0.34, 0, 0.19, 0, 0, 0
ATT, 22597762, 0, 0.8, 0, 0.44, 0.13, 0.14, 0, 1
RATE, 22597768, -3.611795, -0.02376598, -0.008188958, -2.013678, -0.07943747, -0.003979113, 0.01093106, 0.03849422, -2.842373E-05, -60.54859, -0.07810593, 0
NKF1, 22597776, 0.8, 0.44, 0.14, 0.00803797, 0.003272437, -0.001495027, 0, 0, 0, -0.0668973, -0.02, -0.01, 0
NKF2, 22597776, 0, 0, 0, 0, 0, 0, 0, 0, 0, 0, 0, 0, 0
NKF3, 22597776, 0, 0, 0, 0, 0, 0, 0, 0, 0, 0, 0
NKF4, 22597776, 0, 0, 0, 0, 0, 1.857754E-06, 0, 0, 0, 19, 229, 0, 0
NKF5, 22597776, 0, 0, 0, 0, 0.2, 0.13, 0, 0.19, 0.5, 3.651019E-05, 0.0006836983, 0.001215319
NKQ1, 22597776, 0.9999381, 0.00244468, 0.01079164, 0.001217797
AHR2, 22597819, 0.76, 0.45, 0.14, -0.34, 0, 0, 0.9999691, 0.006689159, 0.003942711, 0.001239141
MOTB, 22597826, 1, 1, 0, 1
RCIN, 22597830, 0, 0, 0, 0, 0, 0, 0, 0, 0, 0, 0, 0, 0, 0
RCOU, 22597836, 1101, 1101, 1101, 1101, 0, 0, 0, 0, 0, 0, 0, 0, 0, 0
VIBE, 22597844, 0.01977985, 0.02013588, 0.03237919, 0, 0, 0
CTRL, 22597850, 0.008526768, 0.0001568073, 0.004752515, 0.0003026703, 3.199055E-05
PRX, 22597881, 2, 0.61, 0, 0.6, 0, 3.6, 0, 2.46, 0, 0, 90, 0.6
IMU, 22597888, -0.0008943172, -0.001610862, 0.0006624433, 0.2112733, -0.05342465, -9.812954, 0, 0, 34.10779, 1, 1, 1000, 1000
IMU, 22637653, -0.000487057, 0.001263126, 0.0003856783, 0.2118535, -0.05466406, -9.806546, 0, 0, 34.10889, 1, 1, 1000, 1000
RFND, 22647578, 0.2, 25, 0, 0
IMU, 22677671, -0.0007445152, 0.0005295502, 0.00083922, 0.2079726, -0.05291456, -9.80347, 0, 0, 34.10999, 1, 1, 1000, 1000
MAG, 22697607, 391, 527, 302, 0, 0, 0, 0, 0, 0, 1, 22697598
RFND, 22697642, 0.2, 25, 0, 0
BARO, 22697681, -0.3185568, 993.3725, 32.11, 0.4209002, 22697, 0, 31.58
CTUN, 22697694, 0, 0, 0, 0.2248824, 0.06698419, 0.06698419, -0.31, 0, 0.19, 0, 0, 0
ATT, 22697762, 0, 0.8, 0, 0.44, 0.13, 0.14, 0, 1
RATE, 22697767, -3.608951, -0.01796632, -0.008506443, -2.022696, 0.1309172, -0.005391785, 0.01490359, 0.04947636, -8.084073E-05, -14.4943, -2.860832, 0
NKF1, 22697775, 0.8, 0.44, 0.14, 0.008031092, 0.00302632, -0.0003578839, 0, 0, 0, -0.06698419, -0.02, -0.01, 0
NKF2, 22697775, 0, 0, 0, 0, 0, 0, 0, 0, 0, 0, 0, 0, 0
NKF3, 22697775, 0, 0, 0, 0.01, 0, 0, 0, 0, 0, 0, 0
NKF4, 22697775, 0, 0, 0, 0, 0, 1.322114E-06, 0, 0, 0, 19, 229, 0, 0
NKF5, 22697775, 0, 0, 0, 0, 0.2, 0.13, 0, 0.19, 0.5, 3.611332E-05, 0.0006792166, 0.001219739
NKQ1, 22697775, 0.9999379, 0.002439411, 0.01080991, 0.001247908
AHR2, 22697819, 0.76, 0.45, 0.14, -0.31, 0, 0, 0.9999692, 0.006669744, 0.003951223, 0.001269217
MOTB, 22697826, 1, 1, 0, 1
RCIN, 22697830, 0, 0, 0, 0, 0, 0, 0, 0, 0, 0, 0, 0, 0, 0
RCOU, 22697835, 1101, 1101, 1101, 1101, 0, 0, 0, 0, 0, 0, 0, 0, 0, 0
VIBE, 22697843, 0.02001747, 0.01927603, 0.03244093, 0, 0, 0
CTRL, 22697850, 0.008515351, 0.0001560999, 0.004754025, 0.0002975625, 4.198994E-05
PRX, 22697881, 2, 0.61, 0, 0.6, 0, 3.6, 0, 2.47, 0, 0, 90, 0.6
IMU, 22717668, -0.001375027, 0.001807338, -0.00016579, 0.2182573, -0.03976811, -9.811815, 0, 0, 34.11086, 1, 1, 1000, 1000
RFND, 22747613, 0.2, 25, 0, 0
IMU, 22757640, -0.0004715527, -0.0009848912, -0.0002003969, 0.2221209, -0.04886281, -9.805198, 0, 0, 34.11156, 1, 1, 1000, 1000
MAG, 22797601, 388, 526, 301, 0, 0, 0, 0, 0, 0, 1, 22797592
RFND, 22797635, 0.2, 25, 0, 0
BARO, 22797672, -0.335323, 993.3744, 32.11, 0.2724499, 22797, 0, 31.58
CTUN, 22797686, 0, 0, 0, 0.2248824, 0.06699031, 0.06699031, -0.33, 0, 0.19, 0, 0, 0
DU32, 22797717, 7, 50389208
ATT, 22797810, 0, 0.8, 0, 0.44, 0.13, 0.14, 0, 1
RATE, 22797817, -3.611056, 0.01115179, -0.008471553, -2.022859, -0.1244911, -0.004008514, 0.01400184, -0.008978078, 1.946078E-05, 6.780166, -1.423454, 0
NKF1, 22797825, 0.8, 0.44, 0.14, 0.008685054, 0.003148887, 0.0001674115, 0, 0, 0, -0.06699031, -0.02, -0.01, 0
NKF2, 22797825, 0, 0, 0, 0, 0, 0, 0, 0, 0, 0, 0, 0, 0
NKF3, 22797825, 0, 0, 0, 0.01, 0, 0, 0, 0, 0, 0, 0
NKF4, 22797825, 0, 0, 0, 0, 0, 9.850688E-07, 0, 0, 0, 19, 229, 0, 0
NKF5, 22797825, 0, 0, 0, 0, 0.2, 0.13, 0, 0.19, 0.5, 3.574686E-05, 0.0006836297, 0.001242107
NKQ1, 22797825, 0.9999379, 0.002444237, 0.01080855, 0.001245412
AHR2, 22797871, 0.76, 0.45, 0.14, -0.33, 0, 0, 0.9999692, 0.006659961, 0.003941054, 0.001266707
MOTB, 22797879, 1, 1, 0, 1
RCIN, 22797883, 0, 0, 0, 0, 0, 0, 0, 0, 0, 0, 0, 0, 0, 0
RCOU, 22797888, 1101, 1101, 1101, 1101, 0, 0, 0, 0, 0, 0, 0, 0, 0, 0
VIBE, 22797897, 0.02050855, 0.01963029, 0.03239539, 0, 0, 0
CTRL, 22797903, 0.008516123, 0.0001438412, 0.004778562, 0.0003191825, 3.943579E-05
PRX, 22797934, 2, 0.61, 0, 0.6, 0, 3.6, 0, 2.47, 0, 0, 90, 0.6
IMU, 22797941, -0.0002843629, -0.002396978, -0.0001660944, 0.2142555, -0.04886198, -9.799448, 0, 0, 34.11219, 1, 1, 1000, 1000
IMU, 22837649, 0.0001457739, 0.0003799465, 0.0006340254, 0.2138654, -0.04115401, -9.82056, 0, 0, 34.11295, 1, 1, 1000, 1000
RFND, 22847597, 0.2, 25, 0, 0
IMU, 22877637, -0.0002613197, -0.0006621626, 0.0008817051, 0.2134322, -0.03867952, -9.811152, 0, 0, 34.11357, 1, 1, 1000, 1000
MAG, 22897639, 388, 529, 295, 0, 0, 0, 0, 0, 0, 1, 22897630
RFND, 22897674, 0.2, 25, 0, 0
BARO, 22897712, -0.4079763, 993.3828, 32.11, 0.1344784, 22897, 0, 31.58
CTUN, 22897725, 0, 0, 0, 0.2248824, 0.06694386, 0.06694386, -0.4, 0, 0.19, 0, 0, 0
ATT, 22897791, 0, 0.8, 0, 0.44, 0.13, 0.14, 0, 1
RATE, 22897797, -3.613265, -0.03548248, -0.008275325, -2.018912, 0.02908456, -0.005026225, 0.01429061, 0.03869941, -7.098496E-05, 25.28761, -1.712322, 0
NKF1, 22897804, 0.8, 0.44, 0.14, 0.008854476, 0.00368587, 0.0006243855, 0, 0, 0, -0.06694386, -0.02, -0.01, 0
NKF2, 22897804, 0, 0, 0, 0, 0, 0, 0, 0, 0, 0, 0, 0, 0
NKF3, 22897804, 0, 0, 0, 0.01, 0, 0, 0, 0, 0, 0, 0
NKF4, 22897804, 0, 0, 0, 0, 0, 7.715265E-07, 0, 0, 0, 19, 229, 0, 0
NKF5, 22897804, 0, 0, 0, 0, 0.2, 0.13, 0, 0.19, 0.5, 3.581747E-05, 0.0006588725, 0.001205116
NKQ1, 22897804, 0.9999378, 0.002447078, 0.01080206, 0.001277771
AHR2, 22897849, 0.76, 0.44, 0.15, -0.4, 0, 0, 0.9999694, 0.006648841, 0.003926597, 0.001299085
MOTB, 22897857, 1, 1, 0, 1
RCIN, 22897861, 0, 0, 0, 0, 0, 0, 0, 0, 0, 0, 0, 0, 0, 0
RCOU, 22897866, 1101, 1101, 1101, 1101, 0, 0, 0, 0, 0, 0, 0, 0, 0, 0
VIBE, 22897875, 0.02086924, 0.0199086, 0.03222728, 0, 0, 0
CTRL, 22897881, 0.008522097, 0.0001308967, 0.004757512, 0.0003270933, 4.033214E-05
PRX, 22897912, 2, 0.61, 0, 0.6, 0, 3.6, 0, 2.45, 0, 0, 90, 0.6
IMU, 22917631, -3.670059E-05, -0.0005617037, -0.0005531224, 0.2146004, -0.05310665, -9.812604, 0, 0, 34.1142, 1, 1, 1000, 1000
RFND, 22947592, 0.2, 25, 0, 0
IMU, 22957648, 0.0009287531, -0.001031592, -0.0009346213, 0.2121315, -0.04219196, -9.815709, 0, 0, 34.11484, 1, 1, 1000, 1000
MAG, 22997640, 389, 524, 301, 0, 0, 0, 0, 0, 0, 1, 22997632
RFND, 22997676, 0.2, 25, 0, 0
BARO, 22997714, -0.5197506, 993.3948, 32.11, -0.08033779, 22997, 0, 31.58
CTUN, 22997727, 0, 0, 0, 0.2248824, 0.06685397, 0.06685397, -0.51, 0, 0.19, 0, 0, 0
ATT, 22997794, 0, 0.8, 0, 0.44, 0.13, 0.14, 0, 1
RATE, 22997800, -3.633837, 0.102685, -0.008771956, -2.009459, -0.003659074, -0.004871651, 0.01542344, -0.0241476, 0.0001355693, 37.24531, -1.952934, 0
NKF1, 22997807, 0.8, 0.44, 0.14, 0.009451644, 0.003488726, 0.0009196372, 0, 0, 0, -0.06685397, -0.02, -0.01, 0
NKF2, 22997807, 0, 0, 0, 0, 0, 0, 0, 0, 0, 0, 0, 0, 0
NKF3, 22997807, 0, 0, 0, 0.01, 0, 0, 0, 0, 0, 0, 0
NKF4, 22997807, 0, 0, 0, 0, 0, 6.439655E-07, 0, 0, 0, 19, 229, 0, 0
NKF5, 22997807, 0, 0, 0, 0, 0.2, 0.13, 0, 0.19, 0.5, 3.579043E-05, 0.0006514526, 0.001201766
NKQ1, 22997807, 0.9999381, 0.00248832, 0.01078199, 0.001244518
AHR2, 22997853, 0.76, 0.44, 0.14, -0.51, 0, 0, 0.9999693, 0.006676582, 0.003899626, 0.001265647
MOTB, 22997860, 1, 1, 0, 1
RCIN, 22997864, 0, 0, 0, 0, 0, 0, 0, 0, 0, 0, 0, 0, 0, 0
RCOU, 22997990, 1101, 1101, 1101, 1101, 0, 0, 0, 0, 0, 0, 0, 0, 0, 0
VIBE, 22998000, 0.01790687, 0.01948133, 0.03052187, 0, 0, 0
CTRL, 22998006, 0.008560877, 0.0001580538, 0.004733358, 0.0002799649, 5.550035E-05
PRX, 22998038, 2, 0.61, 0, 0.6, 0, 3.6, 0, 2.47, 0, 0, 90, 0.6
IMU, 22998045, 0.001312863, -0.0002882529, -0.000430859, 0.2196325, -0.04933206, -9.794045, 0, 0, 34.115, 1, 1, 1000, 1000
IMU, 23037645, -0.0003015537, 0.0004352626, 0.0004657567, 0.2201975, -0.04906538, -9.811729, 0, 0, 34.11499, 1, 1, 1000, 1000
RFND, 23047578, 0.2, 25, 0, 0
IMU, 23077649, -0.0002536995, 0.0007526173, -0.0004107847, 0.2120222, -0.04850347, -9.80953, 0, 0, 34.11499, 1, 1, 1000, 1000
MAG, 23097613, 396, 526, 299, 0, 0, 0, 0, 0, 0, 1, 23097605
RFND, 23097649, 0.2, 25, 0, 0
BARO, 23097687, -0.4638635, 993.3889, 32.12, -0.3859707, 23097, 0, 31.58
CTUN, 23097700, 0, 0, 0, 0.2248824, 0.06674615, 0.06674615, -0.46, 0, 0.19, 0, 0, 0
ATT, 23097768, 0, 0.8, 0, 0.45, 0.13, 0.14, 0, 1
RATE, 23097774, -3.638885, -0.01560905, -0.008680766, -2.027867, 0.1347224, -0.005220928, 0.01228259, 0.03812629, -7.537024E-06, 18.88869, 0.5702972, 0
NKF1, 23097781, 0.8, 0.45, 0.14, 0.01027334, 0.004225756, 0.0004663873, 0, 0, 0, -0.06674615, -0.02, -0.01, 0
NKF2, 23097781, 0, 0, 0, 0, 0, 0, 0, 0, 0, 0, 0, 0, 0
NKF3, 23097781, 0, 0, 0, 0.01, 0, 0, 0, 0, 0, 0, 0
NKF4, 23097781, 0, 0, 0, 0, 0, 5.893281E-07, 0, 0, 0, 19, 229, 0, 0
NKF5, 23097781, 0, 0, 0, 0, 0.2, 0.13, 0, 0.19, 0.5, 3.607829E-05, 0.0006178154, 0.001141622
NKQ1, 23097781, 0.9999375, 0.002496895, 0.01081951, 0.001273198
AHR2, 23097825, 0.76, 0.44, 0.15, -0.46, 0, 0, 0.9999692, 0.006672041, 0.003931307, 0.001294073
MOTB, 23097832, 1, 1, 0, 1
RCIN, 23097837, 0, 0, 0, 0, 0, 0, 0, 0, 0, 0, 0, 0, 0, 0
RCOU, 23097842, 1101, 1101, 1101, 1101, 0, 0, 0, 0, 0, 0, 0, 0, 0, 0
VIBE, 23097850, 0.01827399, 0.01957904, 0.03016718, 0, 0, 0
CTRL, 23097857, 0.008574624, 0.0001758402, 0.004764581, 0.0002920881, 6.109798E-05
PRX, 23097888, 2, 0.61, 0, 0.6, 0, 3.6, 0, 2.45, 0, 0, 90, 0.6
IMU, 23117742, -0.001843227, 0.0002279296, 4.755E-05, 0.2104441, -0.04000936, -9.806027, 0, 0, 34.11502, 1, 1, 1000, 1000
RFND, 23148087, 0.2, 25, 0, 0
IMU, 23157753, -0.0005501328, 0.001097683, 1.523838E-05, 0.2211851, -0.04472682, -9.823242, 0, 0, 34.11511, 1, 1, 1000, 1000
MAG, 23197616, 390, 529, 296, 0, 0, 0, 0, 0, 0, 1, 23197608
RFND, 23197648, 0.2, 25, 0, 0
BARO, 23197687, -0.3912101, 993.3808, 32.12, -0.4837732, 23197, 0, 31.58
CTUN, 23197699, 0, 0, 0, 0.2248824, 0.06664193, 0.06664193, -0.39, 0, 0.19, 0, 0, 0
ATT, 23197765, 0, 0.8, 0, 0.45, 0.13, 0.14, 0, 1
RATE, 23197770, -3.639872, 0.04549698, -0.008500792, -2.035854, 0.0110736, -0.005171125, 0.0137686, 0.04186001, 4.311105E-06, 37.89398, -0.4535675, 0
NKF1, 23197778, 0.8, 0.45, 0.14, 0.01036763, 0.00516302, 0.0009356538, 0, 0, 0, -0.06664193, -0.02, -0.01, 0
NKF2, 23197778, 0, 0, 0, 0, 0, 0, 0, 0, 0, 0, 0, 0, 0
NKF3, 23197778, 0, 0, 0, 0.01, 0, 0, 0, 0, 0, 0, 0
NKF4, 23197778, 0, 0, 0, 0, 0, 5.614637E-07, 0, 0, 0, 19, 229, 0, 0
NKF5, 23197778, 0, 0, 0, 0, 0.2, 0.13, 0, 0.19, 0.5, 3.639863E-05, 0.0005759472, 0.001063608
NKQ1, 23197778, 0.9999374, 0.002498769, 0.0108351, 0.001270519
AHR2, 23197823, 0.76, 0.45, 0.15, -0.39, 0, 0, 0.9999692, 0.006660497, 0.003942562, 0.001291281
MOTB, 23197830, 1, 1, 0, 1
RCIN, 23197834, 0, 0, 0, 0, 0, 0, 0, 0, 0, 0, 0, 0, 0, 0
RCOU, 23197839, 1101, 1101, 1101, 1101, 0, 0, 0, 0, 0, 0, 0, 0, 0, 0
VIBE, 23197848, 0.02055589, 0.01925156, 0.02891294, 0, 0, 0
CTRL, 23197854, 0.008580334, 0.0001924559, 0.004793337, 0.0002785617, 5.87498E-05
PRX, 23197885, 2, 0.61, 0, 0.6, 0, 3.6, 0, 2.46, 0, 0, 90, 0.6
IMU, 23197892, 0.0003125161, -3.226487E-05, 0.0007211472, 0.203056, -0.03055156, -9.809547, 0, 0, 34.11517, 1, 1, 1000, 1000
IMU, 23237685, -0.001188434, -0.0001464079, -0.0004978997, 0.2138754, -0.04608567, -9.810438, 0, 0, 34.11518, 1, 1, 1000, 1000
RFND, 23247579, 0.2, 25, 0, 0
IMU, 23277673, -0.0002863964, -0.002310474, -0.0008145259, 0.215493, -0.04445424, -9.791735, 0, 0, 34.11517, 1, 1, 1000, 1000
MAG, 23297701, 390, 529, 295, 0, 0, 0, 0, 0, 0, 1, 23297692
RFND, 23297731, 0.2, 25, 0, 0
BARO, 23297772, -0.4470973, 993.3867, 32.13, -0.1973515, 23297, 0, 31.58
CTUN, 23297786, 0, 0, 0, 0.2248824, 0.06649727, 0.06649727, -0.44, 0, 0.19, 0, 0, 0
ATT, 23297851, 0, 0.8, 0, 0.44, 0.13, 0.14, 0, 1
RATE, 23297857, -3.626935, -0.02645114, -0.008315891, -2.012063, -0.03459108, -0.004990651, 0.01351289, -0.02047709, 0.0001039617, 47.61093, 0.05073547, 0
NKF1, 23297865, 0.8, 0.44, 0.14, 0.01044648, 0.005223735, 0.001175579, 0, 0, 0, -0.06649727, -0.02, -0.01, 0
NKF2, 23297865, 0, 0, 0, 0, 0, 0, 0, 0, 0, 0, 0, 0, 0
NKF3, 23297865, 0, 0, 0, 0.01, 0, 0, 0, 0, 0, 0, 0
NKF4, 23297865, 0, 0, 0, 0, 0, 5.844838E-07, 0, 0, 0, 19, 229, 0, 0
NKF5, 23297865, 0, 0, 0, 0, 0.2, 0.13, 0, 0.19, 0.5, 3.65121E-05, 0.0005690959, 0.00105468
NKQ1, 23297865, 0.999938, 0.002474651, 0.01078712, 0.001257967
AHR2, 23297909, 0.75, 0.44, 0.14, -0.44, 0, 0, 0.9999697, 0.006621212, 0.003888595, 0.001279106
MOTB, 23297916, 1, 1, 0, 1
RCIN, 23297920, 0, 0, 0, 0, 0, 0, 0, 0, 0, 0, 0, 0, 0, 0
RCOU, 23297925, 1101, 1101, 1101, 1101, 0, 0, 0, 0, 0, 0, 0, 0, 0, 0
VIBE, 23297934, 0.0192008, 0.01914542, 0.03564787, 0, 0, 0
CTRL, 23297940, 0.008560506, 0.0001882018, 0.00474064, 0.0002607377, 5.79865E-05
PRX, 23297971, 2, 0.61, 0, 0.6, 0, 3.6, 0, 2.46, 0, 0, 90, 0.6
IMU, 23317675, -0.001176111, -0.0002110989, -0.0001604764, 0.2159152, -0.0426612, -9.819624, 0, 0, 34.11508, 1, 1, 1000, 1000
RFND, 23347569, 0.2, 25, 0, 0
IMU, 23357633, -0.000764857, -0.002000628, 0.0009367249, 0.2237821, -0.04505636, -9.809376, 0, 0, 34.11501, 1, 1, 1000, 1000
MAG, 23397742, 393, 523, 305, 0, 0, 0, 0, 0, 0, 1, 23397733
RFND, 23397773, 0.2, 25, 0, 0
BARO, 23397812, -0.413565, 993.3834, 32.13, 0.1274926, 23397, 0, 31.58
CTUN, 23397826, 0, 0, 0, 0.2248824, 0.06634623, 0.06634623, -0.41, 0, 0.19, 0, 0, 0
ATT, 23397893, 0, 0.8, 0, 0.44, 0.13, 0.14, 0, 1
RATE, 23397899, -3.617451, -0.03725344, -0.008303422, -1.983609, -0.02213211, -0.004961249, 0.01366012, -0.02800178, -2.271211E-05, 33.59235, 0.5110741, 0
NKF1, 23397907, 0.8, 0.44, 0.14, 0.0110232, 0.006314951, 0.0008294409, 0, 0, 0, -0.06634623, -0.02, -0.01, 0
NKF2, 23397907, 0, 0, 0, 0, 0, 0, 0, 0, 0, 0, 0, 0, 0
NKF3, 23397907, 0, 0, 0, 0.01, 0, 0, 0, 0, 0, 0, 0
NKF4, 23397907, 0, 0, 0, 0, 0, 6.174961E-07, 0, 0, 0, 19, 229, 0, 0
NKF5, 23397907, 0, 0, 0, 0, 0.2, 0.13, 0, 0.19, 0.5, 3.685252E-05, 0.0005244646, 0.0009683063
NKQ1, 23397907, 0.9999387, 0.00245711, 0.01073224, 0.001275597
AHR2, 23397953, 0.75, 0.43, 0.15, -0.41, 0, 0, 0.9999702, 0.00658336, 0.003823729, 0.001297109
MOTB, 23397960, 1, 1, 0, 1
RCIN, 23397964, 0, 0, 0, 0, 0, 0, 0, 0, 0, 0, 0, 0, 0, 0
RCOU, 23397969, 1101, 1101, 1101, 1101, 0, 0, 0, 0, 0, 0, 0, 0, 0, 0
VIBE, 23397978, 0.01884822, 0.02126261, 0.03790407, 0, 0, 0
CTRL, 23397984, 0.008541895, 0.0001710398, 0.004680954, 0.0002498936, 5.79153E-05
PRX, 23398016, 2, 0.61, 0, 0.6, 0, 3.6, 0, 2.47, 0, 0, 90, 0.6
IMU, 23398023, -0.001130062, -0.000611095, -0.0004981381, 0.22185, -0.03159271, -9.818752, 0, 0, 34.11513, 1, 1, 1000, 1000
IMU, 23437519, 0.0003561511, 3.732331E-05, -0.000500273, 0.2288349, -0.04853408, -9.826735, 0, 0, 34.11514, 1, 1, 1000, 1000
RFND, 23447546, 0.2, 25, 0, 0
IMU, 23477674, -0.001849955, -3.363868E-05, 0.0003664397, 0.2106868, -0.0330628, -9.80485, 0, 0, 34.11502, 1, 1, 1000, 1000
MAG, 23497644, 390, 528, 295, 0, 0, 0, 0, 0, 0, 1, 23497635
RFND, 23497676, 0.2, 25, 0, 0
BARO, 23497717, -0.3912101, 993.3805, 32.13, 0.1641685, 23497, 0, 31.58
CTUN, 23497730, 0, 0, 0, 0.2248824, 0.06627138, 0.06627138, -0.39, 0, 0.19, 0, 0, 0
ATT, 23497797, 0, 0.8, 0, 0.44, 0.13, 0.15, 0, 1
RATE, 23497803, -3.609702, -0.07791348, -0.008103678, -1.987725, 0.01012306, -0.004643293, 0.01396456, 0.008246617, -2.296738E-05, 6.049549, 1.142788, 0
NKF1, 23497811, 0.8, 0.44, 0.15, 0.01190169, 0.00699175, 0.0001493716, 0, 0, 0, -0.06627138, -0.02, -0.01, 0
NKF2, 23497811, 0, 0, 0, 0, 0, 0, 0, 0, 0, 0, 0, 0, 0
NKF3, 23497811, 0, 0, 0, 0.01, 0, 0, 0, 0, 0, 0, 0
NKF4, 23497811, 0, 0, 0, 0, 0, 6.784925E-07, 0, 0, 0, 19, 229, 0, 0
NKF5, 23497811, 0, 0, 0, 0, 0.2, 0.13, 0, 0.19, 0.5, 3.685283E-05, 0.0005196326, 0.0009604304
NKQ1, 23497811, 0.9999385, 0.002440381, 0.01074068, 0.00129023
AHR2, 23497858, 0.75, 0.43, 0.15, -0.39, 0, 0, 0.9999704, 0.00654778, 0.003824092, 0.001311784
MOTB, 23497866, 1, 1, 0, 1
RCIN, 23497870, 0, 0, 0, 0, 0, 0, 0, 0, 0, 0, 0, 0, 0, 0
RCOU, 23497875, 1101, 1101, 1101, 1101, 0, 0, 0, 0, 0, 0, 0, 0, 0, 0
VIBE, 23497884, 0.01913279, 0.01863678, 0.03987906, 0, 0, 0
CTRL, 23497891, 0.008530376, 0.00017138, 0.004685585, 0.0002207284, 4.895037E-05
PRX, 23497923, 2, 0.61, 0, 0.6, 0, 3.6, 0, 2.46, 0, 0, 90, 0.6
IMU, 23517803, -8.593507E-05, 0.0001880375, 0.0004057679, 0.2126806, -0.05157856, -9.805191, 0, 0, 34.11513, 1, 1, 1000, 1000
RFND, 23547632, 0.2, 25, 0, 0
IMU, 23557639, -0.0009742237, -0.0005102948, 0.0002960994, 0.2314475, -0.04240071, -9.789836, 0, 0, 34.11506, 1, 1, 1000, 1000
MAG, 23597651, 394, 524, 295, 0, 0, 0, 0, 0, 0, 1, 23597642
RFND, 23597685, 0.2, 25, 0, 0
BARO, 23597723, -0.3912101, 993.3808, 32.14, 0.09605606, 23597, 0, 31.58
CTUN, 23597736, 0, 0, 0, 0.2248824, 0.06617087, 0.06617087, -0.39, 0, 0.19, 0, 0, 0
ATT, 23597803, 0, 0.8, 0, 0.44, 0.14, 0.15, 0, 1
RATE, 23597808, -3.601947, -0.06975088, -0.008163868, -1.991818, 0.02923128, -0.004822234, 0.01277495, 0.06442735, -5.959866E-05, 53.52397, -0.9849548, 0
NKF1, 23597816, 0.8, 0.44, 0.15, 0.01261482, 0.007473788, 0.001321579, 0, 0, 0, -0.06617087, -0.02, -0.01, 0
NKF2, 23597816, 0, 0, 0, 0, 0, 0, 0, 0, 0, 0, 0, 0, 0
NKF3, 23597816, 0, 0, 0, 0.01, 0, 0, 0, 0, 0, 0, 0
NKF4, 23597816, 0, 0, 0, 0, 0, 7.543777E-07, 0, 0, 0, 19, 229, 0, 0
NKF5, 23597816, 0, 0, 0, 0, 0.2, 0.13, 0, 0.19, 0.5, 3.709332E-05, 0.0004741839, 0.0008670661
NKQ1, 23597816, 0.9999384, 0.002425622, 0.01075108, 0.001328942
AHR2, 23597860, 0.74, 0.43, 0.15, -0.39, 0, 0, 0.9999705, 0.006516118, 0.003830795, 0.001350492
MOTB, 23597868, 1, 1, 0, 1
RCIN, 23597872, 0, 0, 0, 0, 0, 0, 0, 0, 0, 0, 0, 0, 0, 0
RCOU, 23597877, 1101, 1101, 1101, 1101, 0, 0, 0, 0, 0, 0, 0, 0, 0, 0
VIBE, 23597885, 0.01923355, 0.01982247, 0.04021848, 0, 0, 0
CTRL, 23597892, 0.008506441, 0.000172627, 0.004692333, 0.0001940738, 4.815931E-05
PRX, 23597922, 2, 0.61, 0, 0.6, 0, 3.6, 0, 2.47, 0, 0, 90, 0.6
IMU, 23597929, -0.001698357, 0.0002847567, 0.001115033, 0.2136315, -0.04012935, -9.803946, 0, 0, 34.11507, 1, 1, 1000, 1000
IMU, 23637679, 0.0002510955, 0.001470633, 0.00101766, 0.2107609, -0.02955833, -9.811785, 0, 0, 34.11514, 1, 1, 1000, 1000
RFND, 23647610, 0.2, 25, 0, 0
IMU, 23677643, -0.0002435934, 5.700607E-05, 0.001921773, 0.2117719, -0.02879553, -9.826639, 0, 0, 34.11508, 1, 1, 1000, 1000
MAG, 23697468, 391, 524, 300, 0, 0, 0, 0, 0, 0, 1, 23697460
RFND, 23697500, 0.2, 25, 0, 0
BARO, 23697537, -0.5197506, 993.3947, 32.14, 0.06985897, 23697, 0, 31.58
CTUN, 23697549, 0, 0, 0, 0.2248824, 0.06603565, 0.06603565, -0.51, 0, 0.19, 0, 0, 0
ATT, 23697609, 0, 0.79, 0, 0.44, 0.14, 0.16, 0, 1
RATE, 23697614, -3.593621, -0.09077861, -0.007930959, -1.992921, -0.05700473, -0.004146931, 0.01172716, 0.03930825, -0.0001337658, 41.16832, 0.2896309, 0
NKF1, 23697622, 0.79, 0.44, 0.16, 0.01246332, 0.008870509, 0.001016502, 0, 0, 0, -0.06603565, -0.02, -0.01, 0
NKF2, 23697622, 0, 0, 0, 0, 0, 0, 0, 0, 0, 0, 0, 0, 0
NKF3, 23697622, 0, 0, 0, 0.01, 0, 0, 0, 0, 0, 0, 0
NKF4, 23697622, 0, 0, 0, 0, 0, 8.387944E-07, 0, 0, 0, 19, 229, 0, 0
NKF5, 23697622, 0, 0, 0, 0, 0.2, 0.13, 0, 0.19, 0.5, 3.711395E-05, 0.0004728994, 0.0008652066
NKQ1, 23697622, 0.9999384, 0.002409202, 0.01075254, 0.001374463
AHR2, 23697666, 0.74, 0.43, 0.16, -0.51, 0, 0, 0.9999707, 0.006482406, 0.003828135, 0.001396065
MOTB, 23697673, 1, 1, 0, 1
RCIN, 23697677, 0, 0, 0, 0, 0, 0, 0, 0, 0, 0, 0, 0, 0, 0
RCOU, 23697682, 1101, 1101, 1101, 1101, 0, 0, 0, 0, 0, 0, 0, 0, 0, 0
VIBE, 23697691, 0.02053183, 0.02054653, 0.03419558, 0, 0, 0
CTRL, 23697697, 0.008490817, 0.0001676982, 0.004713644, 0.0001987215, 6.628741E-05
PRX, 23697728, 2, 0.61, 0, 0.6, 0, 3.6, 0, 2.47, 0, 0, 90, 0.6
IMU, 23717505, 0.0004735944, -0.0009251886, 0.001254084, 0.2104554, -0.05358535, -9.815483, 0, 0, 34.11499, 1, 1, 1000, 1000
RFND, 23747499, 0.2, 25, 0, 0
IMU, 23757573, -0.001758715, -0.000463762, -0.0002808759, 0.2028058, -0.03826059, -9.809862, 0, 0, 34.11506, 1, 1, 1000, 1000
MAG, 23797478, 389, 523, 296, 0, 0, 0, 0, 0, 0, 1, 23797470
RFND, 23797511, 0.2, 25, 0, 0
BARO, 23797546, -0.4750409, 993.3899, 32.14, -0.08208424, 23797, 0, 31.58
CTUN, 23797559, 0, 0, 0, 0.2248824, 0.06590796, 0.06590796, -0.47, 0, 0.19, 0, 0, 0
DU32, 23797589, 7, 50389208
ATT, 23797679, 0, 0.79, 0, 0.44, 0.15, 0.16, 0, 1
RATE, 23797685, -3.597672, -0.01154861, -0.008320009, -1.985597, 0.005839601, -0.004875875, 0.01273403, 0.03071196, -2.551957E-05, 32.57285, 1.494217, 0
NKF1, 23797693, 0.79, 0.44, 0.16, 0.01222765, 0.009535354, 0.0008042679, 0, 0, 0, -0.06590796, -0.02, -0.01, 0
NKF2, 23797693, 0, 0, 0, 0, 0, 0, 0, 0, 0, 0, 0, 0, 0
NKF3, 23797693, 0, 0, 0, 0.02, 0, 0, 0, 0, 0, 0, 0
NKF4, 23797693, 0, 0, 0, 0, 0, 9.541217E-07, 0, 0, 0, 19, 229, 0, 0
NKF5, 23797693, 0, 0, 0, 0, 0.2, 0.13, 0, 0.19, 0.5, 3.750393E-05, 0.000426796, 0.0007675516
NKQ1, 23797693, 0.9999385, 0.00241599, 0.01073757, 0.001390018
AHR2, 23797738, 0.74, 0.43, 0.16, -0.47, 0, 0, 0.9999708, 0.006471348, 0.00380803, 0.001411597
MOTB, 23797745, 1, 1, 0, 1
RCIN, 23797749, 0, 0, 0, 0, 0, 0, 0, 0, 0, 0, 0, 0, 0, 0
RCOU, 23797755, 1101, 1101, 1101, 1101, 0, 0, 0, 0, 0, 0, 0, 0, 0, 0
VIBE, 23797764, 0.0175317, 0.02054702, 0.03470245, 0, 0, 0
CTRL, 23797770, 0.008488946, 0.0002017841, 0.004683023, 0.0002026777, 7.820758E-05
PRX, 23797800, 2, 0.61, 0, 0.6, 0, 3.6, 0, 2.47, 0, 0, 90, 0.6
IMU, 23797807, -0.0006816876, -0.0001232183, 0.0005266039, 0.2082086, -0.0437562, -9.828827, 0, 0, 34.11515, 1, 1, 1000, 1000
IMU, 23837708, -0.0001436078, -0.0008369413, 0.0005254952, 0.20569, -0.04728671, -9.809502, 0, 0, 34.1151, 1, 1, 1000, 1000
RFND, 23847763, 0.2, 25, 0, 0
IMU, 23877667, -0.0007679805, 0.0004740813, 0.0001868566, 0.2251741, -0.04857564, -9.804821, 0, 0, 34.11513, 1, 1, 1000, 1000
MAG, 23897801, 389, 527, 303, 0, 0, 0, 0, 0, 0, 1, 23897792
RFND, 23897835, 0.2, 25, 0, 0
BARO, 23897873, -0.4303312, 993.3853, 32.14, -0.2724499, 23897, 0, 31.58
CTUN, 23897885, 0, 0, 0, 0.2248824, 0.06584944, 0.06584944, -0.43, 0, 0.19, 0, 0, 0
ATT, 23897953, 0, 0.79, 0, 0.44, 0.15, 0.16, 0, 1
RATE, 23897959, -3.596607, -0.02233707, -0.008477477, -1.991513, 0.06087532, -0.004815078, 0.01460706, 0.06124573, 7.821356E-06, 38.11869, -1.339531, 0
NKF1, 23897967, 0.79, 0.44, 0.16, 0.01243038, 0.009607962, 0.0009412022, 0, 0, 0, -0.06584944, -0.02, -0.01, 0
NKF2, 23897967, 0, 0, 0, 0, 0, 0, 0, 0, 0, 0, 0, 0, 0
NKF3, 23897967, 0, 0, 0, 0.02, 0, 0, 0, 0, 0, 0, 0
NKF4, 23897967, 0, 0, 0, 0, 0, 1.05439E-06, 0, 0, 0, 19, 229, 0, 0
NKF5, 23897967, 0, 0, 0, 0, 0.19, 0.13, 0, 0.19, 0.5, 3.734471E-05, 0.0004292778, 0.0007744101
NKQ1, 23897967, 0.9999384, 0.002414478, 0.01075044, 0.001390675
AHR2, 23898013, 0.74, 0.43, 0.16, -0.43, 0, 0, 0.9999709, 0.006452621, 0.003814656, 0.001412158
MOTB, 23898020, 1, 1, 0, 1
RCIN, 23898024, 0, 0, 0, 0, 0, 0, 0, 0, 0, 0, 0, 0, 0, 0
RCOU, 23898029, 1101, 1101, 1101, 1101, 0, 0, 0, 0, 0, 0, 0, 0, 0, 0
VIBE, 23898038, 0.0185781, 0.02067251, 0.03321334, 0, 0, 0
CTRL, 23898045, 0.008485829, 0.0001897861, 0.004691527, 0.0001912008, 6.618478E-05
PRX, 23898077, 2, 0.61, 0, 0.6, 0, 3.6, 0, 2.45, 0, 0, 90, 0.6
IMU, 23917788, -0.0003888765, -0.001026225, 0.001378895, 0.2076773, -0.048889, -9.796032, 0, 0, 34.11515, 1, 1, 1000, 1000
EV, 23937353, 57
RFND, 23947627, 0.2, 25, 0, 0
IMU, 23957689, -0.0008785263, -0.001397089, 0.0006986443, 0.2111281, -0.04129165, -9.806803, 0, 0, 34.1151, 1, 1, 1000, 1000
MAG, 23997632, 391, 525, 300, 0, 0, 0, 0, 0, 0, 1, 23997623
RFND, 23997666, 0.2, 25, 0, 0
BARO, 23997704, -0.4247424, 993.3843, 32.15, -0.1833798, 23997, 0, 31.58
CTUN, 23997717, 0, 0, 0, 0.2248824, 0.06573603, 0.06573603, -0.42, 0, 0.19, 0, 0, 0
ATT, 23997784, 0, 0.79, 0, 0.44, 0.15, 0.16, 0, 1
RATE, 23997789, -3.590785, -0.01632418, -0.008337026, -1.984086, -0.01684184, -0.004742116, 0.01381473, 0.02938819, -5.699095E-05, 45.15503, 0.7392883, 0
NKF1, 23997797, 0.79, 0.44, 0.16, 0.01257048, 0.009871418, 0.001114939, 0, 0, 0, -0.06573603, -0.02, -0.01, 0
NKF2, 23997797, 0, 0, 0, 0, 0, 0, 0, 0, 0, 0, 0, 0, 0
NKF3, 23997797, 0, 0, 0, 0.02, 0, 0, 0, 0, 0, 0, 0
NKF4, 23997797, 0, 0, 0, 0, 0, 1.210923E-06, 0, 0, 0, 19, 229, 0, 0
NKF5, 23997797, 0, 0, 0, 0, 0.19, 0.13, 0, 0.19, 0.5, 3.784276E-05, 0.0003824192, 0.000673569
NKQ1, 23997797, 0.9999384, 0.002403476, 0.01073532, 0.001424137
AHR2, 23997841, 0.73, 0.43, 0.16, -0.42, 0, 0, 0.9999712, 0.006425662, 0.003789676, 0.001445754
MOTB, 23997849, 1, 1, 0, 1
RCIN, 23997853, 0, 0, 0, 0, 0, 0, 0, 0, 0, 0, 0, 0, 0, 0
RCOU, 23997858, 1114, 1114, 1114, 1114, 0, 0, 0, 0, 0, 0, 0, 0, 0, 0
VIBE, 23997867, 0.01909404, 0.02053276, 0.0327532, 0, 0, 0
CTRL, 23997874, 0.008476373, 0.0001645262, 0.004676768, 0.0002142166, 6.022938E-05
PRX, 23997905, 2, 0.61, 0, 0.6, 0, 3.6, 0, 2.46, 0, 0, 90, 0.6
IMU, 23997912, -0.0007651063, -0.000519252, 0.0005034974, 0.2146102, -0.05212686, -9.8211, 0, 0, 34.11502, 1, 1, 1000, 1000
IMU, 24037514, 0.0001202529, -0.0008432899, 0.001063936, 0.2100409, -0.04204957, -9.824935, 0, 0, 34.11513, 1, 1, 1000, 1000
RFND, 24047432, 0.2, 25, 0, 0
IMU, 24077736, -0.0004927076, -0.0002342388, 0.001442845, 0.2209659, -0.05200242, -9.827591, 0, 0, 34.11504, 1, 1, 1000, 1000
MAG, 24097488, 394, 527, 295, 0, 0, 0, 0, 0, 0, 1, 24097480
RFND, 24097522, 0.2, 25, 0, 0
BARO, 24097557, -0.4247424, 993.3843, 32.15, 0.08732365, 24097, 0, 31.58
CTUN, 24097570, 0, 0, 0, 0.2248824, 0.06568312, 0.06568312, -0.42, 0, 0.19, 0, 0, 0
ATT, 24097631, 0, 0.8, 0, 0.44, 0.15, 0.16, 0, 1
RATE, 24097637, -3.601876, -0.03005849, -0.008154095, -1.981966, 0.001973781, -0.004557942, 0.01383962, -0.01629405, -3.448595E-05, 8.379787, 0.3540039, 0
NKF1, 24097645, 0.8, 0.44, 0.16, 0.01276646, 0.01003284, 0.0002069083, 0, 0, 0, -0.06568312, -0.02, -0.01, 0
NKF2, 24097645, 0, 0, 0, 0, 0, 0, 0, 0, 0, 0, 0, 0, 0
NKF3, 24097645, 0, 0, 0, 0.02, 0.01, 0, 0, 0, 0, 0, 0
NKF4, 24097645, 0, 0, 0, 0, 0, 1.336607E-06, 0, 0, 0, 19, 229, 0, 0
NKF5, 24097645, 0, 0, 0, 0, 0.19, 0.13, 0, 0.19, 0.5, 3.848353E-05, 0.000320313, 0.000543229
NKQ1, 24097645, 0.9999385, 0.002425574, 0.01073003, 0.001433701
AHR2, 24097690, 0.73, 0.43, 0.16, -0.42, 0, 0, 0.9999712, 0.006433405, 0.003775, 0.001455181
MOTB, 24097698, 1, 1, 0, 1
RCIN, 24097702, 0, 0, 0, 0, 0, 0, 0, 0, 0, 0, 0, 0, 0, 0
RCOU, 24097707, 1138, 1138, 1138, 1138, 0, 0, 0, 0, 0, 0, 0, 0, 0, 0
VIBE, 24097716, 0.02231663, 0.02052796, 0.03388156, 0, 0, 0
CTRL, 24097721, 0.008507971, 0.0001582543, 0.004674971, 0.0002260929, 5.224991E-05
PRX, 24097753, 2, 0.61, 0, 0.6, 0, 3.6, 0, 2.46, 0, 0, 90, 0.6
IMU, 24117752, -0.0008087783, -0.001534091, -0.0003311341, 0.2211629, -0.03584905, -9.798599, 0, 0, 34.11504, 1, 1, 1000, 1000
RFND, 24147577, 0.2, 25, 0, 0
IMU, 24157686, -0.001064176, -0.0005573296, -0.0003314208, 0.2054293, -0.0453039, -9.818258, 0, 0, 34.11641, 1, 1, 1000, 1000
MAG, 24197654, 392, 526, 294, 0, 0, 0, 0, 0, 0, 1, 24197645
RFND, 24197689, 0.2, 25, 0, 0
BARO, 24197727, -0.3967988, 993.3811, 32.15, 0.1956051, 24197, 0, 31.58
CTUN, 24197740, 0, 0, 0, 0.2248824, 0.06564509, 0.06564509, -0.39, 0, 0.19, 0, 0, 0
ATT, 24197807, 0, 0.79, 0, 0.44, 0.15, 0.16, 0, 1
RATE, 24197812, -3.599499, 0.06206576, -0.008681653, -1.99226, 0.01689758, -0.004356561, 0.01390132, 0.01892491, 1.027547E-06, 31.7612, -1.094055, 0
NKF1, 24197820, 0.79, 0.44, 0.16, 0.01310457, 0.01057739, 0.0007842271, 0, 0, 0, -0.06564509, -0.02, -0.01, 0
NKF2, 24197820, 0, 0, 0, 0, 0, 0, 0, 0, 0, 0, 0, 0, 0
NKF3, 24197820, 0, 0, 0, 0.02, 0.01, 0, 0, 0, 0, 0, 0
NKF4, 24197820, 0, 0, 0, 0, 0, 1.527315E-06, 0, 0, 0, 19, 229, 0, 0
NKF5, 24197820, 0, 0, 0, 0, 0.19, 0.13, 0, 0.19, 0.5, 3.825822E-05, 0.0003414364, 0.0005862082
NKQ1, 24197820, 0.9999383, 0.002419512, 0.0107505, 0.001440813
AHR2, 24197864, 0.73, 0.43, 0.17, -0.39, 0, 0, 0.9999712, 0.006418508, 0.00378765, 0.00146222
MOTB, 24197871, 1, 1, 0, 1
RCIN, 24197875, 0, 0, 0, 0, 0, 0, 0, 0, 0, 0, 0, 0, 0, 0
RCOU, 24197881, 1162, 1162, 1162, 1162, 0, 0, 0, 0, 0, 0, 0, 0, 0, 0
VIBE, 24197889, 0.01955329, 0.02103557, 0.03439328, 0, 0, 0
CTRL, 24197896, 0.008490552, 0.0001637555, 0.004697657, 0.0002541959, 4.471563E-05
PRX, 24197928, 2, 0.61, 0, 0.6, 0, 3.6, 0, 2.47, 0, 0, 90, 0.6
IMU, 24197934, 0.0006039061, 6.984665E-05, 0.0003208938, 0.2202259, -0.03484787, -9.802709, 0, 0, 34.11764, 1, 1, 1000, 1000
IMU, 24237688, -0.001177437, -0.0004105196, 6.38888E-05, 0.2182741, -0.05061358, -9.803686, 0, 0, 34.11862, 1, 1, 1000, 1000
RFND, 24247594, 0.2, 25, 0, 0
IMU, 24278128, 0.0004130665, 0.001112109, 0.0002561051, 0.2199131, -0.06169818, -9.814795, 0, 0, 34.11987, 1, 1, 1000, 1000
MAG, 24297589, 390, 531, 295, 0, 0, 0, 0, 0, 0, 1, 24297581
RFND, 24297625, 0.2, 25, 0, 0
BARO, 24297663, -0.3967988, 993.3814, 32.16, 0.1449574, 24297, 0, 31.58
CTUN, 24297677, 0, 0, 0, 0.2248824, 0.06563347, 0.06563347, -0.39, 0, 0.19, 0, 0, 0
ATT, 24297746, 0, 0.8, 0, 0.44, 0.15, 0.16, 0, 1
RATE, 24297752, -3.59836, 0.07348394, -0.008756292, -2.010165, -0.01567391, -0.004340978, 0.01400278, -0.2433108, 0.0001554301, 5.443762, -0.5392075, 0
NKF1, 24297759, 0.8, 0.44, 0.16, 0.01414173, 0.01095783, 0.0001344139, 0, 0, 0, -0.06563347, -0.02, -0.01, 0
NKF2, 24297759, 0, 0, 0, 0, 0, 0, 0, 0, 0, 0, 0, 0, 0
NKF3, 24297759, 0, 0, 0, 0.02, 0.01, 0, 0, 0, 0, 0, 0
NKF4, 24297759, 0, 0, 0, 0, 0, 1.697794E-06, 0, 0, 0, 19, 229, 0, 0
NKF5, 24297759, 0, 0, 0, 0, 0.19, 0.13, 0, 0.19, 0.5, 3.912426E-05, 0.0002789287, 0.000456149
NKQ1, 24297759, 0.999938, 0.002420933, 0.01077787, 0.001429309
AHR2, 24297804, 0.73, 0.43, 0.16, -0.39, 0, 0, 0.9999712, 0.006410353, 0.003808131, 0.001450549
MOTB, 24297811, 1, 1, 0, 1
RCIN, 24297815, 0, 0, 0, 0, 0, 0, 0, 0, 0, 0, 0, 0, 0, 0
RCOU, 24297820, 1186, 1186, 1186, 1186, 0, 0, 0, 0, 0, 0, 0, 0, 0, 0
VIBE, 24297828, 0.04296051, 0.06971589, 0.044807, 0, 0, 0
CTRL, 24297835, 0.008482111, 0.000185657, 0.004728419, 0.0002379163, 4.834166E-05
PRX, 24297866, 2, 0.61, 0, 0.6, 0, 3.6, 0, 2.47, 0, 0, 90, 0.6
IMU, 24317897, -0.001728251, -0.0002628868, 0.006256525, 0.1976283, -0.0481955, -9.807888, 0, 0, 34.12053, 1, 1, 1000, 1000
RFND, 24347607, 0.2, 25, 0, 0
IMU, 24357675, -0.0002528548, 0.00187804, 0.001066666, 0.2657662, -0.01304744, -9.809735, 0, 0, 34.12091, 1, 1, 1000, 1000
MAG, 24397593, 396, 530, 295, 0, 0, 0, 0, 0, 0, 1, 24397585
RFND, 24397628, 0.2, 25, 0, 0
BARO, 24397666, -0.4303312, 993.3851, 32.16, 0.09954904, 24397, 0, 31.58
CTUN, 24397680, 0, 0, 0, 0.2248824, 0.06565179, 0.06565179, -0.43, 0, 0.19, 0, 0, 0
ATT, 24397747, 0, 0.79, 0, 0.46, 0.21, 0.22, 0, 1
RATE, 24397753, -3.578546, -0.2149077, -0.008203065, -2.08575, 0.5138323, -0.006859489, 0.01458146, 1.83763, -0.001855643, -26.63634, 6.351185, 0
NKF1, 24397761, 0.79, 0.46, 0.22, 0.01546361, 0.01061155, -0.0006576874, 0, 0, 0, -0.06565179, -0.02, -0.01, 0
NKF2, 24397761, 0, 0, 0, 0, 0, 0, 0, 0, 0, 0, 0, 0, 0
NKF3, 24397761, 0, 0, 0, 0.02, 0.01, 0, 0, 0, 0, 0, 0
NKF4, 24397761, 0, 0, 0, 0, 0, 1.904626E-06, 0, 0, 0, 19, 229, 0, 0
NKF5, 24397761, 0, 0, 0, 0, 0.19, 0.13, 0, 0.19, 0.5, 3.879118E-05, 0.0003027926, 0.0005036603
NKQ1, 24397761, 0.9999352, 0.002343566, 0.01098118, 0.001938966
AHR2, 24397805, 0.72, 0.45, 0.22, -0.43, 0, 0, 0.99997, 0.006326718, 0.004011503, 0.001959622
MOTB, 24397813, 1, 1, 0, 1
RCIN, 24397817, 0, 0, 0, 0, 0, 0, 0, 0, 0, 0, 0, 0, 0, 0
RCOU, 24397822, 1210, 1210, 1210, 1210, 0, 0, 0, 0, 0, 0, 0, 0, 0, 0
VIBE, 24397831, 0.1772756, 0.1585287, 0.2023201, 0, 0, 0
CTRL, 24397837, 0.00841656, 0.000335454, 0.004908924, 0.0003852755, 0.0003973949
PRX, 24397868, 2, 0.61, 0, 0.6, 0, 3.6, 0, 2.45, 0, 0, 90, 0.6
IMU, 24397875, -0.004230289, 0.008742753, 0.03206329, 0.3670492, 0.0001598186, -9.874118, 0, 0, 34.12143, 1, 1, 1000, 1000
IMU, 24437667, 0.0009202122, 0.01043051, -0.04374908, 0.252329, -0.0163923, -9.767603, 0, 0, 34.12265, 1, 1, 1000, 1000
RFND, 24447574, 0.2, 25, 0, 0
IMU, 24477906, 0.005107612, 0.001635976, -0.004093382, 0.2678187, -0.007796835, -9.860697, 0, 0, 34.12385, 1, 1, 1000, 1000
MAG, 24497655, 398, 538, 299, 0, 0, 0, 0, 0, 0, 1, 24497647
RFND, 24497689, 0.2, 25, 0, 0
BARO, 24497727, -0.4023876, 993.3819, 32.16, 0.04540829, 24497, 0, 31.58
CTUN, 24497741, 0, 0, 0, 0.2248824, 0.0658068, 0.0658068, -0.4, 0, 0.19, 0, 0, 0
ATT, 24497808, 0, 0.78, 0, 0.5, 0.16, 0.17, 0, 1
RATE, 24497814, -3.548382, -0.1508334, -0.006286607, -2.267939, 0.3542464, -0.006191218, 0.01565619, 0.8971221, 0.0004306776, -62.35789, -0.7957458, 0
NKF1, 24497821, 0.78, 0.5, 0.17, 0.01517673, 0.01026294, -0.001539701, 0, 0, 0, -0.0658068, -0.02, -0.01, 0
NKF2, 24497821, 0, 0, 0, 0, 0, 0, 0, 0, 0, 0, 0, 0, 0
NKF3, 24497821, 0, 0, 0, 0.03, 0.01, 0, 0, 0, 0, 0, 0
NKF4, 24497821, 0, 0, 0, 0, 0, 2.12952E-06, 0, 0, 0, 19, 229, 0, 0
NKF5, 24497821, 0, 0, 0, 0, 0.19, 0.13, 0, 0.19, 0.5, 3.979299E-05, 0.0002414395, 0.0003846844
NKQ1, 24497821, 0.9999323, 0.002304588, 0.01130891, 0.001504152
AHR2, 24497867, 0.71, 0.49, 0.17, -0.4, 0, 0, 0.9999698, 0.00627138, 0.004332162, 0.001523359
MOTB, 24497875, 1, 1, 0, 1
RCIN, 24497879, 0, 0, 0, 0, 0, 0, 0, 0, 0, 0, 0, 0, 0, 0
RCOU, 24497884, 1232, 1232, 1221, 1242, 0, 0, 0, 0, 0, 0, 0, 0, 0, 0
VIBE, 24497893, 0.4648934, 0.4503619, 0.4803651, 0, 0, 0
CTRL, 24497899, 0.008428854, 0.0007422424, 0.005373522, 0.000834878, 0.0007481584
PRX, 24497931, 2, 0.61, 0, 0.6, 0, 3.6, 0, 2.46, 0, 0, 90, 0.6
IMU, 24517737, -0.002175573, -0.0009292214, 0.001438628, 0.3387063, -0.06494293, -9.868251, 0, 0, 34.12464, 1, 1, 1000, 1000
RFND, 24547581, 0.2, 25, 0, 0
IMU, 24557699, -0.004518336, 0.0081141, 0.003891942, 0.2851414, -0.05669626, -9.798876, 0, 0, 34.12416, 1, 1, 1000, 1000
MAG, 24597641, 392, 534, 293, 0, 0, 0, 0, 0, 0, 1, 24597632
RFND, 24597676, 0.2, 25, 0, 0
BARO, 24597713, -0.3912101, 993.3805, 32.16, -0.01397186, 24597, 0, 31.58
CTUN, 24597726, 0, 0, 0, 0.2248824, 0.06601018, 0.06601018, -0.39, 0, 0.19, 0, 0, 0
ATT, 24597791, 0, 0.79, 0, 0.53, 0.16, 0.17, 0, 1
RATE, 24597797, -3.585113, 0.2537618, -0.01033356, -2.3889, 0.5343475, -0.008548589, 0.01669714, 1.731172, 0.0001951099, -82.24818, -4.778767, 0
NKF1, 24597804, 0.79, 0.53, 0.17, 0.01254948, 0.009938549, -0.002030819, 0, 0, 0, -0.06601018, -0.02, -0.01, 0
NKF2, 24597804, 0, 0, 0, 0, 0, 0, 0, 0, 0, 0, 0, 0, 0
NKF3, 24597804, 0, 0, 0, 0.03, 0.01, 0, 0, 0, 0, 0, 0
NKF4, 24597804, 0, 0, 0, 0, 0, 2.336308E-06, 0, 0, 0, 19, 229, 0, 0
NKF5, 24597804, 0, 0, 0, 0, 0.19, 0.13, 0, 0.19, 0.5, 3.935004E-05, 0.0002691398, 0.000423932
NKQ1, 24597804, 0.9999292, 0.002358552, 0.01156553, 0.001506239
AHR2, 24597849, 0.72, 0.52, 0.17, -0.39, 0, 0, 0.9999685, 0.006299106, 0.004576118, 0.001523715
MOTB, 24597856, 1, 1, 0, 1
RCIN, 24597860, 0, 0, 0, 0, 0, 0, 0, 0, 0, 0, 0, 0, 0, 0
RCOU, 24597865, 1239, 1236, 1221, 1252, 0, 0, 0, 0, 0, 0, 0, 0, 0, 0
VIBE, 24597874, 0.4857779, 0.4296529, 0.5573135, 0, 0, 0
CTRL, 24597880, 0.008386868, 0.0008266722, 0.005617351, 0.0009096496, 0.0007036435
PRX, 24597911, 2, 0.61, 0, 0.6, 0, 3.6, 0, 2.46, 0, 0, 90, 0.6
IMU, 24597918, 0.003948479, 0.009100083, 0.03020521, 0.1767789, -0.0758864, -9.76668, 0, 0, 34.12354, 1, 1, 1000, 1000
IMU, 24637663, -0.001540818, -0.001135339, -0.007660367, 0.1121608, 0.01767335, -9.821197, 0, 0, 34.12302, 1, 1, 1000, 1000
RFND, 24647615, 0.2, 25, 0, 0
IMU, 24677662, -0.01344435, -0.006646297, -0.008135248, 0.1468214, -0.04302948, -9.825349, 0, 0, 34.12255, 1, 1, 1000, 1000
MAG, 24697604, 389, 530, 299, 0, 0, 0, 0, 0, 0, 1, 24697595
RFND, 24697638, 0.2, 25, 0, 0
BARO, 24697676, -0.335323, 993.3741, 32.16, 0.02619706, 24697, 0, 31.58
CTUN, 24697689, 0, 0, 0, 0.2248824, 0.06619446, 0.06619446, -0.33, 0, 0.19, 0, 0, 0
ATT, 24697755, 0, 0.79, 0, 0.53, 0.17, 0.18, 0, 1
RATE, 24697761, -3.57201, 0.9415471, -0.01490825, -2.426314, 0.3592307, -0.007838607, 0.01680813, 0.04817469, -0.0001516462, -38.01817, -1.480484, 0
NKF1, 24697768, 0.79, 0.53, 0.18, 0.01617669, 0.01162119, -0.0009387201, 0, 0, 0, -0.06619446, -0.02, -0.01, 0
NKF2, 24697768, 0, 0, 0, 0, 0, 0, 0, 0, 0, 0, 0, 0, 0
NKF3, 24697768, 0, 0, 0, 0.03, 0.01, 0, 0, 0, 0, 0, 0
NKF4, 24697768, 0, 0, 0, 0, 0, 2.61231E-06, 0, 0, 0, 19, 229, 0, 0
NKF5, 24697768, 0, 0, 0, 0, 0.19, 0.13, 0, 0.19, 0.5, 4.067261E-05, 0.0002041138, 0.0003015017
NKQ1, 24697768, 0.9999288, 0.002363139, 0.01159319, 0.001563141
AHR2, 24697813, 0.72, 0.52, 0.18, -0.33, 0, 0, 0.9999685, 0.006276628, 0.004592967, 0.001580376
MOTB, 24697820, 1, 1, 0, 1
RCIN, 24697824, 0, 0, 0, 0, 0, 0, 0, 0, 0, 0, 0, 0, 0, 0
RCOU, 24697829, 1246, 1234, 1221, 1258, 0, 0, 0, 0, 0, 0, 0, 0, 0, 0
VIBE, 24697838, 0.4421169, 0.5119702, 0.7170789, 0, 0, 0
CTRL, 24697845, 0.008409836, 0.00185311, 0.005701534, 0.001090528, 0.0006601816
PRX, 24697875, 2, 0.61, 0, 0.6, 0, 3.6, 0, 2.47, 0, 0, 90, 0.6
IMU, 24717654, -0.0037764, -0.007385103, 0.006708991, 0.1151916, -0.0617059, -9.803965, 0, 0, 34.12264, 1, 1, 1000, 1000
RFND, 24747578, 0.2, 25, 0, 0
IMU, 24757633, 0.002929324, 0.005848567, 0.01187839, 0.1526625, 0.01340273, -9.768713, 0, 0, 34.12341, 1, 1, 1000, 1000
MAG, 24797642, 389, 533, 294, 0, 0, 0, 0, 0, 0, 1, 24797633
RFND, 24797677, 0.2, 25, 0, 0
BARO, 24797715, -0.2906133, 993.3695, 32.17, 0.1711544, 24797, 0, 31.58
CTUN, 24797728, 0, 0, 0, 0.2248824, 0.0663728, 0.0663728, -0.29, 0, 0.19, 0, 0, 0
DU32, 24797760, 7, 33611992
ATT, 24797855, 0, 0.78, 0, 0.54, 0.16, 0.17, 0, 1
RATE, 24797861, -3.556285, -0.4591228, -0.007022697, -2.447709, 0.02521409, -0.006582442, 0.01691543, 0.6942112, 0.000227975, -11.57754, -5.843163, 0
NKF1, 24797869, 0.78, 0.54, 0.17, 0.01487113, 0.01169955, -0.0002858652, 0, 0, 0, -0.0663728, -0.02, -0.01, 0
NKF2, 24797869, 0, 0, 0, 0, 0, 0, 0, 0, 0, 0, 0, 0, 0
NKF3, 24797869, 0, 0, 0, 0.03, 0.01, 0, 0, 0, 0, 0, 0
NKF4, 24797869, 0, 0, 0, 0, 0, 2.864764E-06, 0, 0, 0, 19, 229, 0, 0
NKF5, 24797869, 0, 0, 0, 0, 0.19, 0.13, 0, 0.19, 0.5, 4.216845E-05, 0.0001418778, 0.0003126464
NKQ1, 24797869, 0.9999284, 0.002321682, 0.01165187, 0.001493395
AHR2, 24797913, 0.71, 0.53, 0.17, -0.29, 0, 0, 0.9999688, 0.006202924, 0.00464654, 0.001510483
MOTB, 24797920, 1, 1, 0, 1
RCIN, 24797924, 0, 0, 0, 0, 0, 0, 0, 0, 0, 0, 0, 0, 0, 0
RCOU, 24797929, 1233, 1233, 1221, 1244, 0, 0, 0, 0, 0, 0, 0, 0, 0, 0
VIBE, 24797937, 0.4010269, 0.4536304, 0.6978433, 0, 0, 0
CTRL, 24797944, 0.008423625, 0.001795936, 0.005789232, 0.001307763, 0.000641051
PRX, 24797975, 2, 0.61, 0, 0.6, 0, 3.6, 0, 2.45, 0, 0, 90, 0.6
IMU, 24797982, -0.008493587, 0.0002135056, 0.01210683, 0.1246115, -0.04639145, -9.757399, 0, 0, 34.1241, 1, 1, 1000, 1000
IMU, 24837651, -0.006466827, -0.01005241, 0.00200644, 0.25119, -0.1038479, -9.853988, 0, 0, 34.12556, 1, 1, 1000, 1000
RFND, 24847742, 0.2, 25, 0, 0
IMU, 24878085, 0.006173953, 0.0006369065, 0.0118384, 0.4084511, -0.1054769, -9.787305, 0, 0, 34.12628, 1, 1, 1000, 1000
MAG, 24897618, 388, 537, 301, 0, 0, 0, 0, 0, 0, 1, 24897609
RFND, 24897652, 0.2, 25, 0, 0
BARO, 24897690, -0.2459035, 993.3644, 32.17, 0.3265906, 24897, 0, 31.58
CTUN, 24897704, 0, 0, 0, 0.2248824, 0.06646194, 0.06646194, -0.24, 0, 0.19, 0, 0, 0
ATT, 24897772, 0, 0.79, 0, 0.54, 0.15, 0.16, 0, 1
RATE, 24897777, -3.563251, -0.50546, -0.00547845, -2.432649, -0.3657616, -0.003273647, 0.01681485, 0.150943, -2.263205E-05, 10.79415, -5.348301, 0
NKF1, 24897784, 0.79, 0.54, 0.16, 0.01289002, 0.01065235, 0.0002665223, 0, 0, 0, -0.06646194, -0.02, -0.01, 0
NKF2, 24897784, 0, 0, 0, 0, 0, 0, 0, 0, 0, 0, 0, 0, 0
NKF3, 24897784, 0, 0, 0, 0.03, 0.01, 0, 0, 0, 0, 0, 0
NKF4, 24897784, 0, 0, 0, 0, 0, 3.162423E-06, 0, 0, 0, 19, 229, 0, 0
NKF5, 24897784, 0, 0, 0, 0, 0.2, 0.13, 0, 0.19, 0.5, 4.134273E-05, 0.0001729888, 0.000242221
NKQ1, 24897784, 0.999929, 0.002345733, 0.01160765, 0.001411022
AHR2, 24897829, 0.71, 0.52, 0.16, -0.24, 0, 0, 0.9999692, 0.006197711, 0.004605331, 0.001428015
MOTB, 24897837, 1, 1, 0, 1
RCIN, 24897841, 0, 0, 0, 0, 0, 0, 0, 0, 0, 0, 0, 0, 0, 0
RCOU, 24897846, 1230, 1226, 1221, 1236, 0, 0, 0, 0, 0, 0, 0, 0, 0, 0
VIBE, 24897855, 0.5135862, 0.4188014, 0.5997223, 0, 0, 0
CTRL, 24897862, 0.008437325, 0.001857439, 0.005841529, 0.001574158, 0.0005803011
PRX, 24897893, 2, 0.61, 0, 0.6, 0, 3.6, 0, 2.46, 0, 0, 90, 0.6
IMU, 24917627, 0.00407501, 0.01376012, -0.007978042, 0.5753095, 0.04166277, -9.81358, 0, 0, 34.1256, 1, 1, 1000, 1000
RFND, 24947594, 0.2, 25, 0, 0
