FMT, 128, 89, FMT, BBnNZ, Type,Length,Name,Format,Columns
FMT, 129, 31, PARM, QNf, TimeUS,Name,Value
FMT, 130, 46, GPS, QBIHBcLLefffB, TimeUS,Status,GMS,GWk,NSats,HDop,Lat,Lng,Alt,Spd,GCrs,VZ,U
FMT, 131, 46, GPS2, QBIHBcLLefffB, TimeUS,Status,GMS,GWk,NSats,HDop,Lat,Lng,Alt,Spd,GCrs,VZ,U
FMT, 132, 46, GPSB, QBIHBcLLefffB, TimeUS,Status,GMS,GWk,NSats,HDop,Lat,Lng,Alt,Spd,GCrs,VZ,U
FMT, 193, 24, GPA, QCCCCBI, TimeUS,VDop,HAcc,VAcc,SAcc,VV,SMS
FMT, 194, 24, GPA2, QCCCCBI, TimeUS,VDop,HAcc,VAcc,SAcc,VV,SMS
FMT, 195, 24, GPAB, QCCCCBI, TimeUS,VDop,HAcc,VAcc,SAcc,VV,SMS
FMT, 133, 53, IMU, QffffffIIfBBHH, TimeUS,GyrX,GyrY,GyrZ,AccX,AccY,AccZ,EG,EA,T,GH,AH,GHz,AHz
FMT, 134, 75, MSG, QZ, TimeUS,Message
FMT, 135, 39, RCIN, QHHHHHHHHHHHHHH, TimeUS,C1,C2,C3,C4,C5,C6,C7,C8,C9,C10,C11,C12,C13,C14
FMT, 136, 39, RCOU, QHHHHHHHHHHHHHH, TimeUS,C1,C2,C3,C4,C5,C6,C7,C8,C9,C10,C11,C12,C13,C14
FMT, 137, 15, RSSI, Qf, TimeUS,RXRSSI
FMT, 139, 37, BARO, QffcfIff, TimeUS,Alt,Press,Temp,CRt,SMS,Offset,GndTemp
FMT, 140, 22, POWR, QffHB, TimeUS,Vcc,VServo,Flags,Safety
FMT, 143, 45, CMD, QHHHfffffff, TimeUS,CTot,CNum,CId,Prm1,Prm2,Prm3,Prm4,Lat,Lng,Alt
FMT, 144, 20, RAD, QBBBBBHH, TimeUS,RSSI,RemRSSI,TxBuf,Noise,RemNoise,RxErrors,Fixed
FMT, 146, 43, CAM, QIHLLeeeccC, TimeUS,GPSTime,GPSWeek,Lat,Lng,Alt,RelAlt,GPSAlt,Roll,Pitch,Yaw
FMT, 232, 43, TRIG, QIHLLeeeccC, TimeUS,GPSTime,GPSWeek,Lat,Lng,Alt,RelAlt,GPSAlt,Roll,Pitch,Yaw
FMT, 162, 30, ARSP, QffcffB, TimeUS,Airspeed,DiffPress,Temp,RawPress,Offset,U
FMT, 164, 45, CURR, QfffcHHHHHHHHHH, TimeUS,Volt,Curr,CurrTot,Temp,V1,V2,V3,V4,V5,V6,V7,V8,V9,V10
FMT, 165, 45, CUR2, QfffcHHHHHHHHHH, TimeUS,Volt,Curr,CurrTot,Temp,V1,V2,V3,V4,V5,V6,V7,V8,V9,V10
FMT, 163, 27, ATT, QccccCCCC, TimeUS,DesRoll,Roll,DesPitch,Pitch,DesYaw,Yaw,ErrRP,ErrYaw
FMT, 166, 34, MAG, QhhhhhhhhhBI, TimeUS,MagX,MagY,MagZ,OfsX,OfsY,OfsZ,MOfsX,MOfsY,MOfsZ,Health,S
FMT, 169, 14, MODE, QMBB, TimeUS,Mode,ModeNum,Rsn
FMT, 196, 17, RFND, QCBCB, TimeUS,Dist1,Orient1,Dist2,Orient2
FMT, 223, 33, DMS, IIIIIBBBBBBBBBB, TimeMS,N,Dp,RT,RS,Er,Fa,Fmn,Fmx,Pa,Pmn,Pmx,Sa,Smn,Smx
FMT, 240, 41, BCN, QBBfffffff, TimeUS,Health,Cnt,D0,D1,D2,D3,PosX,PosY,PosZ
FMT, 138, 53, IMU2, QffffffIIfBBHH, TimeUS,GyrX,GyrY,GyrZ,AccX,AccY,AccZ,EG,EA,T,GH,AH,GHz,AHz
FMT, 147, 53, IMU3, QffffffIIfBBHH, TimeUS,GyrX,GyrY,GyrZ,AccX,AccY,AccZ,EG,EA,T,GH,AH,GHz,AHz
FMT, 141, 45, AHR2, QccCfLLffff, TimeUS,Roll,Pitch,Yaw,Alt,Lat,Lng,Q1,Q2,Q3,Q4
FMT, 180, 31, POS, QLLfff, TimeUS,Lat,Lng,Alt,RelHomeAlt,RelOriginAlt
FMT, 142, 45, SIM, QccCfLLffff, TimeUS,Roll,Pitch,Yaw,Alt,Lat,Lng,Q1,Q2,Q3,Q4
FMT, 198, 51, NKF1, QccCfffffffccc, TimeUS,Roll,Pitch,Yaw,VN,VE,VD,dPD,PN,PE,PD,GX,GY,GZ
FMT, 199, 35, NKF2, QbccccchhhhhhB, TimeUS,AZbias,GSX,GSY,GSZ,VWN,VWE,MN,ME,MD,MX,MY,MZ,MI
FMT, 200, 33, NKF3, Qcccccchhhcc, TimeUS,IVN,IVE,IVD,IPN,IPE,IPD,IMX,IMY,IMZ,IYAW,IVT
FMT, 201, 35, NKF4, QcccccfbbHBHHb, TimeUS,SV,SP,SH,SM,SVT,errRP,OFN,OFE,FS,TS,SS,GPS,PI
FMT, 202, 40, NKF5, QBhhhcccCCfff, TimeUS,NI,FIX,FIY,AFI,HAGL,offset,RI,rng,Herr,eAng,eVel,ePos
FMT, 203, 51, NKF6, QccCfffffffccc, TimeUS,Roll,Pitch,Yaw,VN,VE,VD,dPD,PN,PE,PD,GX,GY,GZ
FMT, 204, 35, NKF7, QbccccchhhhhhB, TimeUS,AZbias,GSX,GSY,GSZ,VWN,VWE,MN,ME,MD,MX,MY,MZ,MI
FMT, 205, 33, NKF8, Qcccccchhhcc, TimeUS,IVN,IVE,IVD,IPN,IPE,IPD,IMX,IMY,IMZ,IYAW,IVT
FMT, 206, 35, NKF9, QcccccfbbHBHHb, TimeUS,SV,SP,SH,SM,SVT,errRP,OFN,OFE,FS,TS,SS,GPS,PI
FMT, 207, 36, NKF0, QBccCCcccccccc, TimeUS,ID,rng,innov,SIV,TR,BPN,BPE,BPD,OFH,OFL,OFN,OFE,OFD
FMT, 208, 27, NKQ1, Qffff, TimeUS,Q1,Q2,Q3,Q4
FMT, 209, 27, NKQ2, Qffff, TimeUS,Q1,Q2,Q3,Q4
FMT, 210, 51, XKF1, QccCfffffffccc, TimeUS,Roll,Pitch,Yaw,VN,VE,VD,dPD,PN,PE,PD,GX,GY,GZ
FMT, 211, 34, XKF2, QccccchhhhhhB, TimeUS,AX,AY,AZ,VWN,VWE,MN,ME,MD,MX,MY,MZ,MI
FMT, 212, 33, XKF3, Qcccccchhhcc, TimeUS,IVN,IVE,IVD,IPN,IPE,IPD,IMX,IMY,IMZ,IYAW,IVT
FMT, 213, 35, XKF4, QcccccfbbHBHHb, TimeUS,SV,SP,SH,SM,SVT,errRP,OFN,OFE,FS,TS,SS,GPS,PI
FMT, 214, 40, XKF5, QBhhhcccCCfff, TimeUS,NI,FIX,FIY,AFI,HAGL,offset,RI,rng,Herr,eAng,eVel,ePos
FMT, 215, 51, XKF6, QccCfffffffccc, TimeUS,Roll,Pitch,Yaw,VN,VE,VD,dPD,PN,PE,PD,GX,GY,GZ
FMT, 216, 34, XKF7, QccccchhhhhhB, TimeUS,AX,AY,AZ,VWN,VWE,MN,ME,MD,MX,MY,MZ,MI
FMT, 217, 33, XKF8, Qcccccchhhcc, TimeUS,IVN,IVE,IVD,IPN,IPE,IPD,IMX,IMY,IMZ,IYAW,IVT
FMT, 218, 35, XKF9, QcccccfbbHBHHb, TimeUS,SV,SP,SH,SM,SVT,errRP,OFN,OFE,FS,TS,SS,GPS,PI
FMT, 219, 36, XKF0, QBccCCcccccccc, TimeUS,ID,rng,innov,SIV,TR,BPN,BPE,BPD,OFH,OFL,OFN,OFE,OFD
FMT, 220, 27, XKQ1, Qffff, TimeUS,Q1,Q2,Q3,Q4
FMT, 221, 27, XKQ2, Qffff, TimeUS,Q1,Q2,Q3,Q4
FMT, 222, 35, XKFD, Qffffff, TimeUS,IX,IY,IZ,IVX,IVY,IVZ
FMT, 148, 34, TERR, QBLLHffHH, TimeUS,Status,Lat,Lng,Spacing,TerrH,CHeight,Pending,Loaded
FMT, 149, 18, UBX1, QBHBBH, TimeUS,Instance,noisePerMS,jamInd,aPower,agcCnt
FMT, 150, 16, UBX2, QBbBbB, TimeUS,Instance,ofsI,magI,ofsQ,magQ
FMT, 151, 18, UBY1, QBHBBH, TimeUS,Instance,noisePerMS,jamInd,aPower,agcCnt
FMT, 152, 16, UBY2, QBbBbB, TimeUS,Instance,ofsI,magI,ofsQ,magQ
FMT, 170, 42, GRAW, QIHBBddfBbB, TimeUS,WkMS,Week,numSV,sv,cpMes,prMes,doMes,mesQI,cno,lli
FMT, 171, 24, GRXH, QdHbBB, TimeUS,rcvTime,week,leapS,numMeas,recStat
FMT, 172, 41, GRXS, QddfBBBHBBBBB, TimeUS,prMes,cpMes,doMes,gnss,sv,freq,lock,cno,prD,cpD,doD,trk
FMT, 173, 63, SBFE, QIHBBdddfffff, TimeUS,TOW,WN,Mode,Err,Lat,Lng,Height,Undul,Vn,Ve,Vu,COG
FMT, 153, 19, ESC1, Qcccc, TimeUS,RPM,Volt,Curr,Temp
FMT, 154, 19, ESC2, Qcccc, TimeUS,RPM,Volt,Curr,Temp
FMT, 155, 19, ESC3, Qcccc, TimeUS,RPM,Volt,Curr,Temp
FMT, 156, 19, ESC4, Qcccc, TimeUS,RPM,Volt,Curr,Temp
FMT, 157, 19, ESC5, Qcccc, TimeUS,RPM,Volt,Curr,Temp
FMT, 158, 19, ESC6, Qcccc, TimeUS,RPM,Volt,Curr,Temp
FMT, 159, 19, ESC7, Qcccc, TimeUS,RPM,Volt,Curr,Temp
FMT, 160, 19, ESC8, Qcccc, TimeUS,RPM,Volt,Curr,Temp
FMT, 167, 34, MAG2, QhhhhhhhhhBI, TimeUS,MagX,MagY,MagZ,OfsX,OfsY,OfsZ,MOfsX,MOfsY,MOfsZ,Health,S
FMT, 168, 34, MAG3, QhhhhhhhhhBI, TimeUS,MagX,MagY,MagZ,OfsX,OfsY,OfsZ,MOfsX,MOfsY,MOfsZ,Health,S
FMT, 174, 31, ACC1, QQfff, TimeUS,SampleUS,AccX,AccY,AccZ
FMT, 175, 31, ACC2, QQfff, TimeUS,SampleUS,AccX,AccY,AccZ
FMT, 176, 31, ACC3, QQfff, TimeUS,SampleUS,AccX,AccY,AccZ
FMT, 177, 31, GYR1, QQfff, TimeUS,SampleUS,GyrX,GyrY,GyrZ
FMT, 178, 31, GYR2, QQfff, TimeUS,SampleUS,GyrX,GyrY,GyrZ
FMT, 179, 31, GYR3, QQfff, TimeUS,SampleUS,GyrX,GyrY,GyrZ
FMT, 181, 35, PIDR, Qffffff, TimeUS,Des,P,I,D,FF,AFF
FMT, 182, 35, PIDP, Qffffff, TimeUS,Des,P,I,D,FF,AFF
FMT, 183, 35, PIDY, Qffffff, TimeUS,Des,P,I,D,FF,AFF
FMT, 184, 35, PIDA, Qffffff, TimeUS,Des,P,I,D,FF,AFF
FMT, 185, 35, PIDS, Qffffff, TimeUS,Des,P,I,D,FF,AFF
FMT, 186, 35, PIDL, Qffffff, TimeUS,Des,P,I,D,FF,AFF
FMT, 161, 37, BAR2, QffcfIff, TimeUS,Alt,Press,Temp,CRt,SMS,Offset,GndTemp
FMT, 197, 37, BAR3, QffcfIff, TimeUS,Alt,Press,Temp,CRt,SMS,Offset,GndTemp
FMT, 187, 35, VIBE, QfffIII, TimeUS,VibeX,VibeY,VibeZ,Clip0,Clip1,Clip2
FMT, 188, 47, IMT, Qfffffffff, TimeUS,DelT,DelvT,DelaT,DelAX,DelAY,DelAZ,DelVX,DelVY,DelVZ
FMT, 189, 47, IMT2, Qfffffffff, TimeUS,DelT,DelvT,DelaT,DelAX,DelAY,DelAZ,DelVX,DelVY,DelVZ
FMT, 190, 47, IMT3, Qfffffffff, TimeUS,DelT,DelvT,DelaT,DelAX,DelAY,DelAZ,DelVX,DelVY,DelVZ
FMT, 191, 24, ORGN, QBLLe, TimeUS,Type,Lat,Lng,Alt
FMT, 192, 19, RPM, Qff, TimeUS,rpm1,rpm2
FMT, 233, 47, GMB1, Iffffffffff, TimeMS,dt,dax,day,daz,dvx,dvy,dvz,jx,jy,jz
FMT, 234, 44, GMB2, IBfffffffff, TimeMS,es,ex,ey,ez,rx,ry,rz,tx,ty,tz
FMT, 235, 13, GMB3, Ihhh, TimeMS,rl_torque_cmd,el_torque_cmd,az_torque_cmd
FMT, 236, 59, RATE, Qffffffffffff, TimeUS,RDes,R,ROut,PDes,P,POut,YDes,Y,YOut,ADes,A,AOut
FMT, 237, 23, RALY, QBBLLh, TimeUS,Tot,Seq,Lat,Lng,Alt
FMT, 238, 43, VISO, Qffffffff, TimeUS,dt,AngDX,AngDY,AngDZ,PosDX,PosDY,PosDZ,conf
FMT, 224, 23, SBPH, QIII, TimeUS,CrcError,LastInject,IARhyp
FMT, 229, 80, SBR1, QHHBZ, TimeUS,msg_type,sender_id,msg_len,d1
FMT, 230, 205, SBR2, QHZZZ, TimeUS,msg_type,d2,d3,d4
FMT, 25, 41, ATUN, QBBfffffff, TimeUS,Axis,TuneStep,Targ,Min,Max,RP,RD,SP,ddt
FMT, 26, 19, ATDE, Qff, TimeUS,Angle,Rate
FMT, 31, 22, PTUN, QBfHHH, TimeUS,Param,TunVal,CtrlIn,TunLo,TunHi
FMT, 12, 28, OF, QBffff, TimeUS,Qual,flowX,flowY,bodyX,bodyY
FMT, 5, 51, NTUN, Qffffffffff, TimeUS,DPosX,DPosY,PosX,PosY,DVelX,DVelY,VelX,VelY,DAccX,DAccY
FMT, 4, 51, CTUN, Qffffffeccfhh, TimeUS,ThI,ABst,ThO,ThH,DAlt,Alt,BAlt,DSAlt,SAlt,TAlt,DCRt,CRt
FMT, 6, 32, PM, QHHIhBHII, TimeUS,NLon,NLoop,MaxT,PMT,I2CErr,INSErr,LogDrop,Mem
FMT, 30, 27, MOTB, Qffff, TimeUS,LiftMax,BatVolt,BatRes,ThLimit
FMT, 13, 12, EV, QB, TimeUS,Id
FMT, 20, 14, D16, QBh, TimeUS,Id,Value
FMT, 21, 14, DU16, QBH, TimeUS,Id,Value
FMT, 22, 16, D32, QBi, TimeUS,Id,Value
FMT, 23, 16, DU32, QBI, TimeUS,Id,Value
FMT, 24, 16, DFLT, QBf, TimeUS,Id,Value
FMT, 19, 13, ERR, QBB, TimeUS,Subsys,ECode
FMT, 32, 19, HELI, Qff, TimeUS,DRRPM,ERRPM
FMT, 33, 29, PL, QBBffff, TimeUS,Heal,TAcq,pX,pY,vX,vY
FMT, 34, 36, GUID, QBffffff, TimeUS,Type,pX,pY,pZ,vX,vY,vZ
FMT, 35, 32, THRO, QBffffbbbb, TimeUS,Stage,Vel,VelZ,Acc,AccEfZ,Throw,AttOk,HgtOk,PosOk
FMT, 36, 56, PRX, QBfffffffffff, TimeUS,Health,D0,D45,D90,D135,D180,D225,D270,D315,DUp,CAn,CDis
MODE, 31009597, 100, 100, 2
FMT, 254, 47, NKT1, QIffffffff, TimeUS,Cnt,IMUMin,IMUMax,EKFMin,EKFMax,AngMin,AngMax,VelMin,VelM
FMT, 253, 31, CTRL, Qfffff, TimeUS,RMSRollP,RMSRollD,RMSPitchP,RMSPitchD,RMSYaw
MSG, 31163536, APM:Copter V3.5.7 (38483450)
MSG, 31163541, New mission
MSG, 31163551, Frame: QUAD
MODE, 31163555, Autonomous, 100, 2
MAG, 31183247, 321, 495, 281, 0, 0, 0, 0, 0, 0, 1, 31183240
RFND, 31183282, 0.2, 25, 0, 0
BARO, 31183321, 0.9946533, 993.2773, 36.16, -0.2122161, 31183, 0, 35
CTUN, 31183334, 0, 0, 0, 0.2210428, 0.06670153, 0.06670153, 0.99, 0, 0.19, 0, 0, 0
ATT, 31183396, 0, 0.8, 0, 0.26, 359.42, 359.44, 0, 1
RATE, 31183402, -3.61057, 0.03735063, -0.008809319, -1.209022, -0.003713336, -0.003001168, 0.007904381, 0.02121449, 5.077543E-05, -87.9201, 0.5115509, 0
NKF1, 31183410, 0.8, 0.26, 359.43, 0.002051267, -0.00764952, -0.002170867, 0, 0, 0, -0.06670153, 0, 0, 0
NKF2, 31183410, 0, 0, 0, 0, 0, 0, 0, 0, 0, 0, 0, 0, 0
NKF3, 31183410, 0, 0, 0, 0, 0, 0, 0, 0, 0, 0, 0
NKF4, 31183410, 0, 0, 0, 0, 0, 8.42961E-06, 0, 0, 0, 19, 229, 0, 0
NKF5, 31183410, 0, 0, 0, 0, 0.2, 0.13, 0, 0.19, 0.5, 1.343744E-05, 0.0005138192, 0.001057889
NKQ1, 31183410, 0.9999422, 0.002501864, 0.009215952, -0.004936076
AHR2, 31183454, 0.78, 0.25, 4.69, 0.9899999, 0, 0, 0.9991354, 0.006765663, 0.002545166, 0.04094052
MOTB, 31183461, 1, 1, 0, 1
RCIN, 31183466, 0, 0, 0, 0, 0, 0, 0, 0, 0, 0, 0, 0, 0, 0
RCOU, 31183471, 1101, 1101, 1101, 1101, 0, 0, 0, 0, 0, 0, 0, 0, 0, 0
VIBE, 31183480, 0.01961981, 0.01969779, 0.02965514, 0, 0, 0
CTRL, 31183487, 0.008505031, 0.0001800448, 0.00285996, 0.0002606237, 8.401764E-05
PRX, 31183684, 1, 0.74, 0, 3.6, 0, 3.6, 0, 3.6, 0, 0, 0, 0.74
IMU, 31188424, 4.447094E-05, -0.000239345, 0.0002802821, 0.1873912, -0.04985887, -9.810957, 0, 0, 38.09813, 1, 1, 1000, 1000
IMU, 31228333, 0.0006245774, -0.0004442171, -0.001354209, 0.1847763, -0.05622627, -9.813766, 0, 0, 38.09813, 1, 1, 1000, 1000
RFND, 31233546, 0.2, 25, 0, 0
IMU, 31268520, -0.001056583, 0.001551396, -2.333338E-05, 0.1873781, -0.04468408, -9.798472, 0, 0, 38.09816, 1, 1, 1000, 1000
MAG, 31283233, 326, 499, 284, 0, 0, 0, 0, 0, 0, 1, 31283210
RFND, 31283268, 0.2, 25, 0, 0
BARO, 31283305, 1.121811, 993.2634, 36.16, -0.1590812, 31283, 0, 35
CTUN, 31283318, 0, 0, 0, 0.2210428, 0.06695579, 0.06695579, 1.12, 0, 0.19, 0, 0, 0
ATT, 31283379, 0, 0.8, 0, 0.27, 359.42, 359.44, 0, 1
RATE, 31283384, -3.603891, 0.04495427, -0.008825891, -1.215814, 0.0007588395, -0.00258505, 0.008899301, -0.0004405791, 0.0001028939, -64.21032, -1.0355, 0
NKF1, 31283391, 0.8, 0.27, 359.43, 0.002410734, -0.007801109, -0.00158544, 0, 0, 0, -0.06695579, 0, 0, 0
NKF2, 31283391, 0, 0, 0, 0, 0, 0, 0, 0, 0, 0, 0, 0, 0
NKF3, 31283391, 0, 0, 0, 0, 0, 0, 0, 0, 0, 0, 0
NKF4, 31283391, 0, 0, 0, 0, 0, 5.659874E-06, 0, 0, 0, 19, 229, 0, 0
NKF5, 31283391, 0, 0, 0, 0, 0.2, 0.13, 0, 0.19, 0.5, 2.084353E-05, 0.0005598859, 0.001100101
NKQ1, 31283391, 0.999942, 0.002489768, 0.009228649, -0.004963195
AHR2, 31283436, 0.78, 0.26, 4.69, 1.12, 0, 0, 0.9991366, 0.006750484, 0.002560596, 0.04091366
MOTB, 31283443, 1, 1, 0, 1
RCIN, 31283447, 0, 0, 0, 0, 0, 0, 0, 0, 0, 0, 0, 0, 0, 0
RCOU, 31283453, 1101, 1101, 1101, 1101, 0, 0, 0, 0, 0, 0, 0, 0, 0, 0
VIBE, 31283462, 0.01909637, 0.021036, 0.03413931, 0, 0, 0
CTRL, 31283469, 0.008491317, 0.0002022011, 0.002877529, 0.0002473277, 8.858357E-05
PRX, 31283501, 1, 0.74, 0, 3.6, 0, 3.6, 0, 3.6, 0, 0, 0, 0.74
IMU, 31308727, -0.0006438442, -5.719875E-05, 0.0007098715, 0.1857177, -0.04906727, -9.805201, 0, 0, 38.09807, 1, 1, 1000, 1000
RFND, 31333567, 0.2, 25, 0, 0
IMU, 31348219, -0.0003282391, 0.0006039866, -0.001769865, 0.1985359, -0.04379812, -9.801328, 0, 0, 38.09819, 1, 1, 1000, 1000
DU32, 31380798, 7, 50389208
MAG, 31383303, 327, 501, 277, 0, 0, 0, 0, 0, 0, 1, 31383295
RFND, 31383337, 0.2, 25, 0, 0
BARO, 31383374, 1.200931, 993.2547, 36.15, -0.1438349, 31383, 0, 35
CTUN, 31383387, 0, 0, 0, 0.2210428, 0.06715237, 0.06715237, 1.2, 0, 0.19, 0, 0, 0
ATT, 31383451, 0, 0.8, 0, 0.26, 359.41, 359.43, 0, 1
RATE, 31383456, -3.601552, 0.008299521, -0.008406871, -1.209683, -0.02146098, -0.002968257, 0.01121476, -0.06509798, 0.0002038924, -69.02553, 1.597404, 0
NKF1, 31383463, 0.8, 0.26, 359.42, 0.003181425, -0.007916349, -0.001704334, 0, 0, 0, -0.06715237, 0, 0, 0
NKF2, 31383463, 0, 0, 0, 0, 0, 0, 0, 0, 0, 0, 0, 0, 0
NKF3, 31383463, 0, 0, 0, 0, 0, 0, 0, 0, 0, 0, 0
NKF4, 31383463, 0, 0, 0, 0, 0, 3.811424E-06, 0, 0, 0, 19, 229, 0, 0
NKF5, 31383463, 0, 0, 0, 0, 0.2, 0.13, 0, 0.19, 0.5, 2.682759E-05, 0.0006040935, 0.001171993
NKQ1, 31383463, 0.9999419, 0.002487025, 0.009215188, -0.005010152
AHR2, 31383508, 0.78, 0.26, 4.68, 1.2, 0, 0, 0.9991386, 0.006745656, 0.002550303, 0.04086705
MOTB, 31383514, 1, 1, 0, 1
RCIN, 31383520, 0, 0, 0, 0, 0, 0, 0, 0, 0, 0, 0, 0, 0, 0
RCOU, 31383526, 1101, 1101, 1101, 1101, 0, 0, 0, 0, 0, 0, 0, 0, 0, 0
VIBE, 31383535, 0.01625935, 0.02048269, 0.03383423, 0, 0, 0
CTRL, 31383542, 0.00849685, 0.0001841298, 0.002858306, 0.0002589941, 9.989111E-05
PRX, 31383573, 1, 0.74, 0, 3.6, 0, 3.6, 0, 3.6, 0, 0, 0, 0.74
IMU, 31388404, -0.0002527193, -0.0004721237, -0.001243629, 0.1878535, -0.05180398, -9.826983, 0, 0, 38.09811, 1, 1, 1000, 1000
IMU, 31428378, -0.001067798, -0.0003519228, -0.0006891149, 0.1796648, -0.04995693, -9.792273, 0, 0, 38.09807, 1, 1, 1000, 1000
RFND, 31433479, 0.2, 25, 0, 0
IMU, 31468354, 2.671134E-05, -0.0006042123, -0.000294396, 0.185869, -0.06291185, -9.778463, 0, 0, 38.09819, 1, 1, 1000, 1000
MAG, 31483276, 324, 503, 279, 0, 0, 0, 0, 0, 0, 1, 31483268
RFND, 31483312, 0.2, 25, 0, 0
BARO, 31483351, 1.229188, 993.2516, 36.16, 0.1520857, 31483, 0, 35
CTUN, 31483363, 0, 0, 0, 0.2210428, 0.06731297, 0.06731297, 1.22, 0, 0.19, 0, 0, 0
ATT, 31483428, 0, 0.79, 0, 0.26, 359.41, 359.43, 0, 1
RATE, 31483434, -3.599464, -0.007769176, -0.008322665, -1.206055, 0.08775161, -0.003619976, 0.007437114, -0.03607145, 0.0001398672, -14.15428, -2.548027, 0
NKF1, 31483441, 0.79, 0.26, 359.42, 0.003380346, -0.008255229, -0.0003494885, 0, 0, 0, -0.06731297, 0, 0, 0
NKF2, 31483441, 0, 0, 0, 0, 0, 0, 0, 0, 0, 0, 0, 0, 0
NKF3, 31483441, 0, 0, 0, 0, 0, 0, 0, 0, 0, 0, 0
NKF4, 31483441, 0, 0, 0, 0, 0, 2.561692E-06, 0, 0, 0, 19, 229, 0, 0
NKF5, 31483441, 0, 0, 0, 0, 0.2, 0.13, 0, 0.19, 0.5, 3.17386E-05, 0.000621488, 0.001188469
NKQ1, 31483441, 0.9999419, 0.002481912, 0.009208598, -0.00503028
AHR2, 31483486, 0.78, 0.26, 4.68, 1.22, 0, 0, 0.9991394, 0.006738562, 0.002547058, 0.04084725
MOTB, 31483493, 1, 1, 0, 1
RCIN, 31483497, 0, 0, 0, 0, 0, 0, 0, 0, 0, 0, 0, 0, 0, 0
RCOU, 31483503, 1101, 1101, 1101, 1101, 0, 0, 0, 0, 0, 0, 0, 0, 0, 0
VIBE, 31483512, 0.01835653, 0.02103261, 0.03121233, 0, 0, 0
CTRL, 31483519, 0.008490939, 0.0001689595, 0.002829575, 0.0002403286, 0.0001284003
PRX, 31483550, 2, 0.74, 0, 3.6, 0, 3.6, 0, 3.6, 0, 0, 0, 0.74
IMU, 31508392, -0.0004810411, -0.001585703, 0.0005492954, 0.1861972, -0.06072687, -9.800957, 0, 0, 38.09809, 1, 1, 1000, 1000
RFND, 31533151, 0.2, 25, 0, 0
IMU, 31548420, -0.0003994058, -0.0002660031, 0.0005036349, 0.1817271, -0.04001556, -9.80031, 0, 0, 38.09806, 1, 1, 1000, 1000
MAG, 31583285, 321, 498, 282, 0, 0, 0, 0, 0, 0, 1, 31583277
RFND, 31583320, 0.2, 25, 0, 0
BARO, 31583358, 1.243317, 993.2498, 36.16, 0.5098994, 31583, 0, 35
CTUN, 31583370, 0, 0, 0, 0.2210428, 0.06735403, 0.06735403, 1.24, 0, 0.19, 0, 0, 0
ATT, 31583430, 0, 0.79, 0, 0.26, 359.41, 359.43, 0, 1
RATE, 31583436, -3.591624, -0.05546828, -0.008290928, -1.199823, 0.05181549, -0.002906345, 0.008211499, 0.008061546, 3.075022E-05, -4.353277, -0.5693436, 0
NKF1, 31583444, 0.79, 0.26, 359.42, 0.00337512, -0.008669654, -0.0001074883, 0, 0, 0, -0.06735403, 0, 0, 0
NKF2, 31583444, 0, 0, 0, 0, 0, 0, 0, 0, 0, 0, 0, 0, 0
NKF3, 31583444, 0, 0, 0, 0, 0, 0, 0, 0, 0, 0, 0
NKF4, 31583444, 0, 0, 0, 0, 0, 1.748655E-06, 0, 0, 0, 19, 229, 0, 0
NKF5, 31583444, 0, 0, 0, 0, 0.2, 0.13, 0, 0.19, 0.5, 3.491644E-05, 0.0006389709, 0.001225766
NKQ1, 31583444, 0.9999421, 0.002467048, 0.00919808, -0.005024949
AHR2, 31583490, 0.78, 0.25, 4.68, 1.24, 0, 0, 0.9991393, 0.006721611, 0.002539751, 0.040853
MOTB, 31583496, 1, 1, 0, 1
RCIN, 31583501, 0, 0, 0, 0, 0, 0, 0, 0, 0, 0, 0, 0, 0, 0
RCOU, 31583507, 1101, 1101, 1101, 1101, 0, 0, 0, 0, 0, 0, 0, 0, 0, 0
VIBE, 31583516, 0.02129255, 0.02116556, 0.02983295, 0, 0, 0
CTRL, 31583523, 0.008474708, 0.0001648436, 0.002833331, 0.0002555323, 0.0001136023
PRX, 31583891, 2, 0.74, 0, 3.6, 0, 3.6, 0, 3.6, 0, 0, 0, 0.74
IMU, 31588277, -0.0004805962, 0.0001464196, -0.0004835055, 0.1728752, -0.06153357, -9.799158, 0, 0, 38.09818, 1, 1, 1000, 1000
IMU, 31628336, 0.0006170777, 0.001849536, -0.0008144802, 0.186088, -0.04067848, -9.825461, 0, 0, 38.09821, 1, 1, 1000, 1000
RFND, 31633174, 0.2, 25, 0, 0
IMU, 31668379, 0.0003268358, 0.0007205039, -0.0006863594, 0.1834237, -0.05017504, -9.791832, 0, 0, 38.09809, 1, 1, 1000, 1000
MAG, 31683203, 319, 496, 280, 0, 0, 0, 0, 0, 0, 1, 31683195
RFND, 31683252, 0.2, 25, 0, 0
BARO, 31683292, 1.215059, 993.253, 36.15, 0.5129874, 31683, 0, 35
CTUN, 31683305, 0, 0, 0, 0.2210428, 0.06739306, 0.06739306, 1.21, 0, 0.19, 0, 0, 0
ATT, 31683369, 0, 0.8, 0, 0.26, 359.41, 359.43, 0, 1
RATE, 31683374, -3.602425, 0.04098649, -0.008656218, -1.203789, -0.01961328, -0.002573987, 0.008812513, -0.02299847, 9.479538E-05, -27.54783, -0.3307343, 0
NKF1, 31683381, 0.8, 0.26, 359.42, 0.003765574, -0.008772623, -0.0006801933, 0, 0, 0, -0.06739306, 0, 0, 0
NKF2, 31683381, 0, 0, 0, 0, 0, 0, 0, 0, 0, 0, 0, 0, 0
NKF3, 31683381, 0, 0, 0, 0, 0, 0, 0, 0, 0, 0, 0
NKF4, 31683381, 0, 0, 0, 0, 0, 1.216995E-06, 0, 0, 0, 19, 229, 0, 0
NKF5, 31683381, 0, 0, 0, 0, 0.2, 0.13, 0, 0.19, 0.5, 3.670468E-05, 0.0006319548, 0.001204999
NKQ1, 31683381, 0.9999418, 0.002487104, 0.009204286, -0.005050071
AHR2, 31683426, 0.78, 0.26, 4.68, 1.21, 0, 0, 0.9991402, 0.006739983, 0.002550392, 0.04082801
MOTB, 31683433, 1, 1, 0, 1
RCIN, 31683438, 0, 0, 0, 0, 0, 0, 0, 0, 0, 0, 0, 0, 0, 0
RCOU, 31683443, 1101, 1101, 1101, 1101, 0, 0, 0, 0, 0, 0, 0, 0, 0, 0
VIBE, 31683452, 0.02114427, 0.01855125, 0.03458214, 0, 0, 0
CTRL, 31683459, 0.008490787, 0.0001501308, 0.002848102, 0.0002550726, 0.0001041526
PRX, 31683491, 1, 0.74, 0, 3.6, 0, 3.6, 0, 3.6, 0, 0, 0, 0.74
IMU, 31708363, -0.0002960922, 0.001397716, 0.0002183452, 0.1830655, -0.05932035, -9.803593, 0, 0, 38.09803, 1, 1, 1000, 1000
RFND, 31733176, 0.2, 25, 0, 0
IMU, 31749008, -0.0001208314, -0.0004518891, -0.001763997, 0.1668909, -0.04450986, -9.800896, 0, 0, 38.09802, 1, 1, 1000, 1000
MAG, 31783296, 324, 496, 281, 0, 0, 0, 0, 0, 0, 1, 31783288
RFND, 31783330, 0.2, 25, 0, 0
BARO, 31783915, 1.200931, 993.2547, 36.15, 0.2472505, 31783, 0, 35
CTUN, 31783929, 0, 0, 0, 0.2210428, 0.06743028, 0.06743028, 1.2, 0, 0.19, 0, 0, 0
ATT, 31783998, 0, 0.8, 0, 0.27, 359.4, 359.43, 0, 1
RATE, 31784004, -3.599851, 0.001395211, -0.008372661, -1.217997, 0.04539365, -0.00340538, 0.008688748, -0.01756844, 0.000142323, -15.01965, -0.9506226, 0
NKF1, 31784012, 0.8, 0.27, 359.42, 0.003564613, -0.008993372, -0.0003708556, 0, 0, 0, -0.06743028, 0, 0, 0
NKF2, 31784012, 0, 0, 0, 0, 0, 0, 0, 0, 0, 0, 0, 0, 0
NKF3, 31784012, 0, 0, 0, 0, -0.01, 0, 0, 0, 0, 0, 0
NKF4, 31784012, 0, 0, 0, 0, 0, 8.65832E-07, 0, 0, 0, 19, 229, 0, 0
NKF5, 31784012, 0, 0, 0, 0, 0.2, 0.13, 0, 0.19, 0.5, 3.747383E-05, 0.0006156152, 0.001168348
NKQ1, 31784012, 0.9999415, 0.002483213, 0.009232192, -0.005076811
AHR2, 31784130, 0.78, 0.26, 4.67, 1.2, 0, 0, 0.9991413, 0.006736067, 0.002581184, 0.04080147
MOTB, 31784140, 1, 1, 0, 1
RCIN, 31784144, 0, 0, 0, 0, 0, 0, 0, 0, 0, 0, 0, 0, 0, 0
RCOU, 31784151, 1101, 1101, 1101, 1101, 0, 0, 0, 0, 0, 0, 0, 0, 0, 0
VIBE, 31784160, 0.01969121, 0.02204709, 0.03603898, 0, 0, 0
CTRL, 31784167, 0.0084932, 0.0001568167, 0.002860822, 0.0002867331, 0.0001040112
PRX, 31784199, 1, 0.74, 0, 3.6, 0, 3.6, 0, 3.6, 0, 0, 0, 0.74
IMU, 31788325, -0.0006016642, 0.001727261, -0.0003225097, 0.1827562, -0.04676976, -9.810312, 0, 0, 38.09805, 1, 1, 1000, 1000
IMU, 31828339, -0.0003283056, 0.0004484036, -0.001723609, 0.1914578, -0.06409404, -9.815924, 0, 0, 38.0981, 1, 1, 1000, 1000
RFND, 31833208, 0.2, 25, 0, 0
IMU, 31868410, -0.0007457145, 0.001085074, -0.001212038, 0.1934365, -0.04369802, -9.812388, 0, 0, 38.09816, 1, 1, 1000, 1000
MAG, 31883261, 320, 504, 278, 0, 0, 0, 0, 0, 0, 1, 31883254
RFND, 31883298, 0.2, 25, 0, 0
BARO, 31883337, 1.138765, 993.2614, 36.15, -0.01677766, 31883, 0, 35
CTUN, 31883349, 0, 0, 0, 0.2210428, 0.06746034, 0.06746034, 1.13, 0, 0.19, 0, 0, 0
ATT, 31883412, 0, 0.79, 0, 0.27, 359.4, 359.42, 0, 1
RATE, 31883417, -3.595696, 0.03140363, -0.008750496, -1.230213, 0.03616509, -0.003073177, 0.009114378, 0.01494439, 0.0001992481, -37.36317, -0.4150391, 0
NKF1, 31883425, 0.79, 0.27, 359.41, 0.004304958, -0.009557019, -0.0009225475, 0, 0, 0, -0.06746034, 0, 0, 0
NKF2, 31883425, 0, 0, 0, 0, 0, 0, 0, 0, 0, 0, 0, 0, 0
NKF3, 31883425, 0, 0, 0, 0, -0.01, 0, 0, 0, 0, 0, 0
NKF4, 31883425, 0, 0, 0, 0, 0, 6.4467E-07, 0, 0, 0, 19, 229, 0, 0
NKF5, 31883425, 0, 0, 0, 0, 0.2, 0.13, 0, 0.19, 0.5, 3.779933E-05, 0.000612144, 0.001171212
NKQ1, 31883425, 0.999941, 0.002476117, 0.009256915, -0.005125837
AHR2, 31883469, 0.78, 0.26, 4.67, 1.13, 0, 0, 0.9991432, 0.006729113, 0.002607616, 0.04075271
MOTB, 31883476, 1, 1, 0, 1
RCIN, 31883480, 0, 0, 0, 0, 0, 0, 0, 0, 0, 0, 0, 0, 0, 0
RCOU, 31883486, 1101, 1101, 1101, 1101, 0, 0, 0, 0, 0, 0, 0, 0, 0, 0
VIBE, 31883495, 0.01938367, 0.01918551, 0.03536751, 0, 0, 0
CTRL, 31883502, 0.0084784, 0.0001808415, 0.002891107, 0.0002780467, 0.0001387274
PRX, 31883532, 1, 0.74, 0, 3.6, 0, 3.6, 0, 3.6, 0, 0, 0, 0.74
IMU, 31908367, -0.0009426643, 0.0009660646, -0.0004001767, 0.1811181, -0.04952038, -9.833664, 0, 0, 38.09814, 1, 1, 1000, 1000
RFND, 31933141, 0.2, 25, 0, 0
IMU, 31948498, -0.001198244, 0.001964879, -0.0007437876, 0.1831231, -0.04888464, -9.799129, 0, 0, 38.09821, 1, 1, 1000, 1000
MAG, 31983425, 324, 499, 277, 0, 0, 0, 0, 0, 0, 1, 31983417
RFND, 31983461, 0.2, 25, 0, 0
BARO, 31983501, 1.031388, 993.2733, 36.15, -0.2322388, 31983, 0, 35
CTUN, 31983513, 0, 0, 0, 0.2210428, 0.06757098, 0.06757098, 1.03, 0, 0.19, 0, 0, 0
ATT, 31983584, 0, 0.79, 0, 0.27, 359.4, 359.42, 0, 1
RATE, 31983590, -3.587306, 0.009918744, -0.008597972, -1.251307, -0.004357515, -0.002666583, 0.01036613, -0.008256003, 9.548487E-05, -64.91482, -0.1802444, 0
NKF1, 31983597, 0.79, 0.27, 359.41, 0.004269193, -0.00942293, -0.001602835, 0, 0, 0, -0.06757098, 0, 0, 0
NKF2, 31983597, 0, 0, 0, 0, 0, 0, 0, 0, 0, 0, 0, 0, 0
NKF3, 31983597, 0, 0, 0, 0, -0.01, 0, 0, 0, 0, 0, 0
NKF4, 31983597, 0, 0, 0, 0, 0, 5.059601E-07, 0, 0, 0, 19, 229, 0, 0
NKF5, 31983597, 0, 0, 0, 0, 0.2, 0.13, 0, 0.19, 0.5, 3.749059E-05, 0.0005862124, 0.001118251
NKQ1, 31983597, 0.9999405, 0.002459278, 0.009296828, -0.005146052
AHR2, 31983641, 0.78, 0.27, 4.67, 1.03, 0, 0, 0.999144, 0.006712694, 0.002646993, 0.04073277
MOTB, 31983648, 1, 1, 0, 1
RCIN, 31983653, 0, 0, 0, 0, 0, 0, 0, 0, 0, 0, 0, 0, 0, 0
RCOU, 31983658, 1101, 1101, 1101, 1101, 0, 0, 0, 0, 0, 0, 0, 0, 0, 0
VIBE, 31983667, 0.01925606, 0.02032522, 0.03784834, 0, 0, 0
CTRL, 31983674, 0.008464084, 0.000168067, 0.002947319, 0.0002746986, 0.0001378564
PRX, 31983706, 2, 0.74, 0, 3.6, 0, 3.6, 0, 3.6, 0, 0, 0, 0.74
IMU, 31988330, -0.0002807205, -1.177832E-05, -0.0002306664, 0.1782982, -0.04551338, -9.805638, 0, 0, 38.09812, 1, 1, 1000, 1000
IMU, 32028358, -0.001037396, 0.0009406336, -0.001101191, 0.1828395, -0.05214858, -9.814893, 0, 0, 38.09805, 1, 1, 1000, 1000
RFND, 32033168, 0.2, 25, 0, 0
IMU, 32068369, -0.0009610346, 0.0002343758, -2.10434E-05, 0.1826081, -0.03729146, -9.820868, 0, 0, 38.0981, 1, 1, 1000, 1000
MAG, 32083193, 320, 497, 281, 0, 0, 0, 0, 0, 0, 1, 32083186
RFND, 32083242, 0.2, 25, 0, 0
BARO, 32083282, 1.059645, 993.2701, 36.16, -0.4371035, 32083, 0, 35
CTUN, 32083294, 0, 0, 0, 0.2210428, 0.06769766, 0.06769766, 1.05, 0, 0.19, 0, 0, 0
ATT, 32083357, 0, 0.79, 0, 0.27, 359.4, 359.42, 0, 1
RATE, 32083363, -3.573243, -0.02272696, -0.008378709, -1.256679, -0.0814968, -0.002500679, 0.008276445, 0.03489401, 8.376738E-05, -80.0208, 1.176262, 0
NKF1, 32083370, 0.79, 0.27, 359.41, 0.003948138, -0.009294568, -0.001975822, 0, 0, 0, -0.06769766, 0, 0, 0
NKF2, 32083370, 0, 0, 0, 0, 0, 0, 0, 0, 0, 0, 0, 0, 0
NKF3, 32083370, 0, 0, 0, 0, -0.01, 0, 0, 0, 0, 0, 0
NKF4, 32083370, 0, 0, 0, 0, 0, 4.257305E-07, 0, 0, 0, 19, 229, 0, 0
NKF5, 32083370, 0, 0, 0, 0, 0.2, 0.13, 0, 0.19, 0.5, 3.726546E-05, 0.0005761716, 0.00110467
NKQ1, 32083370, 0.9999405, 0.002431775, 0.009308539, -0.005155314
AHR2, 32083416, 0.77, 0.27, 4.66, 1.05, 0, 0, 0.9991446, 0.006685441, 0.0026574, 0.04072399
MOTB, 32083423, 1, 1, 0, 1
RCIN, 32083427, 0, 0, 0, 0, 0, 0, 0, 0, 0, 0, 0, 0, 0, 0
RCOU, 32083433, 1101, 1101, 1101, 1101, 0, 0, 0, 0, 0, 0, 0, 0, 0, 0
VIBE, 32083442, 0.01690887, 0.02095748, 0.03088276, 0, 0, 0
CTRL, 32083449, 0.008433224, 0.0001628816, 0.00296784, 0.0002611959, 0.0001280298
PRX, 32083480, 2, 0.74, 0, 3.6, 0, 3.6, 0, 3.6, 0, 0, 0, 0.74
IMU, 32108376, -0.0003583955, 0.0004912288, -0.0003433197, 0.1813909, -0.05359337, -9.82591, 0, 0, 38.09763, 1, 1, 1000, 1000
RFND, 32133317, 0.2, 25, 0, 0
IMU, 32148389, -0.000270859, -0.0012113, -0.001428357, 0.1784381, -0.0491608, -9.799567, 0, 0, 38.09684, 1, 1, 1000, 1000
MAG, 32183239, 320, 492, 279, 0, 0, 0, 0, 0, 0, 1, 32183231
RFND, 32183274, 0.2, 25, 0, 0
BARO, 32183313, 1.039865, 993.2723, 36.16, -0.5227581, 32183, 0, 35
CTUN, 32183326, 0, 0, 0, 0.2210428, 0.06786808, 0.06786808, 1.03, 0, 0.19, 0, 0, 0
ATT, 32183388, 0, 0.79, 0, 0.27, 359.39, 359.41, 0, 1
RATE, 32183394, -3.571683, 0.06018829, -0.008731902, -1.248464, -0.06337115, -0.002509575, 0.009161469, -0.01783191, 0.00013942, -104.4471, 1.116371, 0
NKF1, 32183401, 0.79, 0.27, 359.4, 0.003928398, -0.009708528, -0.002578941, 0, 0, 0, -0.06786808, 0, 0, 0
NKF2, 32183401, 0, 0, 0, 0, 0, 0, 0, 0, 0, 0, 0, 0, 0
NKF3, 32183401, 0, 0, 0, 0, -0.01, 0, 0, 0, 0, 0, 0
NKF4, 32183401, 0, 0, 0, 0, 0, 3.893311E-07, 0, 0, 0, 19, 229, 0, 0
NKF5, 32183401, 0, 0, 0, 0, 0.2, 0.13, 0, 0.19, 0.5, 3.664245E-05, 0.0005450121, 0.001040245
NKQ1, 32183401, 0.9999404, 0.002430235, 0.009291365, -0.005193475
AHR2, 32183446, 0.77, 0.27, 4.66, 1.03, 0, 0, 0.9991462, 0.006682169, 0.002639217, 0.04068626
MOTB, 32183452, 1, 1, 0, 1
RCIN, 32183457, 0, 0, 0, 0, 0, 0, 0, 0, 0, 0, 0, 0, 0, 0
RCOU, 32183463, 1101, 1101, 1101, 1101, 0, 0, 0, 0, 0, 0, 0, 0, 0, 0
VIBE, 32183472, 0.01895206, 0.02036697, 0.03028031, 0, 0, 0
CTRL, 32183479, 0.008428541, 0.0001471641, 0.002960233, 0.0002678834, 0.0001238971
PRX, 32183509, 1, 0.74, 0, 3.6, 0, 3.6, 0, 3.6, 0, 0, 0, 0.74
IMU, 32188380, 3.63518E-05, -0.001674842, -0.0004894283, 0.1841847, -0.04026053, -9.820061, 0, 0, 38.09615, 1, 1, 1000, 1000
IMU, 32228393, 0.0007973011, -0.0009509799, -0.000694255, 0.181474, -0.04760974, -9.80397, 0, 0, 38.096, 1, 1, 1000, 1000
RFND, 32233191, 0.2, 25, 0, 0
IMU, 32268401, 0.0003865709, 0.0008452726, -0.0009027576, 0.1897758, -0.05174728, -9.819361, 0, 0, 38.09577, 1, 1, 1000, 1000
MAG, 32283248, 316, 498, 278, 0, 0, 0, 0, 0, 0, 1, 32283241
RFND, 32283283, 0.2, 25, 0, 0
BARO, 32283322, 1.073773, 993.2685, 36.16, -0.3691097, 32283, 0, 35
CTUN, 32283335, 0, 0, 0, 0.2210428, 0.06811453, 0.06811453, 1.07, 0, 0.19, 0, 0, 0
ATT, 32283397, 0, 0.79, 0, 0.27, 359.39, 359.41, 0, 1
RATE, 32283403, -3.567036, -0.06678878, -0.007930487, -1.258539, 0.08681668, -0.003313277, 0.008470971, -0.09145755, 0.0001346559, -134.0047, 1.019096, 0
NKF1, 32283410, 0.79, 0.27, 359.4, 0.004179105, -0.009970539, -0.003308757, 0, 0, 0, -0.06811453, 0, 0, 0
NKF2, 32283410, 0, 0, 0, 0, 0, 0, 0, 0, 0, 0, 0, 0, 0
NKF3, 32283410, 0, 0, 0, 0, -0.01, 0, 0, 0, 0, 0, 0
NKF4, 32283410, 0, 0, 0, 0, 0, 3.758647E-07, 0, 0, 0, 19, 229, 0, 0
NKF5, 32283410, 0, 0, 0, 0, 0.2, 0.13, 0, 0.19, 0.5, 3.639779E-05, 0.0005332802, 0.001022045
NKQ1, 32283410, 0.9999402, 0.002422366, 0.009308931, -0.005222595
AHR2, 32283454, 0.77, 0.27, 4.66, 1.07, 0, 0, 0.9991474, 0.006671987, 0.002655397, 0.04065746
MOTB, 32283461, 1, 1, 0, 1
RCIN, 32283466, 0, 0, 0, 0, 0, 0, 0, 0, 0, 0, 0, 0, 0, 0
RCOU, 32283471, 1101, 1101, 1101, 1101, 0, 0, 0, 0, 0, 0, 0, 0, 0, 0
VIBE, 32283480, 0.01836894, 0.0183453, 0.03207298, 0, 0, 0
CTRL, 32283486, 0.008428217, 0.0001711896, 0.002958578, 0.0002390921, 0.0001210097
PRX, 32283518, 1, 0.74, 0, 3.6, 0, 3.6, 0, 3.6, 0, 0, 0, 0.74
IMU, 32308468, -0.0002416315, -0.000546128, 4.499512E-06, 0.1845819, -0.05017635, -9.805372, 0, 0, 38.09554, 1, 1, 1000, 1000
RFND, 32336584, 0.2, 25, 0, 0
IMU, 32350359, 0.0003898166, -5.241844E-05, -0.001613147, 0.1729315, -0.04747605, -9.809649, 0, 0, 38.09521, 1, 1, 1000, 1000
DU32, 32382974, 7, 50389208
MAG, 32385662, 319, 503, 277, 0, 0, 0, 0, 0, 0, 1, 32385654
RFND, 32385717, 0.2, 25, 0, 0
BARO, 32385755, 1.008782, 993.2756, 36.16, -0.1278411, 32385, 0, 35
CTUN, 32385768, 0, 0, 0, 0.2210428, 0.06836286, 0.06836286, 1, 0, 0.19, 0, 0, 0
ATT, 32385827, 0, 0.79, 0, 0.28, 359.39, 359.41, 0, 1
RATE, 32385832, -3.568812, 0.007057848, -0.008529438, -1.262949, 0.07188389, -0.003280541, 0.00871691, 0.04649955, 0.0001307949, -117.117, 0.138855, 0
NKF1, 32385840, 0.79, 0.28, 359.4, 0.004430178, -0.01062223, -0.002891778, 0, 0, 0, -0.06836286, 0, 0, 0
NKF2, 32385840, 0, 0, 0, 0, 0, 0, 0, 0, 0, 0, 0, 0, 0
NKF3, 32385840, 0, 0, 0, 0, -0.01, 0, 0, 0, 0, 0, 0
NKF4, 32385840, 0, 0, 0, 0, 0, 3.931368E-07, 0, 0, 0, 19, 229, 0, 0
NKF5, 32385840, 0, 0, 0, 0, 0.2, 0.13, 0, 0.19, 0.5, 3.586465E-05, 0.0004995218, 0.0009491825
NKQ1, 32385840, 0.9999399, 0.002424073, 0.009320847, -0.00524949
AHR2, 32385884, 0.77, 0.27, 4.65, 1, 0, 0, 0.9991484, 0.006673512, 0.002666104, 0.04063085
MOTB, 32385890, 1, 1, 0, 1
RCIN, 32385894, 0, 0, 0, 0, 0, 0, 0, 0, 0, 0, 0, 0, 0, 0
RCOU, 32385900, 1101, 1101, 1101, 1101, 0, 0, 0, 0, 0, 0, 0, 0, 0, 0
VIBE, 32385910, 0.01977474, 0.02003515, 0.03261644, 0, 0, 0
CTRL, 32385916, 0.008416789, 0.0001811609, 0.002973407, 0.0002371382, 0.000136856
PRX, 32385947, 1, 0.74, 0, 3.6, 0, 3.6, 0, 3.6, 0, 0, 0, 0.74
IMU, 32390505, -7.120474E-05, 0.001333936, 0.0005302182, 0.198738, -0.06152923, -9.812943, 0, 0, 38.09475, 1, 1, 1000, 1000
IMU, 32436904, 0.001403413, 8.00818E-05, -0.0005505509, 0.183648, -0.04567165, -9.814299, 0, 0, 38.09305, 1, 1, 1000, 1000
RFND, 32441737, 0.2, 25, 0, 0
IMU, 32476732, 0.0001996529, -0.002091045, 0.0001443904, 0.1719693, -0.0570907, -9.779253, 0, 0, 38.09163, 1, 1, 1000, 1000
MAG, 32492009, 319, 496, 282, 0, 0, 0, 0, 0, 0, 1, 32492001
RFND, 32492045, 0.2, 25, 0, 0
BARO, 32492076, 1.118985, 993.2637, 36.16, -0.01213067, 32492, 0, 35
CTUN, 32492089, 0, 0, 0, 0.2210428, 0.0685944, 0.0685944, 1.11, 0, 0.19, 0, 0, 0
ATT, 32492147, 0, 0.79, 0, 0.27, 359.38, 359.4, 0, 1
RATE, 32492153, -3.576509, 0.02036533, -0.008456926, -1.256856, 0.01268604, -0.003472663, 0.009180256, 0.02079057, 0.0001035185, -102.57, 0.2577782, 0
NKF1, 32492160, 0.79, 0.27, 359.39, 0.004294971, -0.0114017, -0.002532594, 0, 0, 0, -0.0685944, 0, 0, 0
NKF2, 32492160, 0, 0, 0, 0, 0, 0, 0, 0, 0, 0, 0, 0, 0
NKF3, 32492160, 0, 0, 0, 0, -0.01, 0, 0, 0, 0, 0, 0
NKF4, 32492160, 0, 0, 0, 0, 0, 4.129503E-07, 0, 0, 0, 19, 229, 0, 0
NKF5, 32492160, 0, 0, 0, 0, 0.2, 0.13, 0, 0.19, 0.5, 3.558763E-05, 0.0004622501, 0.0008694361
NKQ1, 32492160, 0.9999397, 0.002441004, 0.009308706, -0.005282403
AHR2, 32492287, 0.77, 0.27, 4.65, 1.11, 0, 0, 0.9991496, 0.006692393, 0.002654003, 0.04059822
MOTB, 32492296, 1, 1, 0, 1
RCIN, 32492300, 0, 0, 0, 0, 0, 0, 0, 0, 0, 0, 0, 0, 0, 0
RCOU, 32492306, 1101, 1101, 1101, 1101, 0, 0, 0, 0, 0, 0, 0, 0, 0, 0
VIBE, 32492315, 0.02381752, 0.0200005, 0.03585823, 0, 0, 0
CTRL, 32492322, 0.008437571, 0.0001761393, 0.002958087, 0.000235756, 0.0001394817
PRX, 32492354, 2, 0.74, 0, 3.6, 0, 3.6, 0, 3.6, 0, 0, 0, 0.74
IMU, 32516796, 0.0001579564, -0.0002110728, -0.0004663492, 0.1868999, -0.04961573, -9.80521, 0, 0, 38.09021, 1, 1, 1000, 1000
RFND, 32541772, 0.2, 25, 0, 0
IMU, 32556811, -0.0005251296, -0.001926681, -0.000480104, 0.1953819, -0.05824477, -9.791986, 0, 0, 38.0894, 1, 1, 1000, 1000
MAG, 32591644, 319, 499, 282, 0, 0, 0, 0, 0, 0, 1, 32591637
RFND, 32591680, 0.2, 25, 0, 0
BARO, 32591736, 1.135939, 993.2617, 36.16, 0.05669928, 32591, 0, 35
CTUN, 32591749, 0, 0, 0, 0.2210428, 0.06872749, 0.06872749, 1.13, 0, 0.19, 0, 0, 0
ATT, 32591802, 0, 0.79, 0, 0.27, 359.38, 359.4, 0, 1
RATE, 32591808, -3.581724, 0.03040042, -0.008373369, -1.245102, 0.01418502, -0.00284296, 0.00946587, -0.01898358, 0.0001165163, -69.50169, -1.533985, 0
NKF1, 32591816, 0.79, 0.27, 359.39, 0.00473376, -0.01229721, -0.001716091, 0, 0, 0, -0.06872749, 0, 0, 0
NKF2, 32591816, 0, 0, 0, 0, 0, 0, 0, 0, 0, 0, 0, 0, 0
NKF3, 32591816, 0, 0, 0, 0, -0.01, 0, 0, 0, 0, 0, 0
NKF4, 32591816, 0, 0, 0, 0, 0, 4.623021E-07, 0, 0, 0, 19, 229, 0, 0
NKF5, 32591816, 0, 0, 0, 0, 0.2, 0.13, 0, 0.19, 0.5, 3.570543E-05, 0.0004578386, 0.0008584271
NKQ1, 32591816, 0.9999399, 0.00245033, 0.009284288, -0.005307374
AHR2, 32591859, 0.78, 0.26, 4.65, 1.13, 0, 0, 0.9991506, 0.006706067, 0.002630354, 0.04057363
MOTB, 32591866, 1, 1, 0, 1
RCIN, 32591870, 0, 0, 0, 0, 0, 0, 0, 0, 0, 0, 0, 0, 0, 0
RCOU, 32591876, 1101, 1101, 1101, 1101, 0, 0, 0, 0, 0, 0, 0, 0, 0, 0
VIBE, 32591885, 0.02052458, 0.01920131, 0.0314012, 0, 0, 0
CTRL, 32591892, 0.008447812, 0.0001719226, 0.002943845, 0.0002333531, 0.0001297004
PRX, 32591924, 2, 0.74, 0, 3.6, 0, 3.6, 0, 3.6, 0, 0, 0, 0.74
IMU, 32596819, 0.0002912941, -9.906021E-05, -0.0003667976, 0.1734489, -0.05278767, -9.7966, 0, 0, 38.08944, 1, 1, 1000, 1000
IMU, 32636812, 0.002007065, 0.001707192, -0.0005867082, 0.1790651, -0.05808638, -9.820544, 0, 0, 38.08985, 1, 1, 1000, 1000
RFND, 32641677, 0.2, 25, 0, 0
IMU, 32676775, -0.0007479582, 6.002991E-05, -0.001476768, 0.1808118, -0.05205991, -9.781524, 0, 0, 38.08916, 1, 1, 1000, 1000
MAG, 32691632, 319, 499, 284, 0, 0, 0, 0, 0, 0, 1, 32691624
RFND, 32691663, 0.2, 25, 0, 0
BARO, 32691718, 1.102031, 993.2654, 36.16, 0.1984106, 32691, 0, 35
CTUN, 32691733, 0, 0, 0, 0.2210428, 0.06881229, 0.06881229, 1.1, 0, 0.19, 0, 0, 0
ATT, 32691786, 0, 0.79, 0, 0.27, 359.38, 359.4, 0, 1
RATE, 32691792, -3.592968, -0.01757283, -0.008382046, -1.257233, -0.07739456, -0.0024559, 0.008586846, 0.06102592, 0.0001495542, -54.52911, -0.6403923, 0
NKF1, 32691799, 0.79, 0.27, 359.39, 0.0049426, -0.01305616, -0.001346398, 0, 0, 0, -0.06881229, 0, 0, 0
NKF2, 32691799, 0, 0, 0, 0, 0, 0, 0, 0, 0, 0, 0, 0, 0
NKF3, 32691799, 0, 0, 0, 0, -0.01, 0, 0, 0, 0, 0, 0
NKF4, 32691799, 0, 0, 0, 0, 0, 5.176801E-07, 0, 0, 0, 19, 229, 0, 0
NKF5, 32691799, 0, 0, 0, 0, 0.2, 0.13, 0, 0.19, 0.5, 3.615276E-05, 0.0004220506, 0.0007819949
NKQ1, 32691799, 0.9999394, 0.002472537, 0.009310047, -0.005334999
AHR2, 32691842, 0.78, 0.27, 4.64, 1.1, 0, 0, 0.9991515, 0.00673152, 0.002658157, 0.04054604
MOTB, 32691849, 1, 1, 0, 1
RCIN, 32691854, 0, 0, 0, 0, 0, 0, 0, 0, 0, 0, 0, 0, 0, 0
RCOU, 32691860, 1101, 1101, 1101, 1101, 0, 0, 0, 0, 0, 0, 0, 0, 0, 0
VIBE, 32691869, 0.01947383, 0.01933922, 0.03508016, 0, 0, 0
CTRL, 32691875, 0.00848035, 0.0001732536, 0.002975223, 0.0002416109, 0.0001340696
PRX, 32691907, 1, 0.74, 0, 3.6, 0, 3.6, 0, 3.6, 0, 0, 0, 0.74
IMU, 32716631, -0.0004694947, 0.001921598, -0.001215825, 0.1868997, -0.04507931, -9.799958, 0, 0, 38.08746, 1, 1, 1000, 1000
RFND, 32741757, 0.2, 25, 0, 0
IMU, 32756860, 0.0002635935, 0.000116899, -0.001034932, 0.180335, -0.05318544, -9.808518, 0, 0, 38.08644, 1, 1, 1000, 1000
MAG, 32791761, 319, 499, 277, 0, 0, 0, 0, 0, 0, 1, 32791753
RFND, 32791793, 0.2, 25, 0, 0
BARO, 32791827, 1.164196, 993.2587, 36.16, 0.2658679, 32791, 0, 35
CTUN, 32791840, 0, 0, 0, 0.2210428, 0.06881242, 0.06881242, 1.16, 0, 0.19, 0, 0, 0
ATT, 32791896, 0, 0.79, 0, 0.28, 359.37, 359.39, 0, 1
RATE, 32791902, -3.599022, -0.008058451, -0.008474167, -1.265124, 0.008000128, -0.003386665, 0.009239297, 0.0005684763, 0.0001301971, -36.6058, -1.200676, 0
NKF1, 32791908, 0.79, 0.28, 359.38, 0.004936411, -0.01343385, -0.000903847, 0, 0, 0, -0.06881242, 0, 0, 0
NKF2, 32791908, 0, 0, 0, 0, 0, 0, 0, 0, 0, 0, 0, 0, 0
NKF3, 32791908, 0, 0, 0, 0, -0.01, 0, 0, 0, 0, 0, 0
NKF4, 32791908, 0, 0, 0, 0, 0, 5.794529E-07, 0, 0, 0, 19, 229, 0, 0
NKF5, 32791908, 0, 0, 0, 0, 0.2, 0.13, 0, 0.19, 0.5, 3.655895E-05, 0.0004178928, 0.0007699933
NKQ1, 32791908, 0.9999391, 0.002484545, 0.009323377, -0.005359638
AHR2, 32791954, 0.78, 0.27, 4.64, 1.16, 0, 0, 0.9991523, 0.006749485, 0.002674441, 0.04052157
MOTB, 32791961, 1, 1, 0, 1
RCIN, 32791965, 0, 0, 0, 0, 0, 0, 0, 0, 0, 0, 0, 0, 0, 0
RCOU, 32791971, 1101, 1101, 1101, 1101, 0, 0, 0, 0, 0, 0, 0, 0, 0, 0
VIBE, 32791980, 0.01990001, 0.01885136, 0.03430248, 0, 0, 0
CTRL, 32791986, 0.008483258, 0.0001712858, 0.002976726, 0.0002890759, 0.000126855
PRX, 32792019, 1, 0.74, 0, 3.6, 0, 3.6, 0, 3.6, 0, 0, 0, 0.74
IMU, 32796765, 0.0006067688, 0.0009678326, 0.0005300465, 0.1741725, -0.04790892, -9.80127, 0, 0, 38.08633, 1, 1, 1000, 1000
IMU, 32836834, 0.000345487, -2.180196E-05, -0.0007669745, 0.1794728, -0.04576975, -9.817791, 0, 0, 38.08588, 1, 1, 1000, 1000
RFND, 32842461, 0.2, 25, 0, 0
IMU, 32876797, -0.001132941, 0.001611275, -0.0007393194, 0.1778902, -0.05005937, -9.831754, 0, 0, 38.08459, 1, 1, 1000, 1000
MAG, 32891693, 324, 498, 279, 0, 0, 0, 0, 0, 0, 1, 32891685
RFND, 32891725, 0.2, 25, 0, 0
BARO, 32891757, 1.254619, 993.2485, 36.16, 0.2205438, 32891, 0, 35
CTUN, 32891769, 0, 0, 0, 0.2210428, 0.0688038, 0.0688038, 1.25, 0, 0.19, 0, 0, 0
ATT, 32891827, 0, 0.79, 0, 0.28, 359.37, 359.39, 0, 1
RATE, 32891833, -3.5981, 0.008247276, -0.008760822, -1.270872, 0.05363532, -0.003044228, 0.009174735, -0.1612751, 0.0001449011, -66.9565, -0.8572578, 0
NKF1, 32891840, 0.79, 0.28, 359.38, 0.00476469, -0.01388406, -0.001653247, 0, 0, 0, -0.0688038, 0, 0, 0
NKF2, 32891840, 0, 0, 0, 0, 0, 0, 0, 0, 0, 0, 0, 0, 0
NKF3, 32891840, 0, 0, 0, 0, -0.02, 0, 0, 0, 0, 0, 0
NKF4, 32891840, 0, 0, 0, 0, 0, 6.560766E-07, 0, 0, 0, 19, 229, 0, 0
NKF5, 32891840, 0, 0, 0, 0, 0.2, 0.13, 0, 0.19, 0.5, 3.59767E-05, 0.0003800518, 0.0006891463
NKQ1, 32891840, 0.9999388, 0.002485463, 0.009330284, -0.005403983
AHR2, 32891883, 0.78, 0.27, 4.64, 1.25, 0, 0, 0.999154, 0.006754756, 0.002683023, 0.04047752
MOTB, 32891890, 1, 1, 0, 1
RCIN, 32891894, 0, 0, 0, 0, 0, 0, 0, 0, 0, 0, 0, 0, 0, 0
RCOU, 32891900, 1101, 1101, 1101, 1101, 0, 0, 0, 0, 0, 0, 0, 0, 0, 0
VIBE, 32891909, 0.02022117, 0.01984143, 0.03218909, 0, 0, 0
CTRL, 32891916, 0.008487202, 0.0001756761, 0.002989017, 0.0002815233, 0.0001227511
PRX, 32891949, 1, 0.74, 0, 3.6, 0, 3.6, 0, 3.6, 0, 0, 0, 0.74
IMU, 32916639, 2.258763E-05, -0.001355593, -0.0008447857, 0.1794928, -0.05641796, -9.809931, 0, 0, 38.08376, 1, 1, 1000, 1000
RFND, 32941662, 0.2, 25, 0, 0
IMU, 32956968, 0.001752746, 0.0005851658, -0.0006306399, 0.1967202, -0.0540281, -9.823192, 0, 0, 38.08307, 1, 1, 1000, 1000
MAG, 32991599, 322, 496, 277, 0, 0, 0, 0, 0, 0, 1, 32991591
RFND, 32991629, 0.2, 25, 0, 0
BARO, 32991661, 1.237665, 993.2505, 36.16, 0.2849379, 32991, 0, 35
CTUN, 32991744, 0, 0, 0, 0.2210428, 0.068921, 0.068921, 1.23, 0, 0.19, 0, 0, 0
ATT, 32991799, 0, 0.8, 0, 0.27, 359.36, 359.39, 0, 1
RATE, 32991804, -3.608309, -0.01345929, -0.008317771, -1.25745, -0.1192816, -0.002096368, 0.008117809, -0.004664623, 0.0001517713, -121.8706, 1.072216, 0
NKF1, 32991811, 0.8, 0.27, 359.38, 0.004891244, -0.0145407, -0.003009149, 0, 0, 0, -0.068921, 0, 0, 0
NKF2, 32991811, 0, 0, 0, 0, 0, 0, 0, 0, 0, 0, 0, 0, 0
NKF3, 32991811, 0, 0, 0, 0, -0.02, 0, 0, 0, 0, 0, 0
NKF4, 32991811, 0, 0, 0, 0, 0, 7.245118E-07, 0, 0, 0, 19, 229, 0, 0
NKF5, 32991811, 0, 0, 0, 0, 0.2, 0.13, 0, 0.19, 0.5, 3.596122E-05, 0.0003777027, 0.0006813252
NKQ1, 32991811, 0.9999388, 0.00250403, 0.009308393, -0.005425728
AHR2, 32991853, 0.78, 0.27, 4.63, 1.23, 0, 0, 0.9991548, 0.006775803, 0.002662395, 0.04045607
MOTB, 32991860, 1, 1, 0, 1
RCIN, 32991865, 0, 0, 0, 0, 0, 0, 0, 0, 0, 0, 0, 0, 0, 0
RCOU, 32991871, 1101, 1101, 1101, 1101, 0, 0, 0, 0, 0, 0, 0, 0, 0, 0
VIBE, 32991880, 0.02206208, 0.01764403, 0.034864, 0, 0, 0
CTRL, 32991887, 0.008513687, 0.0001714181, 0.00298449, 0.000291516, 0.0001398849
PRX, 32991919, 2, 0.74, 0, 3.6, 0, 3.6, 0, 3.6, 0, 0, 0, 0.74
IMU, 32996658, -0.000195719, -0.002224429, 0.0002185336, 0.1805786, -0.05011281, -9.802518, 0, 0, 38.08397, 1, 1, 1000, 1000
EV, 33011457, 57
IMU, 33036678, 0.0004424339, 0.001438933, -0.0003506047, 0.1865659, -0.05428641, -9.812618, 0, 0, 38.08441, 1, 1, 1000, 1000
RFND, 33041608, 0.2, 25, 0, 0
IMU, 33076829, -0.0006539238, 0.00057705, -0.0008701876, 0.1814339, -0.03629065, -9.801399, 0, 0, 38.08365, 1, 1, 1000, 1000
MAG, 33091705, 327, 495, 274, 0, 0, 0, 0, 0, 0, 1, 33091697
RFND, 33091737, 0.2, 25, 0, 0
BARO, 33091771, 1.223537, 993.2522, 36.16, 0.3983044, 33091, 0, 35
CTUN, 33091783, 0, 0, 0, 0.2210428, 0.06906421, 0.06906421, 1.22, 0, 0.19, 0, 0, 0
ATT, 33091840, 0, 0.8, 0, 0.28, 359.36, 359.39, 0, 1
RATE, 33091846, -3.608925, -0.04200913, -0.008375659, -1.265122, -0.008351672, -0.002797422, 0.008847859, 0.05226036, 9.536307E-05, -110.1336, -1.474762, 0
NKF1, 33091853, 0.8, 0.28, 359.38, 0.005228492, -0.01460774, -0.002719348, 0, 0, 0, -0.06906421, 0, 0, 0
NKF2, 33091853, 0, 0, 0, 0, 0, 0, 0, 0, 0, 0, 0, 0, 0
NKF3, 33091853, 0, 0, 0, 0, -0.02, 0, 0, 0, 0, 0, 0
NKF4, 33091853, 0, 0, 0, 0, 0, 8.27976E-07, 0, 0, 0, 19, 229, 0, 0
NKF5, 33091853, 0, 0, 0, 0, 0.2, 0.13, 0, 0.19, 0.5, 3.485244E-05, 0.000339125, 0.0005990225
NKQ1, 33091853, 0.9999387, 0.002503356, 0.009324282, -0.00543308
AHR2, 33091896, 0.78, 0.27, 4.63, 1.22, 0, 0, 0.999155, 0.006776213, 0.002678236, 0.04044895
MOTB, 33091903, 1, 1, 0, 1
RCIN, 33091908, 0, 0, 0, 0, 0, 0, 0, 0, 0, 0, 0, 0, 0, 0
RCOU, 33091914, 1119, 1119, 1119, 1119, 0, 0, 0, 0, 0, 0, 0, 0, 0, 0
VIBE, 33091923, 0.0209745, 0.01820622, 0.03105382, 0, 0, 0
CTRL, 33091929, 0.008513764, 0.0001804416, 0.002986187, 0.0002746136, 0.0001286061
PRX, 33091961, 2, 0.74, 0, 3.6, 0, 3.6, 0, 3.6, 0, 0, 0, 0.74
IMU, 33116973, 0.00125968, 0.0001439538, -0.0006283422, 0.1817368, -0.046491, -9.787417, 0, 0, 38.08373, 1, 1, 1000, 1000
RFND, 33141674, 0.2, 25, 0, 0
IMU, 33156788, 0.0009319184, 0.0008239616, -0.0006733098, 0.1795504, -0.0429999, -9.808264, 0, 0, 38.08371, 1, 1, 1000, 1000
MAG, 33191745, 323, 499, 281, 0, 0, 0, 0, 0, 0, 1, 33191737
RFND, 33191776, 0.2, 25, 0, 0
BARO, 33191810, 1.203757, 993.2542, 36.16, 0.2878702, 33191, 0, 35
CTUN, 33191823, 0, 0, 0, 0.2210428, 0.06912374, 0.06912374, 1.2, 0, 0.19, 0, 0, 0
ATT, 33191880, 0, 0.8, 0, 0.28, 359.36, 359.38, 0, 1
RATE, 33191886, -3.625329, -0.01336318, -0.008247332, -1.265233, -0.07639517, -0.002503152, 0.00888355, -0.05384667, 0.000140469, -58.44171, -1.8116, 0
NKF1, 33191893, 0.8, 0.28, 359.37, 0.005000286, -0.0142824, -0.001443005, 0, 0, 0, -0.06912374, 0, 0, 0
NKF2, 33191893, 0, 0, 0, 0, 0, 0, 0, 0, 0, 0, 0, 0, 0
NKF3, 33191893, 0, 0, 0, 0, -0.02, 0, 0, 0, 0, 0, 0
NKF4, 33191893, 0, 0, 0, 0, 0, 9.095646E-07, 0, 0, 0, 19, 229, 0, 0
NKF5, 33191893, 0, 0, 0, 0, 0.2, 0.13, 0, 0.19, 0.5, 3.36291E-05, 0.0002977693, 0.0005258191
NKQ1, 33191893, 0.9999384, 0.002537913, 0.009321779, -0.005476723
AHR2, 33191937, 0.79, 0.27, 4.63, 1.2, 0, 0, 0.9991565, 0.006813713, 0.002676186, 0.04040542
MOTB, 33191944, 1, 1, 0, 1
RCIN, 33191948, 0, 0, 0, 0, 0, 0, 0, 0, 0, 0, 0, 0, 0, 0
RCOU, 33191954, 1143, 1143, 1143, 1143, 0, 0, 0, 0, 0, 0, 0, 0, 0, 0
VIBE, 33191963, 0.01884043, 0.01932743, 0.03291241, 0, 0, 0
CTRL, 33191970, 0.008551595, 0.0001807316, 0.002993314, 0.0002470343, 0.0001235197
PRX, 33192002, 1, 0.74, 0, 3.6, 0, 3.6, 0, 3.6, 0, 0, 0, 0.74
IMU, 33196793, -0.0001797151, -0.001710824, -0.001080014, 0.1726921, -0.05101285, -9.796774, 0, 0, 38.08398, 1, 1, 1000, 1000
IMU, 33236892, 0.0006784271, -0.001128209, -0.0007210713, 0.1855002, -0.05869757, -9.809457, 0, 0, 38.0835, 1, 1, 1000, 1000
RFND, 33241748, 0.2, 25, 0, 0
IMU, 33276713, -0.000673565, 0.0006597555, -0.0003048505, 0.1822342, -0.05961646, -9.796821, 0, 0, 38.08289, 1, 1, 1000, 1000
MAG, 33291599, 322, 496, 277, 0, 0, 0, 0, 0, 0, 1, 33291592
RFND, 33291629, 0.2, 25, 0, 0
BARO, 33291662, 1.237665, 993.2505, 36.16, 0.04326891, 33291, 0, 35
CTUN, 33291744, 0, 0, 0, 0.2210428, 0.06909685, 0.06909685, 1.23, 0, 0.19, 0, 0, 0
ATT, 33291799, 0, 0.8, 0, 0.27, 359.36, 359.38, 0, 1
RATE, 33291804, -3.627843, -0.0849903, -0.008157526, -1.258001, 0.08172146, -0.003476203, 0.00884771, 0.04574749, 0.0001165899, -59.30977, -0.006389618, 0
NKF1, 33291812, 0.8, 0.27, 359.37, 0.005193635, -0.01456377, -0.001464439, 0, 0, 0, -0.06909685, 0, 0, 0
NKF2, 33291812, 0, 0, 0, 0, 0, 0, 0, 0, 0, 0, 0, 0, 0
NKF3, 33291812, 0, 0, 0, 0, -0.02, 0, 0, 0, 0, 0, 0
NKF4, 33291812, 0, 0, 0, 0, 0, 1.040806E-06, 0, 0, 0, 19, 229, 0, 0
NKF5, 33291812, 0, 0, 0, 0, 0.2, 0.13, 0, 0.19, 0.5, 3.372104E-05, 0.0003003926, 0.0005111332
NKQ1, 33291812, 0.9999384, 0.002542206, 0.00931048, -0.005495765
AHR2, 33291857, 0.79, 0.27, 4.63, 1.23, 0, 0, 0.9991573, 0.006819427, 0.002664128, 0.04038673
MOTB, 33291864, 1, 1, 0, 1
RCIN, 33291868, 0, 0, 0, 0, 0, 0, 0, 0, 0, 0, 0, 0, 0, 0
RCOU, 33291874, 1167, 1167, 1167, 1167, 0, 0, 0, 0, 0, 0, 0, 0, 0, 0
VIBE, 33291883, 0.02209096, 0.02070286, 0.03265584, 0, 0, 0
CTRL, 33291889, 0.008562953, 0.0001847043, 0.002955067, 0.0002436686, 0.0001337377
PRX, 33291921, 1, 0.74, 0, 3.6, 0, 3.6, 0, 3.6, 0, 0, 0, 0.74
IMU, 33316858, -0.000587599, 0.0004870539, -0.001452934, 0.1871995, -0.05157073, -9.816793, 0, 0, 38.08267, 1, 1, 1000, 1000
RFND, 33341657, 0.2, 25, 0, 0
IMU, 33356789, -0.001086362, 0.001079698, -0.0003156996, 0.1788421, -0.05656758, -9.797579, 0, 0, 38.08369, 1, 1, 1000, 1000
DU32, 33389466, 7, 33611992
MAG, 33391765, 323, 496, 280, 0, 0, 0, 0, 0, 0, 1, 33391758
RFND, 33391797, 0.2, 25, 0, 0
BARO, 33391830, 1.285702, 993.2454, 36.16, -0.03620449, 33391, 0, 35
CTUN, 33391842, 0, 0, 0, 0.2210428, 0.06909411, 0.06909411, 1.28, 0, 0.19, 0, 0, 0
ATT, 33391900, 0, 0.8, 0, 0.27, 359.35, 359.37, 0, 1
RATE, 33391906, -3.623692, 0.05119002, -0.008800953, -1.257357, -0.01910584, -0.002897527, 0.008824662, -0.01859711, 0.0001165661, -47.36127, -0.2303123, 0
NKF1, 33391912, 0.8, 0.27, 359.36, 0.005067249, -0.01514636, -0.001169414, 0, 0, 0, -0.06909411, 0, 0, 0
NKF2, 33391912, 0, 0, 0, 0, 0, 0, 0, 0, 0, 0, 0, 0, 0
NKF3, 33391912, 0, 0, 0, 0, -0.02, 0, 0, 0, 0, 0, 0
NKF4, 33391912, 0, 0, 0, 0, 0, 1.152648E-06, 0, 0, 0, 19, 229, 0, 0
NKF5, 33391912, 0, 0, 0, 0, 0.2, 0.13, 0, 0.19, 0.5, 3.24655E-05, 0.000258535, 0.0004423565
NKQ1, 33391912, 0.9999383, 0.002533968, 0.009307086, -0.005525158
AHR2, 33392402, 0.79, 0.27, 4.62, 1.28, 0, 0, 0.9991586, 0.006807071, 0.002659588, 0.04035775
MOTB, 33392412, 1, 1, 0, 1
RCIN, 33392416, 0, 0, 0, 0, 0, 0, 0, 0, 0, 0, 0, 0, 0, 0
RCOU, 33392423, 1191, 1191, 1191, 1191, 0, 0, 0, 0, 0, 0, 0, 0, 0, 0
VIBE, 33392431, 0.01903967, 0.01996928, 0.0304398, 0, 0, 0
CTRL, 33392439, 0.008544852, 0.0001732954, 0.002973038, 0.000220404, 0.0001289224
PRX, 33392472, 1, 0.74, 0, 3.6, 0, 3.6, 0, 3.6, 0, 0, 0, 0.74
IMU, 33396778, 0.0004192361, -0.000791741, -0.0001640759, 0.1870613, -0.05404886, -9.803274, 0, 0, 38.0848, 1, 1, 1000, 1000
IMU, 33436734, -0.0008080267, 0.000823931, -0.0005042636, 0.1818914, -0.06444529, -9.806851, 0, 0, 38.08562, 1, 1, 1000, 1000
RFND, 33441672, 0.2, 25, 0, 0
IMU, 33476783, 0.001003104, 0.001252933, -0.001652493, 0.1904481, -0.04188356, -9.809169, 0, 0, 38.08658, 1, 1, 1000, 1000
MAG, 33491699, 325, 498, 278, 0, 0, 0, 0, 0, 0, 1, 33491692
RFND, 33491731, 0.2, 25, 0, 0
BARO, 33491765, 1.265922, 993.2475, 36.16, 0.08565449, 33491, 0, 35
CTUN, 33491778, 0, 0, 0, 0.2210428, 0.06903288, 0.06903288, 1.26, 0, 0.19, 0, 0, 0
ATT, 33491833, 0, 0.8, 0, 0.28, 359.35, 359.37, 0, 1
RATE, 33491838, -3.628457, 0.007302713, -0.008297922, -1.278138, -0.01805539, -0.002750355, 0.008979215, -0.07882647, 0.0001566171, -46.93665, -0.9997368, 0
NKF1, 33491845, 0.8, 0.28, 359.36, 0.005473296, -0.01576231, -0.00115893, 0, 0, 0, -0.06903288, 0, 0, 0
NKF2, 33491845, 0, 0, 0, 0, 0, 0, 0, 0, 0, 0, 0, 0, 0
NKF3, 33491845, 0, 0, 0, 0, -0.02, 0, 0, 0, 0, 0, 0
NKF4, 33491845, 0, 0, 0, 0, 0, 1.295412E-06, 0, 0, 0, 19, 229, 0, 0
NKF5, 33491845, 0, 0, 0, 0, 0.2, 0.13, 0, 0.19, 0.5, 3.285018E-05, 0.0002646907, 0.000429878
NKQ1, 33491845, 0.9999377, 0.002544886, 0.009345787, -0.005560344
AHR2, 33491890, 0.79, 0.27, 4.62, 1.26, 0, 0, 0.9991599, 0.006813949, 0.002697986, 0.04032261
MOTB, 33491896, 1, 1, 0, 1
RCIN, 33491901, 0, 0, 0, 0, 0, 0, 0, 0, 0, 0, 0, 0, 0, 0
RCOU, 33491907, 1215, 1215, 1215, 1215, 0, 0, 0, 0, 0, 0, 0, 0, 0, 0
VIBE, 33491916, 0.02082515, 0.02315416, 0.03435697, 0, 0, 0
CTRL, 33491922, 0.008564631, 0.0001683589, 0.003005789, 0.0002094269, 0.0001243655
PRX, 33491955, 2, 0.74, 0, 3.6, 0, 3.6, 0, 3.6, 0, 0, 0, 0.74
IMU, 33516730, -0.0003503414, 0.001712449, 0.0009275429, 0.1820841, -0.06205477, -9.792761, 0, 0, 38.0866, 1, 1, 1000, 1000
RFND, 33541735, 0.2, 25, 0, 0
IMU, 33556783, 0.0007378227, 0.0006517152, -0.001504662, 0.1852385, -0.04348945, -9.814468, 0, 0, 38.08646, 1, 1, 1000, 1000
MAG, 33591880, 325, 498, 280, 0, 0, 0, 0, 0, 0, 1, 33591872
RFND, 33591911, 0.2, 25, 0, 0
BARO, 33591945, 1.342217, 993.2389, 36.16, 0.2136948, 33591, 0, 35
CTUN, 33591957, 0, 0, 0, 0.2210428, 0.06896669, 0.06896669, 1.34, 0, 0.19, 0, 0, 0
ATT, 33592014, 0, 0.8, 0, 0.28, 359.35, 359.37, 0, 1
RATE, 33592020, -3.640156, 0.05994778, -0.00864048, -1.291342, 0.02407498, -0.003117568, 0.009099346, -0.06669719, 0.0001802945, -41.48307, -0.6669044, 0
NKF1, 33592028, 0.8, 0.28, 359.36, 0.005472328, -0.01573267, -0.001024273, 0, 0, 0, -0.06896669, 0, 0, 0
NKF2, 33592028, 0, 0, 0, 0, 0, 0, 0, 0, 0, 0, 0, 0, 0
NKF3, 33592028, 0, 0, 0, 0, -0.03, 0, 0, 0, 0, 0, 0
NKF4, 33592028, 0, 0, 0, 0, 0, 1.439626E-06, 0, 0, 0, 19, 229, 0, 0
NKF5, 33592028, 0, 0, 0, 0, 0.2, 0.13, 0, 0.19, 0.5, 3.155467E-05, 0.0002212437, 0.0003606389
NKQ1, 33592028, 0.9999372, 0.002566729, 0.00937112, -0.005587955
AHR2, 33592072, 0.79, 0.28, 4.62, 1.34, 0, 0, 0.9991608, 0.006837898, 0.002723708, 0.04029506
MOTB, 33592079, 1, 1, 0, 1
RCIN, 33592084, 0, 0, 0, 0, 0, 0, 0, 0, 0, 0, 0, 0, 0, 0
RCOU, 33592090, 1236, 1226, 1221, 1241, 0, 0, 0, 0, 0, 0, 0, 0, 0, 0
VIBE, 33592099, 0.02150688, 0.02078507, 0.03354816, 0, 0, 0
CTRL, 33592106, 0.008581435, 0.0001723978, 0.003034649, 0.0002137123, 0.0001254643
PRX, 33592139, 2, 0.74, 0, 3.6, 0, 3.6, 0, 3.6, 0, 0, 0, 0.74
IMU, 33596806, 0.001117321, 0.0002335656, -0.0007003187, 0.1832328, -0.04532896, -9.801207, 0, 0, 38.08651, 1, 1, 1000, 1000
IMU, 33636792, 1.291724E-05, 0.001964454, 0.0001314808, 0.1877277, -0.05348872, -9.805068, 0, 0, 38.08654, 1, 1, 1000, 1000
RFND, 33641742, 0.2, 25, 0, 0
IMU, 33676768, -0.001648691, 0.000312874, 0.0002785194, 0.1937048, -0.04648116, -9.793558, 0, 0, 38.08644, 1, 1, 1000, 1000
MAG, 33692334, 320, 496, 282, 0, 0, 0, 0, 0, 0, 1, 33692326
RFND, 33692366, 0.2, 25, 0, 0
BARO, 33692400, 1.328088, 993.2406, 36.16, 0.249845, 33692, 0, 35
CTUN, 33692413, 0, 0, 0, 0.2210428, 0.0688799, 0.0688799, 1.32, 0, 0.19, 0, 0, 0
ATT, 33692471, 0, 0.8, 0, 0.28, 359.34, 359.36, 0, 1
RATE, 33692477, -3.641379, -0.05851101, -0.008531536, -1.303192, -0.009893352, -0.003067286, 0.009189734, -0.05909017, 9.269224E-05, -7.849326, -1.614666, 0
NKF1, 33692484, 0.8, 0.28, 359.35, 0.005848614, -0.01583858, -0.0001938105, 0, 0, 0, -0.0688799, 0, 0, 0
NKF2, 33692484, 0, 0, 0, 0, 0, 0, 0, 0, 0, 0, 0, 0, 0
NKF3, 33692484, 0, 0, 0, 0, -0.03, 0, 0, 0, 0, 0, 0
NKF4, 33692484, 0, 0, 0, 0, 0, 1.588213E-06, 0, 0, 0, 19, 229, 0, 0
NKF5, 33692484, 0, 0, 0, 0, 0.2, 0.13, 0, 0.19, 0.5, 3.222972E-05, 0.0002331695, 0.0003573628
NKQ1, 33692484, 0.9999369, 0.002570354, 0.009394587, -0.005608631
AHR2, 33692529, 0.79, 0.28, 4.61, 1.32, 0, 0, 0.9991615, 0.006842515, 0.002747606, 0.04027455
MOTB, 33692562, 1, 1, 0, 1
RCIN, 33692568, 0, 0, 0, 0, 0, 0, 0, 0, 0, 0, 0, 0, 0, 0
RCOU, 33692574, 1236, 1226, 1221, 1241, 0, 0, 0, 0, 0, 0, 0, 0, 0, 0
VIBE, 33692583, 0.02248854, 0.01953864, 0.03807103, 0, 0, 0
CTRL, 33692589, 0.008589992, 0.0001848627, 0.003067808, 0.0002201336, 0.0001277726
PRX, 33692623, 1, 0.74, 0, 3.6, 0, 3.6, 0, 3.6, 0, 0, 0, 0.74
IMU, 33716828, -0.0008169878, -0.000647603, 0.000663398, 0.184299, -0.05412474, -9.81372, 0, 0, 38.08665, 1, 1, 1000, 1000
RFND, 33741941, 0.2, 25, 0, 0
IMU, 33756795, -0.001105114, 0.000895176, -0.0001301584, 0.174712, -0.05773651, -9.814468, 0, 0, 38.08664, 1, 1, 1000, 1000
MAG, 33791738, 322, 494, 282, 0, 0, 0, 0, 0, 0, 1, 33791731
RFND, 33791770, 0.2, 25, 0, 0
BARO, 33791805, 1.232014, 993.2512, 36.17, 0.2098809, 33791, 0, 35
CTUN, 33791817, 0, 0, 0, 0.2210428, 0.06874392, 0.06874392, 1.23, 0, 0.19, 0, 0, 0
ATT, 33791874, 0, 0.8, 0, 0.29, 359.35, 359.37, 0, 1
RATE, 33791879, -3.636214, 0.01328286, -0.008741129, -1.311506, 0.03131901, -0.003115428, 0.009243878, 0.06770361, -2.842885E-05, -21.37344, 0.1680374, 0
NKF1, 33791887, 0.8, 0.29, 359.36, 0.0052273, -0.01614285, -0.0005277394, 0, 0, 0, -0.06874392, 0, 0, 0
NKF2, 33791887, 0, 0, 0, 0, 0, 0, 0, 0, 0, 0, 0, 0, 0
NKF3, 33791887, 0, 0, 0, 0, -0.03, 0, 0, 0, 0, 0, 0
NKF4, 33791887, 0, 0, 0, 0, 0, 1.768395E-06, 0, 0, 0, 19, 229, 0, 0
NKF5, 33791887, 0, 0, 0, 0, 0.2, 0.13, 0, 0.19, 0.5, 3.078699E-05, 0.000187483, 0.0002867956
NKQ1, 33791887, 0.9999369, 0.00255805, 0.00941404, -0.005573873
AHR2, 33791930, 0.79, 0.28, 4.62, 1.23, 0, 0, 0.9991601, 0.006828342, 0.002769303, 0.04030954
MOTB, 33791937, 1, 1, 0, 1
RCIN, 33791942, 0, 0, 0, 0, 0, 0, 0, 0, 0, 0, 0, 0, 0, 0
RCOU, 33791948, 1236, 1226, 1221, 1241, 0, 0, 0, 0, 0, 0, 0, 0, 0, 0
VIBE, 33791957, 0.02131149, 0.02069143, 0.03430898, 0, 0, 0
CTRL, 33791963, 0.008571926, 0.0001750351, 0.003086914, 0.0002052816, 0.0001093192
PRX, 33791996, 1, 0.74, 0, 3.6, 0, 3.6, 0, 3.6, 0, 0, 0, 0.74
IMU, 33796764, -0.0005100762, 0.0007956835, 0.0006176178, 0.1759106, -0.04759227, -9.811487, 0, 0, 38.08697, 1, 1, 1000, 1000
IMU, 33836754, 0.001085698, -0.0002081658, 0.0004469904, 0.172142, -0.03926194, -9.816886, 0, 0, 38.08733, 1, 1, 1000, 1000
RFND, 33841769, 0.2, 25, 0, 0
IMU, 33876796, -0.0005345712, -0.0001868312, -0.0009104737, 0.1890126, -0.05325218, -9.800133, 0, 0, 38.08723, 1, 1, 1000, 1000
MAG, 33892042, 321, 497, 277, 0, 0, 0, 0, 0, 0, 1, 33892035
RFND, 33892075, 0.2, 25, 0, 0
BARO, 33892108, 1.234839, 993.2509, 36.16, 0.02865852, 33892, 0, 35
CTUN, 33892121, 0, 0, 0, 0.2210428, 0.06864194, 0.06864194, 1.23, 0, 0.19, 0, 0, 0
ATT, 33892180, 0, 0.8, 0, 0.29, 359.35, 359.37, 0, 1
RATE, 33892185, -3.642175, 0.0106475, -0.008718768, -1.307051, -0.005162444, -0.003119108, 0.009220979, -0.05348046, 6.650036E-05, -22.69312, 0.987339, 0
NKF1, 33892192, 0.8, 0.29, 359.36, 0.004892091, -0.01593233, -0.0005603241, 0, 0, 0, -0.06864194, 0, 0, 0
NKF2, 33892192, 0, 0, 0, 0, 0, 0, 0, 0, 0, 0, 0, 0, 0
NKF3, 33892192, 0, 0, 0, 0, -0.03, 0, 0, 0, 0, 0, 0
NKF4, 33892192, 0, 0, 0, 0, 0, 1.925788E-06, 0, 0, 0, 19, 229, 0, 0
NKF5, 33892192, 0, 0, 0, 0, 0.2, 0.13, 0, 0.19, 0.5, 3.171193E-05, 0.0002062438, 0.0002933607
NKQ1, 33892192, 0.9999369, 0.00257219, 0.009402424, -0.005591378
AHR2, 33892312, 0.79, 0.28, 4.62, 1.23, 0, 0, 0.9991608, 0.006841131, 0.002759035, 0.04029229
MOTB, 33892321, 1, 1, 0, 1
RCIN, 33892326, 0, 0, 0, 0, 0, 0, 0, 0, 0, 0, 0, 0, 0, 0
RCOU, 33892333, 1236, 1226, 1221, 1241, 0, 0, 0, 0, 0, 0, 0, 0, 0, 0
VIBE, 33892341, 0.01967809, 0.01906017, 0.03312103, 0, 0, 0
CTRL, 33892348, 0.00858785, 0.0001736316, 0.003080796, 0.0001934095, 9.086508E-05
PRX, 33892382, 1, 0.74, 0, 3.6, 0, 3.6, 0, 3.6, 0, 0, 0, 0.74
IMU, 33916803, 0.0007416881, -0.001027449, -0.0007939057, 0.17838, -0.04335713, -9.813618, 0, 0, 38.08704, 1, 1, 1000, 1000
RFND, 33941781, 0.2, 25, 0, 0
IMU, 33957420, -0.0006426549, -0.0005541506, -0.0009431708, 0.1831653, -0.0424808, -9.80753, 0, 0, 38.08701, 1, 1, 1000, 1000
MAG, 33991748, 316, 495, 280, 0, 0, 0, 0, 0, 0, 1, 33991741
RFND, 33991785, 0.2, 25, 0, 0
BARO, 33991816, 1.299831, 993.2438, 36.16, -0.2065337, 33991, 0, 35
CTUN, 33991829, 0, 0, 0, 0.2210428, 0.06853256, 0.06853256, 1.29, 0, 0.19, 0, 0, 0
ATT, 33991887, 0, 0.81, 0, 0.28, 359.34, 359.36, 0, 1
RATE, 33991893, -3.646217, -0.003365314, -0.008601995, -1.301832, -0.04536072, -0.002813325, 0.009196908, -0.01681842, 0.00017516, -28.87642, -0.5675316, 0
NKF1, 33991900, 0.81, 0.28, 359.35, 0.004478192, -0.01579371, -0.000712998, 0, 0, 0, -0.06853256, 0, 0, 0
NKF2, 33991900, 0, 0, 0, 0, 0, 0, 0, 0, 0, 0, 0, 0, 0
NKF3, 33991900, 0, 0, 0, 0.01, -0.03, 0, 0, 0, 0, 0, 0
NKF4, 33991900, 0, 0, 0, 0, 0, 2.142663E-06, 0, 0, 0, 19, 229, 0, 0
NKF5, 33991900, 0, 0, 0, 0, 0.2, 0.13, 0, 0.19, 0.5, 3.008239E-05, 0.0001591357, 0.000235834
NKQ1, 33991900, 0.9999367, 0.002579885, 0.009393118, -0.005631431
AHR2, 33991944, 0.79, 0.28, 4.61, 1.29, 0, 0, 0.9991623, 0.006846429, 0.002745112, 0.04025258
MOTB, 33991951, 1, 1, 0, 1
RCIN, 33991956, 0, 0, 0, 0, 0, 0, 0, 0, 0, 0, 0, 0, 0, 0
RCOU, 33991962, 1236, 1226, 1221, 1240, 0, 0, 0, 0, 0, 0, 0, 0, 0, 0
VIBE, 33991970, 0.01973138, 0.01808018, 0.03192885, 0, 0, 0
CTRL, 33991977, 0.008598518, 0.0001544584, 0.003071452, 0.0002136972, 0.0001104646
PRX, 33992010, 2, 0.74, 0, 3.6, 0, 3.6, 0, 3.6, 0, 0, 0, 0.74
IMU, 33996852, 8.095875E-05, -0.001008681, 0.0004939173, 0.1823656, -0.05608896, -9.79915, 0, 0, 38.08712, 1, 1, 1000, 1000
IMU, 34036785, -0.0002436433, 0.001342544, -0.00106035, 0.1801629, -0.0512002, -9.816666, 0, 0, 38.08714, 1, 1, 1000, 1000
RFND, 34041774, 0.2, 25, 0, 0
IMU, 34076774, -0.0009493877, -0.0006428758, -0.0006655266, 0.1925553, -0.04894038, -9.833605, 0, 0, 38.08731, 1, 1, 1000, 1000
MAG, 34091770, 318, 497, 280, 0, 0, 0, 0, 0, 0, 1, 34091762
RFND, 34091802, 0.2, 25, 0, 0
BARO, 34091835, 1.200931, 993.2545, 36.17, -0.2189931, 34091, 0, 35
CTUN, 34091848, 0, 0, 0, 0.2210428, 0.06849317, 0.06849317, 1.2, 0, 0.19, 0, 0, 0
ATT, 34091904, 0, 0.8, 0, 0.28, 359.34, 359.36, 0, 1
RATE, 34091910, -3.644205, -0.05763004, -0.00833321, -1.289129, -0.09005903, -0.002541298, 0.009100514, -0.0260585, 0.0001445274, -66.6312, 2.292252, 0
NKF1, 34091917, 0.8, 0.28, 359.35, 0.005010162, -0.01560216, -0.001645215, 0, 0, 0, -0.06849317, 0, 0, 0
NKF2, 34091917, 0, 0, 0, 0, 0, 0, 0, 0, 0, 0, 0, 0, 0
NKF3, 34091917, 0, 0, 0, 0.01, -0.03, 0, 0, 0, 0, 0, 0
NKF4, 34091917, 0, 0, 0, 0, 0, 2.308629E-06, 0, 0, 0, 19, 229, 0, 0
NKF5, 34091917, 0, 0, 0, 0, 0.2, 0.13, 0, 0.19, 0.5, 2.83026E-05, 0.0001512695, 0.0004080165
NKQ1, 34091917, 0.9999369, 0.002575929, 0.009368134, -0.005652014
AHR2, 34091962, 0.79, 0.27, 4.61, 1.2, 0, 0, 0.9991632, 0.006840879, 0.002716129, 0.04023248
MOTB, 34091968, 1, 1, 0, 1
RCIN, 34091973, 0, 0, 0, 0, 0, 0, 0, 0, 0, 0, 0, 0, 0, 0
RCOU, 34091979, 1235, 1225, 1221, 1239, 0, 0, 0, 0, 0, 0, 0, 0, 0, 0
VIBE, 34091988, 0.02087704, 0.02038856, 0.0291661, 0, 0, 0
CTRL, 34091994, 0.008603616, 0.0001586042, 0.003052488, 0.000208854, 0.0001151512
PRX, 34092027, 2, 0.74, 0, 3.6, 0, 3.6, 0, 3.6, 0, 0, 0, 0.74
IMU, 34116733, -0.001160729, -0.0002681681, 2.651026E-05, 0.1884563, -0.06134231, -9.81047, 0, 0, 38.08833, 1, 1, 1000, 1000
RFND, 34141766, 0.2, 25, 0, 0
IMU, 34156762, -0.0009444616, -0.0001465417, -0.0009748759, 0.1971553, -0.04070174, -9.812434, 0, 0, 38.08963, 1, 1, 1000, 1000
MAG, 34191732, 325, 498, 282, 0, 0, 0, 0, 0, 0, 1, 34191724
RFND, 34191764, 0.2, 25, 0, 0
BARO, 34191798, 1.263097, 993.2478, 36.17, -0.07810546, 34191, 0, 35
