FMT, 128, 89, FMT, BBnNZ, Type,Length,Name,Format,Columns
FMT, 129, 31, PARM, QNf, TimeUS,Name,Value
FMT, 130, 46, GPS, QBIHBcLLefffB, TimeUS,Status,GMS,GWk,NSats,HDop,Lat,Lng,Alt,Spd,GCrs,VZ,U
FMT, 131, 46, GPS2, QBIHBcLLefffB, TimeUS,Status,GMS,GWk,NSats,HDop,Lat,Lng,Alt,Spd,GCrs,VZ,U
FMT, 132, 46, GPSB, QBIHBcLLefffB, TimeUS,Status,GMS,GWk,NSats,HDop,Lat,Lng,Alt,Spd,GCrs,VZ,U
FMT, 193, 24, GPA, QCCCCBI, TimeUS,VDop,HAcc,VAcc,SAcc,VV,SMS
FMT, 194, 24, GPA2, QCCCCBI, TimeUS,VDop,HAcc,VAcc,SAcc,VV,SMS
FMT, 195, 24, GPAB, QCCCCBI, TimeUS,VDop,HAcc,VAcc,SAcc,VV,SMS
FMT, 133, 53, IMU, QffffffIIfBBHH, TimeUS,GyrX,GyrY,GyrZ,AccX,AccY,AccZ,EG,EA,T,GH,AH,GHz,AHz
FMT, 134, 75, MSG, QZ, TimeUS,Message
FMT, 135, 39, RCIN, QHHHHHHHHHHHHHH, TimeUS,C1,C2,C3,C4,C5,C6,C7,C8,C9,C10,C11,C12,C13,C14
FMT, 136, 39, RCOU, QHHHHHHHHHHHHHH, TimeUS,C1,C2,C3,C4,C5,C6,C7,C8,C9,C10,C11,C12,C13,C14
FMT, 137, 15, RSSI, Qf, TimeUS,RXRSSI
FMT, 139, 37, BARO, QffcfIff, TimeUS,Alt,Press,Temp,CRt,SMS,Offset,GndTemp
FMT, 140, 22, POWR, QffHB, TimeUS,Vcc,VServo,Flags,Safety
FMT, 143, 45, CMD, QHHHfffffff, TimeUS,CTot,CNum,CId,Prm1,Prm2,Prm3,Prm4,Lat,Lng,Alt
FMT, 144, 20, RAD, QBBBBBHH, TimeUS,RSSI,RemRSSI,TxBuf,Noise,RemNoise,RxErrors,Fixed
FMT, 146, 43, CAM, QIHLLeeeccC, TimeUS,GPSTime,GPSWeek,Lat,Lng,Alt,RelAlt,GPSAlt,Roll,Pitch,Yaw
FMT, 232, 43, TRIG, QIHLLeeeccC, TimeUS,GPSTime,GPSWeek,Lat,Lng,Alt,RelAlt,GPSAlt,Roll,Pitch,Yaw
FMT, 162, 30, ARSP, QffcffB, TimeUS,Airspeed,DiffPress,Temp,RawPress,Offset,U
FMT, 164, 45, CURR, QfffcHHHHHHHHHH, TimeUS,Volt,Curr,CurrTot,Temp,V1,V2,V3,V4,V5,V6,V7,V8,V9,V10
FMT, 165, 45, CUR2, QfffcHHHHHHHHHH, TimeUS,Volt,Curr,CurrTot,Temp,V1,V2,V3,V4,V5,V6,V7,V8,V9,V10
FMT, 163, 27, ATT, QccccCCCC, TimeUS,DesRoll,Roll,DesPitch,Pitch,DesYaw,Yaw,ErrRP,ErrYaw
FMT, 166, 34, MAG, QhhhhhhhhhBI, TimeUS,MagX,MagY,MagZ,OfsX,OfsY,OfsZ,MOfsX,MOfsY,MOfsZ,Health,S
FMT, 169, 14, MODE, QMBB, TimeUS,Mode,ModeNum,Rsn
FMT, 196, 17, RFND, QCBCB, TimeUS,Dist1,Orient1,Dist2,Orient2
FMT, 223, 33, DMS, IIIIIBBBBBBBBBB, TimeMS,N,Dp,RT,RS,Er,Fa,Fmn,Fmx,Pa,Pmn,Pmx,Sa,Smn,Smx
FMT, 240, 41, BCN, QBBfffffff, TimeUS,Health,Cnt,D0,D1,D2,D3,PosX,PosY,PosZ
FMT, 138, 53, IMU2, QffffffIIfBBHH, TimeUS,GyrX,GyrY,GyrZ,AccX,AccY,AccZ,EG,EA,T,GH,AH,GHz,AHz
FMT, 147, 53, IMU3, QffffffIIfBBHH, TimeUS,GyrX,GyrY,GyrZ,AccX,AccY,AccZ,EG,EA,T,GH,AH,GHz,AHz
FMT, 141, 45, AHR2, QccCfLLffff, TimeUS,Roll,Pitch,Yaw,Alt,Lat,Lng,Q1,Q2,Q3,Q4
FMT, 180, 31, POS, QLLfff, TimeUS,Lat,Lng,Alt,RelHomeAlt,RelOriginAlt
FMT, 142, 45, SIM, QccCfLLffff, TimeUS,Roll,Pitch,Yaw,Alt,Lat,Lng,Q1,Q2,Q3,Q4
FMT, 198, 51, NKF1, QccCfffffffccc, TimeUS,Roll,Pitch,Yaw,VN,VE,VD,dPD,PN,PE,PD,GX,GY,GZ
FMT, 199, 35, NKF2, QbccccchhhhhhB, TimeUS,AZbias,GSX,GSY,GSZ,VWN,VWE,MN,ME,MD,MX,MY,MZ,MI
FMT, 200, 33, NKF3, Qcccccchhhcc, TimeUS,IVN,IVE,IVD,IPN,IPE,IPD,IMX,IMY,IMZ,IYAW,IVT
FMT, 201, 35, NKF4, QcccccfbbHBHHb, TimeUS,SV,SP,SH,SM,SVT,errRP,OFN,OFE,FS,TS,SS,GPS,PI
FMT, 202, 40, NKF5, QBhhhcccCCfff, TimeUS,NI,FIX,FIY,AFI,HAGL,offset,RI,rng,Herr,eAng,eVel,ePos
FMT, 203, 51, NKF6, QccCfffffffccc, TimeUS,Roll,Pitch,Yaw,VN,VE,VD,dPD,PN,PE,PD,GX,GY,GZ
FMT, 204, 35, NKF7, QbccccchhhhhhB, TimeUS,AZbias,GSX,GSY,GSZ,VWN,VWE,MN,ME,MD,MX,MY,MZ,MI
FMT, 205, 33, NKF8, Qcccccchhhcc, TimeUS,IVN,IVE,IVD,IPN,IPE,IPD,IMX,IMY,IMZ,IYAW,IVT
FMT, 206, 35, NKF9, QcccccfbbHBHHb, TimeUS,SV,SP,SH,SM,SVT,errRP,OFN,OFE,FS,TS,SS,GPS,PI
FMT, 207, 36, NKF0, QBccCCcccccccc, TimeUS,ID,rng,innov,SIV,TR,BPN,BPE,BPD,OFH,OFL,OFN,OFE,OFD
FMT, 208, 27, NKQ1, Qffff, TimeUS,Q1,Q2,Q3,Q4
FMT, 209, 27, NKQ2, Qffff, TimeUS,Q1,Q2,Q3,Q4
FMT, 210, 51, XKF1, QccCfffffffccc, TimeUS,Roll,Pitch,Yaw,VN,VE,VD,dPD,PN,PE,PD,GX,GY,GZ
FMT, 211, 34, XKF2, QccccchhhhhhB, TimeUS,AX,AY,AZ,VWN,VWE,MN,ME,MD,MX,MY,MZ,MI
FMT, 212, 33, XKF3, Qcccccchhhcc, TimeUS,IVN,IVE,IVD,IPN,IPE,IPD,IMX,IMY,IMZ,IYAW,IVT
FMT, 213, 35, XKF4, QcccccfbbHBHHb, TimeUS,SV,SP,SH,SM,SVT,errRP,OFN,OFE,FS,TS,SS,GPS,PI
FMT, 214, 40, XKF5, QBhhhcccCCfff, TimeUS,NI,FIX,FIY,AFI,HAGL,offset,RI,rng,Herr,eAng,eVel,ePos
FMT, 215, 51, XKF6, QccCfffffffccc, TimeUS,Roll,Pitch,Yaw,VN,VE,VD,dPD,PN,PE,PD,GX,GY,GZ
FMT, 216, 34, XKF7, QccccchhhhhhB, TimeUS,AX,AY,AZ,VWN,VWE,MN,ME,MD,MX,MY,MZ,MI
FMT, 217, 33, XKF8, Qcccccchhhcc, TimeUS,IVN,IVE,IVD,IPN,IPE,IPD,IMX,IMY,IMZ,IYAW,IVT
FMT, 218, 35, XKF9, QcccccfbbHBHHb, TimeUS,SV,SP,SH,SM,SVT,errRP,OFN,OFE,FS,TS,SS,GPS,PI
FMT, 219, 36, XKF0, QBccCCcccccccc, TimeUS,ID,rng,innov,SIV,TR,BPN,BPE,BPD,OFH,OFL,OFN,OFE,OFD
FMT, 220, 27, XKQ1, Qffff, TimeUS,Q1,Q2,Q3,Q4
FMT, 221, 27, XKQ2, Qffff, TimeUS,Q1,Q2,Q3,Q4
FMT, 222, 35, XKFD, Qffffff, TimeUS,IX,IY,IZ,IVX,IVY,IVZ
FMT, 148, 34, TERR, QBLLHffHH, TimeUS,Status,Lat,Lng,Spacing,TerrH,CHeight,Pending,Loaded
FMT, 149, 18, UBX1, QBHBBH, TimeUS,Instance,noisePerMS,jamInd,aPower,agcCnt
FMT, 150, 16, UBX2, QBbBbB, TimeUS,Instance,ofsI,magI,ofsQ,magQ
FMT, 151, 18, UBY1, QBHBBH, TimeUS,Instance,noisePerMS,jamInd,aPower,agcCnt
FMT, 152, 16, UBY2, QBbBbB, TimeUS,Instance,ofsI,magI,ofsQ,magQ
FMT, 170, 42, GRAW, QIHBBddfBbB, TimeUS,WkMS,Week,numSV,sv,cpMes,prMes,doMes,mesQI,cno,lli
FMT, 171, 24, GRXH, QdHbBB, TimeUS,rcvTime,week,leapS,numMeas,recStat
FMT, 172, 41, GRXS, QddfBBBHBBBBB, TimeUS,prMes,cpMes,doMes,gnss,sv,freq,lock,cno,prD,cpD,doD,trk
FMT, 173, 63, SBFE, QIHBBdddfffff, TimeUS,TOW,WN,Mode,Err,Lat,Lng,Height,Undul,Vn,Ve,Vu,COG
FMT, 153, 19, ESC1, Qcccc, TimeUS,RPM,Volt,Curr,Temp
FMT, 154, 19, ESC2, Qcccc, TimeUS,RPM,Volt,Curr,Temp
FMT, 155, 19, ESC3, Qcccc, TimeUS,RPM,Volt,Curr,Temp
FMT, 156, 19, ESC4, Qcccc, TimeUS,RPM,Volt,Curr,Temp
FMT, 157, 19, ESC5, Qcccc, TimeUS,RPM,Volt,Curr,Temp
FMT, 158, 19, ESC6, Qcccc, TimeUS,RPM,Volt,Curr,Temp
FMT, 159, 19, ESC7, Qcccc, TimeUS,RPM,Volt,Curr,Temp
FMT, 160, 19, ESC8, Qcccc, TimeUS,RPM,Volt,Curr,Temp
FMT, 167, 34, MAG2, QhhhhhhhhhBI, TimeUS,MagX,MagY,MagZ,OfsX,OfsY,OfsZ,MOfsX,MOfsY,MOfsZ,Health,S
FMT, 168, 34, MAG3, QhhhhhhhhhBI, TimeUS,MagX,MagY,MagZ,OfsX,OfsY,OfsZ,MOfsX,MOfsY,MOfsZ,Health,S
FMT, 174, 31, ACC1, QQfff, TimeUS,SampleUS,AccX,AccY,AccZ
FMT, 175, 31, ACC2, QQfff, TimeUS,SampleUS,AccX,AccY,AccZ
FMT, 176, 31, ACC3, QQfff, TimeUS,SampleUS,AccX,AccY,AccZ
FMT, 177, 31, GYR1, QQfff, TimeUS,SampleUS,GyrX,GyrY,GyrZ
FMT, 178, 31, GYR2, QQfff, TimeUS,SampleUS,GyrX,GyrY,GyrZ
FMT, 179, 31, GYR3, QQfff, TimeUS,SampleUS,GyrX,GyrY,GyrZ
FMT, 181, 35, PIDR, Qffffff, TimeUS,Des,P,I,D,FF,AFF
FMT, 182, 35, PIDP, Qffffff, TimeUS,Des,P,I,D,FF,AFF
FMT, 183, 35, PIDY, Qffffff, TimeUS,Des,P,I,D,FF,AFF
FMT, 184, 35, PIDA, Qffffff, TimeUS,Des,P,I,D,FF,AFF
FMT, 185, 35, PIDS, Qffffff, TimeUS,Des,P,I,D,FF,AFF
FMT, 186, 35, PIDL, Qffffff, TimeUS,Des,P,I,D,FF,AFF
FMT, 161, 37, BAR2, QffcfIff, TimeUS,Alt,Press,Temp,CRt,SMS,Offset,GndTemp
FMT, 197, 37, BAR3, QffcfIff, TimeUS,Alt,Press,Temp,CRt,SMS,Offset,GndTemp
FMT, 187, 35, VIBE, QfffIII, TimeUS,VibeX,VibeY,VibeZ,Clip0,Clip1,Clip2
FMT, 188, 47, IMT, Qfffffffff, TimeUS,DelT,DelvT,DelaT,DelAX,DelAY,DelAZ,DelVX,DelVY,DelVZ
FMT, 189, 47, IMT2, Qfffffffff, TimeUS,DelT,DelvT,DelaT,DelAX,DelAY,DelAZ,DelVX,DelVY,DelVZ
FMT, 190, 47, IMT3, Qfffffffff, TimeUS,DelT,DelvT,DelaT,DelAX,DelAY,DelAZ,DelVX,DelVY,DelVZ
FMT, 191, 24, ORGN, QBLLe, TimeUS,Type,Lat,Lng,Alt
FMT, 192, 19, RPM, Qff, TimeUS,rpm1,rpm2
FMT, 233, 47, GMB1, Iffffffffff, TimeMS,dt,dax,day,daz,dvx,dvy,dvz,jx,jy,jz
FMT, 234, 44, GMB2, IBfffffffff, TimeMS,es,ex,ey,ez,rx,ry,rz,tx,ty,tz
FMT, 235, 13, GMB3, Ihhh, TimeMS,rl_torque_cmd,el_torque_cmd,az_torque_cmd
FMT, 236, 59, RATE, Qffffffffffff, TimeUS,RDes,R,ROut,PDes,P,POut,YDes,Y,YOut,ADes,A,AOut
FMT, 237, 23, RALY, QBBLLh, TimeUS,Tot,Seq,Lat,Lng,Alt
FMT, 238, 43, VISO, Qffffffff, TimeUS,dt,AngDX,AngDY,AngDZ,PosDX,PosDY,PosDZ,conf
FMT, 224, 23, SBPH, QIII, TimeUS,CrcError,LastInject,IARhyp
FMT, 229, 80, SBR1, QHHBZ, TimeUS,msg_type,sender_id,msg_len,d1
FMT, 230, 205, SBR2, QHZZZ, TimeUS,msg_type,d2,d3,d4
FMT, 25, 41, ATUN, QBBfffffff, TimeUS,Axis,TuneStep,Targ,Min,Max,RP,RD,SP,ddt
FMT, 26, 19, ATDE, Qff, TimeUS,Angle,Rate
FMT, 31, 22, PTUN, QBfHHH, TimeUS,Param,TunVal,CtrlIn,TunLo,TunHi
FMT, 12, 28, OF, QBffff, TimeUS,Qual,flowX,flowY,bodyX,bodyY
FMT, 5, 51, NTUN, Qffffffffff, TimeUS,DPosX,DPosY,PosX,PosY,DVelX,DVelY,VelX,VelY,DAccX,DAccY
FMT, 4, 51, CTUN, Qffffffeccfhh, TimeUS,ThI,ABst,ThO,ThH,DAlt,Alt,BAlt,DSAlt,SAlt,TAlt,DCRt,CRt
FMT, 6, 32, PM, QHHIhBHII, TimeUS,NLon,NLoop,MaxT,PMT,I2CErr,INSErr,LogDrop,Mem
FMT, 30, 27, MOTB, Qffff, TimeUS,LiftMax,BatVolt,BatRes,ThLimit
FMT, 13, 12, EV, QB, TimeUS,Id
FMT, 20, 14, D16, QBh, TimeUS,Id,Value
FMT, 21, 14, DU16, QBH, TimeUS,Id,Value
FMT, 22, 16, D32, QBi, TimeUS,Id,Value
FMT, 23, 16, DU32, QBI, TimeUS,Id,Value
FMT, 24, 16, DFLT, QBf, TimeUS,Id,Value
FMT, 19, 13, ERR, QBB, TimeUS,Subsys,ECode
FMT, 32, 19, HELI, Qff, TimeUS,DRRPM,ERRPM
FMT, 33, 29, PL, QBBffff, TimeUS,Heal,TAcq,pX,pY,vX,vY
FMT, 34, 36, GUID, QBffffff, TimeUS,Type,pX,pY,pZ,vX,vY,vZ
FMT, 35, 32, THRO, QBffffbbbb, TimeUS,Stage,Vel,VelZ,Acc,AccEfZ,Throw,AttOk,HgtOk,PosOk
FMT, 36, 56, PRX, QBfffffffffff, TimeUS,Health,D0,D45,D90,D135,D180,D225,D270,D315,DUp,CAn,CDis
MODE, 76561932, 100, 100, 2
FMT, 254, 47, NKT1, QIffffffff, TimeUS,Cnt,IMUMin,IMUMax,EKFMin,EKFMax,AngMin,AngMax,VelMin,VelM
FMT, 253, 31, CTRL, Qfffff, TimeUS,RMSRollP,RMSRollD,RMSPitchP,RMSPitchD,RMSYaw
MSG, 76688036, APM:Copter V3.5.7 (38483450)
MSG, 76688041, New mission
MSG, 76688052, Frame: QUAD
MODE, 76688056, Autonomous, 100, 2
MAG, 76695836, 403, 546, 302, 0, 0, 0, 0, 0, 0, 1, 76695828
RFND, 76695870, 0.2, 25, 0, 0
BARO, 76695908, 0.3419121, 993.2623, 36.03, 0.08302583, 76695, 0, 35
CTUN, 76695922, 0, 0, 0, 0.2173505, 0.09522957, 0.09522957, 0.34, 0, 0.19, 0, 0, 1
ATT, 76696029, 0, 0.8, 0, 0.46, 354.77, 354.79, 0, 1
RATE, 76696035, -3.614697, -0.09127271, -0.008155992, -2.0874, 0.03260342, -0.005264014, 0.01392391, 0.0287573, 9.724378E-05, -798.8293, -0.1648903, 0
NKF1, 76696042, 0.8, 0.46, 354.78, -0.009344305, -0.002823475, -0.01972418, 0, 0, 0, -0.09522957, 0, 0, 0
NKF2, 76696042, 0, 0, 0, 0, 0, 0, 0, 0, 0, 0, 0, 0, 0
NKF3, 76696042, 0, 0, 0, 0, 0, -0.02, 0, 0, 0, 0, 0
NKF4, 76696042, 0, 0, 0, 0, 0, 8.792281E-06, 0, 0, 0, 19, 229, 0, 0
NKF5, 76696042, 0, 0, 0, 0, 0.22, 0.13, 0, 0.19, 0.5, 4.02145E-05, 0.0008604957, 0.001791226
NKQ1, 76696042, 0.9989017, 0.002959518, 0.01080901, -0.0454952
AHR2, 76696088, 0.93, 0.44, 354.74, 0.34, 0, 0, 0.9989064, 0.008330323, 0.00352156, -0.04587075
MOTB, 76696095, 1, 1, 0, 1
RCIN, 76696100, 0, 0, 0, 0, 0, 0, 0, 0, 0, 0, 0, 0, 0, 0
RCOU, 76696105, 1101, 1101, 1101, 1101, 0, 0, 0, 0, 0, 0, 0, 0, 0, 0
VIBE, 76696115, 0.0189791, 0.02246996, 0.02960099, 0, 0, 0
CTRL, 76696121, 0.008539674, 0.0001727008, 0.004933171, 0.0002736025, 9.020798E-05
PRX, 76696153, 1, 0.62, 0, 3.6, 0, 3.6, 0, 3.6, 0, 0, 0, 0.62
IMU, 76696161, -0.001477971, 0.000677034, 0.0004925683, 0.1986761, -0.04290702, -9.797338, 0, 0, 37.9726, 1, 1, 999, 999
IMU, 76736114, 0.0007025271, -0.0002801482, 0.0008169935, 0.2136637, -0.04523851, -9.828364, 0, 0, 37.97276, 1, 1, 999, 999
RFND, 76745386, 0.2, 25, 0, 0
IMU, 76775519, 0.0002518037, 0.002570957, -0.0001463171, 0.2248169, -0.04930978, -9.820398, 0, 0, 37.97267, 1, 1, 999, 999
MAG, 76795370, 398, 544, 305, 0, 0, 0, 0, 0, 0, 1, 76795361
RFND, 76795405, 0.2, 25, 0, 0
BARO, 76795442, 0.3108292, 993.2658, 36.03, -0.3260966, 76795, 0, 35
CTUN, 76795454, 0, 0, 0, 0.2173505, 0.09557468, 0.09557468, 0.31, 0, 0.19, 0, 0, 1
ATT, 76795654, 0, 0.8, 0, 0.46, 354.77, 354.79, 0, 1
RATE, 76795662, -3.611382, -0.01707204, -0.008273023, -2.087442, -0.08849611, -0.00407854, 0.01457513, 0.008398034, 1.192837E-05, -808.7662, -1.852608, 0
NKF1, 76795671, 0.8, 0.46, 354.78, -0.009218855, -0.00285094, -0.01996954, 0, 0, 0, -0.09557468, 0, 0, 0
NKF2, 76795671, 0, 0, 0, 0, 0, 0, 0, 0, 0, 0, 0, 0, 0
NKF3, 76795671, 0, 0, 0, 0, 0, -0.02, 0, 0, 0, 0, 0
NKF4, 76795671, 0, 0, 0, 0, 0, 5.893839E-06, 0, 0, 0, 19, 229, 0, 0
NKF5, 76795671, 0, 0, 0, 0, 0.22, 0.13, 0, 0.19, 0.5, 3.739629E-05, 0.0008297387, 0.001551375
NKQ1, 76795671, 0.9989027, 0.002953118, 0.01080885, -0.04547498
AHR2, 76795717, 0.93, 0.44, 354.74, 0.31, 0, 0, 0.9989073, 0.008338613, 0.003515848, -0.04585081
MOTB, 76795724, 1, 1, 0, 1
RCIN, 76795729, 0, 0, 0, 0, 0, 0, 0, 0, 0, 0, 0, 0, 0, 0
RCOU, 76795735, 1101, 1101, 1101, 1101, 0, 0, 0, 0, 0, 0, 0, 0, 0, 0
VIBE, 76795744, 0.0199356, 0.02114245, 0.0345108, 0, 0, 0
CTRL, 76795751, 0.00852809, 0.0001739262, 0.004935651, 0.0002871611, 7.597408E-05
PRX, 76795782, 1, 0.62, 0, 3.6, 0, 3.6, 0, 3.6, 0, 0, 0, 0.62
IMU, 76815492, 0.0003148955, -0.0004940524, -0.0001991945, 0.196836, -0.04111254, -9.77754, 0, 0, 37.97264, 1, 1, 999, 999
RFND, 76845404, 0.2, 25, 0, 0
IMU, 76855683, -0.00100935, 0.0007811643, 0.0009537877, 0.2117717, -0.05959282, -9.773802, 0, 0, 37.97268, 1, 1, 999, 999
MAG, 76895423, 401, 545, 306, 0, 0, 0, 0, 0, 0, 1, 76895414
RFND, 76895458, 0.2, 25, 0, 0
BARO, 76895496, 0.3249578, 993.2644, 36.03, -0.5270785, 76895, 0, 35
CTUN, 76895509, 0, 0, 0, 0.2173505, 0.09517233, 0.09517233, 0.32, 0, 0.19, 0, 0, 1
DU32, 76895548, 7, 50389208
ATT, 76895788, 0, 0.8, 0, 0.46, 354.77, 354.79, 0, 1
RATE, 76895795, -3.605433, -0.06740739, -0.008044004, -2.08062, -0.02535322, -0.005015206, 0.01408905, -0.05607289, 6.246608E-05, -723.3664, -1.133823, 0
NKF1, 76895803, 0.8, 0.46, 354.78, -0.01003181, -0.003270632, -0.0178609, 0, 0, 0, -0.09517233, 0, 0, 0
NKF2, 76895803, 0, 0, 0, 0, 0, 0, 0, 0, 0, 0, 0, 0, 0
NKF3, 76895803, 0, 0, 0, 0, 0, -0.02, 0, 0, 0, 0, 0
NKF4, 76895803, 0, 0, 0, 0, 0, 3.837953E-06, 0, 0, 0, 19, 229, 0, 0
NKF5, 76895803, 0, 0, 0, 0, 0.22, 0.13, 0, 0.19, 0.5, 3.70437E-05, 0.000820525, 0.001616093
NKQ1, 76895803, 0.9989028, 0.002942558, 0.01079469, -0.04547677
AHR2, 76895851, 0.93, 0.44, 354.74, 0.32, 0, 0, 0.9989073, 0.008341185, 0.003495191, -0.04585281
MOTB, 76895859, 1, 1, 0, 1
RCIN, 76895864, 0, 0, 0, 0, 0, 0, 0, 0, 0, 0, 0, 0, 0, 0
RCOU, 76895870, 1101, 1101, 1101, 1101, 0, 0, 0, 0, 0, 0, 0, 0, 0, 0
VIBE, 76895879, 0.02197243, 0.02056399, 0.03353403, 0, 0, 0
CTRL, 76895886, 0.008518583, 0.0001862904, 0.004917392, 0.0002587042, 6.436077E-05
PRX, 76895918, 1, 0.62, 0, 3.6, 0, 3.6, 0, 3.6, 0, 0, 0, 0.62
IMU, 76895925, -0.001060892, -0.0003339828, -0.0009880422, 0.2113012, -0.0544777, -9.787308, 0, 0, 37.97271, 1, 1, 999, 999
IMU, 76935359, -0.00016896, 0.002436738, 0.0008745693, 0.2107398, -0.04472082, -9.803185, 0, 0, 37.97258, 1, 1, 999, 999
RFND, 76945351, 0.2, 25, 0, 0
IMU, 76975332, -0.0006635742, 0.00104191, -0.0004015747, 0.2201499, -0.0552374, -9.804952, 0, 0, 37.97232, 1, 1, 999, 999
MAG, 76995238, 404, 549, 304, 0, 0, 0, 0, 0, 0, 1, 76995230
RFND, 76995272, 0.2, 25, 0, 0
BARO, 76995308, 0.2769205, 993.2695, 36.03, -0.4294347, 76995, 0, 35
CTUN, 76995320, 0, 0, 0, 0.2173505, 0.09485358, 0.09485358, 0.27, 0, 0.19, 0, 0, 1
ATT, 76995418, 0, 0.8, 0, 0.46, 354.78, 354.8, 0, 1
RATE, 76995424, -3.602376, 0.0147089, -0.00870761, -2.082101, -0.001629494, -0.004630718, 0.01547605, 0.07765725, -1.999024E-05, -688.5001, -0.2285004, 0
NKF1, 76995431, 0.8, 0.46, 354.79, -0.01027677, -0.003282028, -0.017, 0, 0, 0, -0.09485358, 0, 0, 0
NKF2, 76995431, 0, 0, 0, 0, 0, 0, 0, 0, 0, 0, 0, 0, 0
NKF3, 76995431, 0, 0, 0, 0, 0, -0.02, 0, 0, 0, 0, 0
NKF4, 76995431, 0, 0, 0, 0, 0, 2.601294E-06, 0, 0, 0, 19, 229, 0, 0
NKF5, 76995431, 0, 0, 0, 0, 0.22, 0.13, 0, 0.19, 0.5, 3.705182E-05, 0.001081143, 0.002534623
NKQ1, 76995431, 0.9989038, 0.002933898, 0.01080125, -0.04545406
AHR2, 76995474, 0.93, 0.44, 354.74, 0.27, 0, 0, 0.9989083, 0.008345253, 0.003495391, -0.04583045
MOTB, 76995482, 1, 1, 0, 1
RCIN, 76995487, 0, 0, 0, 0, 0, 0, 0, 0, 0, 0, 0, 0, 0, 0
RCOU, 76995492, 1101, 1101, 1101, 1101, 0, 0, 0, 0, 0, 0, 0, 0, 0, 0
VIBE, 76995501, 0.01944683, 0.02089339, 0.03605321, 0, 0, 0
CTRL, 76995508, 0.008493611, 0.0001883342, 0.00492556, 0.0002876581, 6.010837E-05
PRX, 76995625, 2, 0.61, 0, 3.6, 0, 3.6, 0, 3.6, 0, 0, 0, 0.61
IMU, 77015400, 0.0006713504, -3.805469E-05, 4.69898E-05, 0.2119512, -0.04796409, -9.791794, 0, 0, 37.97196, 1, 1, 999, 999
RFND, 77045327, 0.2, 25, 0, 0
IMU, 77055500, -0.000892419, -7.470667E-05, 0.0003209588, 0.2100376, -0.05732388, -9.792877, 0, 0, 37.97197, 1, 1, 999, 999
MAG, 77095458, 398, 542, 303, 0, 0, 0, 0, 0, 0, 1, 77095450
RFND, 77095494, 0.2, 25, 0, 0
BARO, 77095531, 0.3277835, 993.264, 36.03, -0.2341049, 77095, 0, 35
CTUN, 77095544, 0, 0, 0, 0.2173505, 0.09444231, 0.09444231, 0.32, 0, 0.19, 0, 0, 1
ATT, 77095787, 0, 0.8, 0, 0.46, 354.77, 354.79, 0, 1
RATE, 77095794, -3.603331, 0.04515498, -0.008735215, -2.084256, -0.01345216, -0.004878299, 0.01460968, -0.03969854, 8.555451E-05, -657.9365, -0.3828049, 0
NKF1, 77095801, 0.8, 0.46, 354.78, -0.01057061, -0.003998153, -0.01624535, 0, 0, 0, -0.09444231, 0, 0, 0
NKF2, 77095801, 0, 0, 0, 0, 0, 0, 0, 0, 0, 0, 0, 0, 0
NKF3, 77095801, 0, 0, 0, 0, 0, -0.02, 0, 0, 0, 0, 0
NKF4, 77095801, 0, 0, 0, 0, 0, 1.770021E-06, 0, 0, 0, 19, 229, 0, 0
NKF5, 77095801, 0, 0, 0, 0, 0.22, 0.13, 0, 0.19, 0.5, 3.732173E-05, 0.0007798771, 0.001440726
NKQ1, 77095801, 0.9989026, 0.002937295, 0.0108017, -0.04547875
AHR2, 77095842, 0.93, 0.44, 354.74, 0.32, 0, 0, 0.998907, 0.0083605, 0.003489287, -0.04585559
MOTB, 77095848, 1, 1, 0, 1
RCIN, 77095853, 0, 0, 0, 0, 0, 0, 0, 0, 0, 0, 0, 0, 0, 0
RCOU, 77095859, 1101, 1101, 1101, 1101, 0, 0, 0, 0, 0, 0, 0, 0, 0, 0
VIBE, 77095868, 0.01891544, 0.02158132, 0.03390296, 0, 0, 0
CTRL, 77095876, 0.008501137, 0.000175911, 0.00491572, 0.0002509185, 6.103681E-05
PRX, 77095907, 2, 0.61, 0, 3.6, 0, 3.6, 0, 3.6, 0, 0, 0, 0.61
IMU, 77095914, 0.0009041007, -0.0001258852, -0.0007022888, 0.2066919, -0.05273906, -9.79493, 0, 0, 37.97197, 1, 1, 999, 999
IMU, 77135468, 2.761065E-05, -8.118818E-05, 0.0002436062, 0.2089885, -0.0604704, -9.807362, 0, 0, 37.97197, 1, 1, 999, 999
RFND, 77145518, 0.2, 25, 0, 0
IMU, 77175483, 0.0007557378, 0.0002501439, 0.0007995443, 0.2174698, -0.06069702, -9.794283, 0, 0, 37.97197, 1, 1, 999, 999
MAG, 77195938, 401, 551, 303, 0, 0, 0, 0, 0, 0, 1, 77195930
RFND, 77195975, 0.2, 25, 0, 0
BARO, 77196014, 0.3447378, 993.262, 36.03, -0.08827434, 77196, 0, 35
CTUN, 77196027, 0, 0, 0, 0.2173505, 0.09392366, 0.09392366, 0.34, 0, 0.19, 0, 0, 1
ATT, 77196132, 0, 0.8, 0, 0.46, 354.77, 354.8, 0, 1
RATE, 77196137, -3.614913, 0.07937159, -0.00885987, -2.087027, -0.06110172, -0.004647491, 0.01446177, -0.01015409, 1.332014E-05, -645.1279, 1.12114, 0
NKF1, 77196145, 0.8, 0.46, 354.79, -0.01097286, -0.005195884, -0.01592908, 0, 0, 0, -0.09392365, 0, 0, 0
NKF2, 77196145, 0, 0, 0, 0, 0, 0, 0, 0, 0, 0, 0, 0, 0
NKF3, 77196145, 0, 0, 0, 0, 0, -0.02, 0, 0, 0, 0, 0
NKF4, 77196145, 0, 0, 0, 0, 0, 1.221184E-06, 0, 0, 0, 19, 229, 0, 0
NKF5, 77196145, 0, 0, 0, 0, 0.22, 0.13, 0, 0.19, 0.5, 3.739812E-05, 0.0009178391, 0.002045581
NKQ1, 77196145, 0.9989029, 0.002959966, 0.01080715, -0.04546908
AHR2, 77196191, 0.94, 0.44, 354.74, 0.34, 0, 0, 0.9989071, 0.008397039, 0.003489357, -0.04584655
MOTB, 77196198, 1, 1, 0, 1
RCIN, 77196202, 0, 0, 0, 0, 0, 0, 0, 0, 0, 0, 0, 0, 0, 0
RCOU, 77196208, 1101, 1101, 1101, 1101, 0, 0, 0, 0, 0, 0, 0, 0, 0, 0
VIBE, 77196217, 0.02015535, 0.02020871, 0.03334055, 0, 0, 0
CTRL, 77196224, 0.008521063, 0.0001815648, 0.004928556, 0.0002465603, 6.125005E-05
PRX, 77196255, 1, 0.61, 0, 3.6, 0, 3.6, 0, 3.6, 0, 0, 0, 0.61
IMU, 77215771, 0.000314648, 6.355841E-05, -0.00046038, 0.218582, -0.04756901, -9.801888, 0, 0, 37.97233, 1, 1, 999, 999
RFND, 77245428, 0.2, 25, 0, 0
IMU, 77256154, -0.000471092, 0.001430187, 0.0003723354, 0.1972709, -0.05491844, -9.795254, 0, 0, 37.97279, 1, 1, 999, 999
MAG, 77295433, 399, 543, 309, 0, 0, 0, 0, 0, 0, 1, 77295424
RFND, 77295468, 0.2, 25, 0, 0
BARO, 77295507, 0.3899493, 993.2573, 36.03, 0.06170689, 77295, 0, 35
CTUN, 77295519, 0, 0, 0, 0.2173505, 0.09360974, 0.09360974, 0.38, 0, 0.19, 0, 0, 1
ATT, 77295725, 0, 0.8, 0, 0.46, 354.78, 354.8, 0, 1
RATE, 77295732, -3.609689, 0.03609382, -0.008576537, -2.08847, -0.07261632, -0.004562145, 0.01268872, -0.003838, -7.291955E-06, -628.2415, 0.07867813, 0
NKF1, 77295740, 0.8, 0.46, 354.79, -0.01166174, -0.005694236, -0.01551214, 0, 0, 0, -0.09360974, 0, 0, 0
NKF2, 77295740, 0, 0, 0, 0, 0, 0, 0, 0, 0, 0, 0, 0, 0
NKF3, 77295740, 0, 0, 0, 0, 0, -0.02, 0, 0, 0, 0, 0
NKF4, 77295740, 0, 0, 0, 0, 0, 8.599289E-07, 0, 0, 0, 19, 229, 0, 0
NKF5, 77295740, 0, 0, 0, 0, 0.22, 0.13, 0, 0.19, 0.5, 3.74769E-05, 0.0007632765, 0.001401891
NKQ1, 77295740, 0.9989038, 0.002949199, 0.01081038, -0.04545235
AHR2, 77295785, 0.94, 0.44, 354.74, 0.38, 0, 0, 0.9989079, 0.008401515, 0.003488048, -0.04583022
MOTB, 77295793, 1, 1, 0, 1
RCIN, 77295798, 0, 0, 0, 0, 0, 0, 0, 0, 0, 0, 0, 0, 0, 0
RCOU, 77295804, 1101, 1101, 1101, 1101, 0, 0, 0, 0, 0, 0, 0, 0, 0, 0
VIBE, 77295813, 0.01922675, 0.02090846, 0.03050742, 0, 0, 0
CTRL, 77295819, 0.008511808, 0.0001774864, 0.004927208, 0.0002325142, 5.243148E-05
PRX, 77295850, 1, 0.61, 0, 3.6, 0, 3.6, 0, 3.6, 0, 0, 0, 0.61
IMU, 77295857, 0.0007462094, -0.001158252, -7.642445E-05, 0.2111756, -0.04977827, -9.799469, 0, 0, 37.97318, 1, 1, 999, 999
IMU, 77335690, -0.0009963784, 0.001017297, 0.001199508, 0.2148502, -0.04566596, -9.802908, 0, 0, 37.97367, 1, 1, 999, 999
RFND, 77345432, 0.2, 25, 0, 0
IMU, 77375496, -0.0004821868, -0.001647039, 0.000409585, 0.199985, -0.05935088, -9.805844, 0, 0, 37.97401, 1, 1, 999, 999
MAG, 77395844, 402, 544, 301, 0, 0, 0, 0, 0, 0, 1, 77395835
RFND, 77395878, 0.2, 25, 0, 0
BARO, 77395915, 0.3108292, 993.2658, 36.03, 0.1866767, 77395, 0, 35
CTUN, 77395928, 0, 0, 0, 0.2173505, 0.09288183, 0.09288183, 0.31, 0, 0.19, 0, 0, 1
ATT, 77396035, 0, 0.79, 0, 0.46, 354.78, 354.8, 0, 1
RATE, 77396041, -3.595385, 0.0039464, -0.008522846, -2.075135, -0.03039377, -0.004825141, 0.01509948, 0.04819781, -8.768985E-06, -612.3594, -0.01564026, 0
NKF1, 77396049, 0.79, 0.46, 354.79, -0.01227659, -0.006311821, -0.01511998, 0, 0, 0, -0.09288183, 0, 0, 0
NKF2, 77396049, 0, 0, 0, 0, 0, 0, 0, 0, 0, 0, 0, 0, 0
NKF3, 77396049, 0, 0, 0, -0.01, 0, -0.02, 0, 0, 0, 0, 0
NKF4, 77396049, 0, 0, 0, 0, 0, 6.333049E-07, 0, 0, 0, 19, 229, 0, 0
NKF5, 77396049, 0, 0, 0, 0, 0.22, 0.13, 0, 0.19, 0.5, 3.728614E-05, 0.0007661736, 0.001566094
NKQ1, 77396049, 0.9989046, 0.00292024, 0.01078773, -0.04543822
AHR2, 77396095, 0.94, 0.44, 354.75, 0.31, 0, 0, 0.9989088, 0.008385372, 0.003460567, -0.0458163
MOTB, 77396102, 1, 1, 0, 1
RCIN, 77396106, 0, 0, 0, 0, 0, 0, 0, 0, 0, 0, 0, 0, 0, 0
RCOU, 77396112, 1101, 1101, 1101, 1101, 0, 0, 0, 0, 0, 0, 0, 0, 0, 0
VIBE, 77396120, 0.01822167, 0.02044326, 0.0340961, 0, 0, 0
CTRL, 77396127, 0.00848458, 0.0001728035, 0.00490697, 0.0002823662, 4.351237E-05
PRX, 77396158, 1, 0.61, 0, 3.6, 0, 3.6, 0, 3.6, 0, 0, 0, 0.61
IMU, 77415487, -9.292703E-05, 0.001813343, 0.001434633, 0.2067811, -0.05695224, -9.798126, 0, 0, 37.97438, 1, 1, 999, 999
RFND, 77445409, 0.2, 25, 0, 0
IMU, 77455474, -0.0003970936, 0.001622082, 0.001094574, 0.2113322, -0.05927143, -9.824389, 0, 0, 37.97477, 1, 1, 999, 999
MAG, 77495646, 403, 546, 303, 0, 0, 0, 0, 0, 0, 1, 77495638
RFND, 77495681, 0.2, 25, 0, 0
BARO, 77495720, 0.372995, 993.259, 36.03, 0.1545315, 77495, 0, 35
CTUN, 77495732, 0, 0, 0, 0.2173505, 0.09262545, 0.09262545, 0.37, 0, 0.19, 0, 0, 1
ATT, 77495841, 0, 0.79, 0, 0.47, 354.78, 354.8, 0, 1
RATE, 77495847, -3.590301, -0.02649514, -0.008137732, -2.116002, 0.05833643, -0.005008206, 0.01415283, 0.03027085, -6.092377E-05, -621.8848, 0.5368233, 0
NKF1, 77495855, 0.79, 0.47, 354.79, -0.01250746, -0.007508469, -0.01535518, 0, 0, 0, -0.09262545, 0, 0, 0
NKF2, 77495855, 0, 0, 0, 0, 0, 0, 0, 0, 0, 0, 0, 0, 0
NKF3, 77495855, 0, 0, 0, -0.01, 0, -0.02, 0, 0, 0, 0, 0
NKF4, 77495855, 0, 0, 0, 0, 0, 4.836375E-07, 0, 0, 0, 19, 229, 0, 0
NKF5, 77495855, 0, 0, 0, 0, 0.22, 0.13, 0, 0.19, 0.5, 3.697356E-05, 0.001079448, 0.002601916
NKQ1, 77495855, 0.9989058, 0.002912718, 0.0108664, -0.04539684
AHR2, 77495899, 0.94, 0.44, 354.75, 0.37, 0, 0, 0.9989103, 0.008388623, 0.003534297, -0.04577563
MOTB, 77495906, 1, 1, 0, 1
RCIN, 77495910, 0, 0, 0, 0, 0, 0, 0, 0, 0, 0, 0, 0, 0, 0
RCOU, 77495916, 1101, 1101, 1101, 1101, 0, 0, 0, 0, 0, 0, 0, 0, 0, 0
VIBE, 77495925, 0.01676618, 0.0203315, 0.03084642, 0, 0, 0
CTRL, 77495932, 0.008474737, 0.0001549318, 0.004980638, 0.0002682174, 6.010223E-05
PRX, 77495963, 2, 0.61, 0, 3.6, 0, 3.6, 0, 3.6, 0, 0, 0, 0.61
IMU, 77495970, -0.0003462114, 0.001127276, 0.0005188914, 0.2146833, -0.05170534, -9.804007, 0, 0, 37.97509, 1, 1, 999, 999
IMU, 77535528, 0.0002181799, 0.001015831, -0.0004532682, 0.2031132, -0.04759602, -9.79309, 0, 0, 37.97519, 1, 1, 999, 999
RFND, 77545338, 0.2, 25, 0, 0
IMU, 77575644, -0.001854685, -2.744894E-05, 0.0002063978, 0.2117908, -0.06033443, -9.801029, 0, 0, 37.97511, 1, 1, 999, 999
MAG, 77595410, 400, 548, 304, 0, 0, 0, 0, 0, 0, 1, 77595401
RFND, 77595444, 0.2, 25, 0, 0
BARO, 77595482, 0.4182065, 993.2539, 36.03, 0.04741778, 77595, 0, 35
CTUN, 77595496, 0, 0, 0, 0.2173505, 0.09196173, 0.09196173, 0.41, 0, 0.19, 0, 0, 1
ATT, 77595706, 0, 0.79, 0, 0.47, 354.78, 354.8, 0, 1
RATE, 77595713, -3.576303, -0.0740139, -0.00827884, -2.126556, 0.04641494, -0.00505014, 0.01495017, -0.04744237, 2.098581E-05, -583.0317, -2.062988, 0
NKF1, 77595721, 0.79, 0.47, 354.79, -0.01282634, -0.008275841, -0.01439585, 0, 0, 0, -0.09196173, 0, 0, 0
NKF2, 77595721, 0, 0, 0, 0, 0, 0, 0, 0, 0, 0, 0, 0, 0
NKF3, 77595721, 0, 0, 0, -0.01, 0, -0.02, 0, 0, 0, 0, 0
NKF4, 77595721, 0, 0, 0, 0, 0, 4.022341E-07, 0, 0, 0, 19, 229, 0, 0
NKF5, 77595721, 0, 0, 0, 0, 0.22, 0.13, 0, 0.19, 0.5, 3.687742E-05, 0.0006726495, 0.001266958
NKQ1, 77595721, 0.9989057, 0.002887908, 0.01088607, -0.04539452
AHR2, 77595765, 0.94, 0.45, 354.75, 0.41, 0, 0, 0.9989104, 0.008376022, 0.003548748, -0.04577369
MOTB, 77595773, 1, 1, 0, 1
RCIN, 77595778, 0, 0, 0, 0, 0, 0, 0, 0, 0, 0, 0, 0, 0, 0
RCOU, 77595783, 1101, 1101, 1101, 1101, 0, 0, 0, 0, 0, 0, 0, 0, 0, 0
VIBE, 77595793, 0.01973172, 0.01717317, 0.03419043, 0, 0, 0
CTRL, 77595800, 0.0084438, 0.0001765157, 0.005004528, 0.0002627526, 5.634746E-05
PRX, 77595831, 2, 0.61, 0, 3.6, 0, 3.6, 0, 3.6, 0, 0, 0, 0.61
IMU, 77615463, -0.0008538579, 0.0001595625, 0.001201603, 0.2144149, -0.05741502, -9.795314, 0, 0, 37.9747, 1, 1, 999, 999
RFND, 77645635, 0.2, 25, 0, 0
IMU, 77655514, 0.0001103822, -0.0008806671, 0.0005352062, 0.2067785, -0.04774609, -9.791279, 0, 0, 37.97446, 1, 1, 999, 999
MAG, 77695429, 398, 542, 304, 0, 0, 0, 0, 0, 0, 1, 77695421
RFND, 77695460, 0.2, 25, 0, 0
BARO, 77695500, 0.3871236, 993.2576, 36.03, 0.08411872, 77695, 0, 35
CTUN, 77695513, 0, 0, 0, 0.2173505, 0.09150233, 0.09150233, 0.38, 0, 0.19, 0, 0, 1
ATT, 77695716, 0, 0.79, 0, 0.47, 354.79, 354.81, 0, 1
RATE, 77695724, -3.563778, -0.01407142, -0.008418465, -2.130796, 0.008300512, -0.004813062, 0.01521534, 0.001854418, -1.002096E-05, -526.6533, 0.4813194, 0
NKF1, 77695732, 0.79, 0.47, 354.8, -0.01376017, -0.00895524, -0.01300378, 0, 0, 0, -0.09150233, 0, 0, 0
NKF2, 77695732, 0, 0, 0, 0, 0, 0, 0, 0, 0, 0, 0, 0, 0
NKF3, 77695732, 0, 0, 0, -0.01, 0, -0.02, 0, 0, 0, 0, 0
NKF4, 77695732, 0, 0, 0, 0, 0, 3.554034E-07, 0, 0, 0, 19, 229, 0, 0
NKF5, 77695732, 0, 0, 0, 0, 0.22, 0.13, 0, 0.19, 0.5, 3.672514E-05, 0.000857738, 0.001969385
NKQ1, 77695732, 0.9989068, 0.002863853, 0.01089727, -0.04536969
AHR2, 77695778, 0.93, 0.45, 354.75, 0.38, 0, 0, 0.9989116, 0.008366013, 0.003554741, -0.04574922
MOTB, 77695786, 1, 1, 0, 1
RCIN, 77695790, 0, 0, 0, 0, 0, 0, 0, 0, 0, 0, 0, 0, 0, 0
RCOU, 77695796, 1101, 1101, 1101, 1101, 0, 0, 0, 0, 0, 0, 0, 0, 0, 0
VIBE, 77695805, 0.02150549, 0.02025144, 0.03162419, 0, 0, 0
CTRL, 77695812, 0.00841192, 0.0001612785, 0.00502076, 0.0002660163, 4.750493E-05
PRX, 77695843, 1, 0.61, 0, 3.6, 0, 3.6, 0, 3.6, 0, 0, 0, 0.61
IMU, 77695850, -0.000129204, 0.000254152, 2.291753E-05, 0.2011232, -0.05997721, -9.80372, 0, 0, 37.97401, 1, 1, 999, 999
IMU, 77735516, 0.0008964525, 0.0018268, 0.0006784858, 0.206585, -0.05026713, -9.830065, 0, 0, 37.97362, 1, 1, 999, 999
RFND, 77745414, 0.2, 25, 0, 0
IMU, 77775635, 0.0002428172, 0.001597438, 0.0009508182, 0.2033364, -0.05154077, -9.79215, 0, 0, 37.97373, 1, 1, 999, 999
MAG, 77795387, 399, 550, 306, 0, 0, 0, 0, 0, 0, 1, 77795379
RFND, 77795417, 0.2, 25, 0, 0
BARO, 77795457, 0.372995, 993.259, 36.03, 0.17309, 77795, 0, 35
CTUN, 77795470, 0, 0, 0, 0.2173505, 0.09088196, 0.09088196, 0.37, 0, 0.19, 0, 0, 1
ATT, 77795673, 0, 0.79, 0, 0.48, 354.79, 354.81, 0, 1
RATE, 77795681, -3.575724, 0.03219423, -0.008707411, -2.168127, 0.02400515, -0.005163459, 0.01390364, 0.02027954, -7.009706E-05, -528.8257, 0.706768, 0
NKF1, 77795690, 0.79, 0.48, 354.8, -0.01484417, -0.009395489, -0.01305742, 0, 0, 0, -0.09088196, 0, 0, 0
NKF2, 77795690, 0, 0, 0, 0, 0, 0, 0, 0, 0, 0, 0, 0, 0
NKF3, 77795690, 0, 0, 0, -0.01, 0, -0.02, 0, 0, 0, 0, 0
NKF4, 77795690, 0, 0, 0, 0, 0, 3.436241E-07, 0, 0, 0, 19, 229, 0, 0
NKF5, 77795690, 0, 0, 0, 0, 0.22, 0.13, 0, 0.19, 0.5, 3.66214E-05, 0.0006289871, 0.001161513
NKQ1, 77795690, 0.9989072, 0.002889532, 0.01096905, -0.04533959
AHR2, 77795734, 0.94, 0.45, 354.76, 0.37, 0, 0, 0.9989124, 0.008404077, 0.003620143, -0.04572001
MOTB, 77795742, 1, 1, 0, 1
RCIN, 77795746, 0, 0, 0, 0, 0, 0, 0, 0, 0, 0, 0, 0, 0, 0
RCOU, 77795752, 1101, 1101, 1101, 1101, 0, 0, 0, 0, 0, 0, 0, 0, 0, 0
VIBE, 77795760, 0.02048313, 0.02103237, 0.03248574, 0, 0, 0
CTRL, 77795768, 0.008430335, 0.0001586511, 0.005100168, 0.0002548635, 4.559998E-05
PRX, 77795800, 1, 0.61, 0, 3.6, 0, 3.6, 0, 3.6, 0, 0, 0, 0.61
IMU, 77815629, -0.0004150895, 0.001073221, -0.000204405, 0.2115075, -0.04351025, -9.796944, 0, 0, 37.97371, 1, 1, 999, 999
RFND, 77845463, 0.2, 25, 0, 0
IMU, 77855677, 0.0004085874, 0.001470726, 9.281941E-06, 0.2122276, -0.05574974, -9.796577, 0, 0, 37.97366, 1, 1, 999, 999
MAG, 77895388, 400, 546, 307, 0, 0, 0, 0, 0, 0, 1, 77895380
RFND, 77895419, 0.2, 25, 0, 0
BARO, 77895459, 0.2034518, 993.2776, 36.03, 0.04150276, 77895, 0, 35
CTUN, 77895472, 0, 0, 0, 0.2173505, 0.09029159, 0.09029159, 0.2, 0, 0.19, 0, 0, 1
DU32, 77895512, 7, 50389208
ATT, 77895755, 0, 0.79, 0, 0.48, 354.79, 354.81, 0, 1
RATE, 77895761, -3.569309, -0.05401897, -0.008028634, -2.196787, -0.0105022, -0.005038285, 0.01500657, -0.03766285, 1.9286E-05, -521.6705, 2.337742, 0
NKF1, 77895770, 0.79, 0.48, 354.8, -0.01544101, -0.009693597, -0.01288075, 0, 0, 0, -0.09029158, 0, 0, 0
NKF2, 77895770, 0, 0, 0, 0, 0, 0, 0, 0, 0, 0, 0, 0, 0
NKF3, 77895770, 0, 0, 0, -0.01, 0, -0.02, 0, 0, 0, 0, 0
NKF4, 77895770, 0, 0, 0, 0, 0, 3.508926E-07, 0, 0, 0, 19, 229, 0, 0
NKF5, 77895770, 0, 0, 0, 0, 0.21, 0.13, 0, 0.19, 0.5, 3.63255E-05, 0.0006800301, 0.001444879
NKQ1, 77895770, 0.9989068, 0.002880005, 0.01102327, -0.04533765
AHR2, 77895817, 0.94, 0.46, 354.76, 0.2, 0, 0, 0.9989123, 0.008405178, 0.003666844, -0.04571865
MOTB, 77895825, 1, 1, 0, 1
RCIN, 77895830, 0, 0, 0, 0, 0, 0, 0, 0, 0, 0, 0, 0, 0, 0
RCOU, 77895836, 1101, 1101, 1101, 1101, 0, 0, 0, 0, 0, 0, 0, 0, 0, 0
VIBE, 77895845, 0.0197061, 0.01942954, 0.0359034, 0, 0, 0
CTRL, 77895851, 0.008428503, 0.0001493323, 0.005166109, 0.0002471163, 4.335459E-05
PRX, 77895883, 1, 0.61, 0, 3.6, 0, 3.6, 0, 3.6, 0, 0, 0, 0.61
IMU, 77895890, -0.000826522, -7.410526E-05, -0.0006667801, 0.2106998, -0.04785401, -9.822161, 0, 0, 37.97379, 1, 1, 999, 999
IMU, 77935636, -0.001314588, 0.001533096, 0.000446857, 0.1999888, -0.0590338, -9.798609, 0, 0, 37.97382, 1, 1, 999, 999
RFND, 77945387, 0.2, 25, 0, 0
IMU, 77975459, -0.001426962, -0.0002404243, -3.894143E-05, 0.2091865, -0.04691796, -9.822728, 0, 0, 37.97367, 1, 1, 999, 999
MAG, 77995449, 399, 545, 301, 0, 0, 0, 0, 0, 0, 1, 77995441
RFND, 77995480, 0.2, 25, 0, 0
BARO, 77995519, 0.2345347, 993.2742, 36.03, -0.3064139, 77995, 0, 35
CTUN, 77995532, 0, 0, 0, 0.2173505, 0.08980679, 0.08980679, 0.23, 0, 0.19, 0, 0, 1
ATT, 77995734, 0, 0.78, 0, 0.48, 354.79, 354.81, 0, 1
RATE, 77995739, -3.54935, 0.0299321, -0.008849747, -2.187594, -0.1031181, -0.004572007, 0.01581335, 0.00320734, 3.328934E-05, -513.2982, -0.06799698, 0
NKF1, 77995747, 0.78, 0.48, 354.8, -0.01646612, -0.01072549, -0.01267403, 0, 0, 0, -0.08980679, 0, 0, 0
NKF2, 77995747, 0, 0, 0, 0, 0, 0, 0, 0, 0, 0, 0, 0, 0
NKF3, 77995747, 0, 0, 0, -0.01, 0, -0.02, 0, 0, 0, 0, 0
NKF4, 77995747, 0, 0, 0, 0, 0, 3.739855E-07, 0, 0, 0, 19, 229, 0, 0
NKF5, 77995747, 0, 0, 0, 0, 0.22, 0.13, 0, 0.19, 0.5, 3.629011E-05, 0.0006255481, 0.001225244
NKQ1, 77995747, 0.9989069, 0.002839504, 0.01100811, -0.04534034
AHR2, 77995793, 0.93, 0.46, 354.76, 0.23, 0, 0, 0.9989125, 0.008374849, 0.003644042, -0.04572149
MOTB, 77995800, 1, 1, 0, 1
RCIN, 77995805, 0, 0, 0, 0, 0, 0, 0, 0, 0, 0, 0, 0, 0, 0
RCOU, 77995811, 1101, 1101, 1101, 1101, 0, 0, 0, 0, 0, 0, 0, 0, 0, 0
VIBE, 77995820, 0.020727, 0.0201089, 0.03278719, 0, 0, 0
CTRL, 77995826, 0.00837075, 0.0001556037, 0.005167828, 0.0002651578, 4.625752E-05
PRX, 77995857, 2, 0.62, 0, 3.6, 0, 3.6, 0, 3.6, 0, 0, 0, 0.62
IMU, 78015707, 4.963711E-05, 0.001897342, -0.0006969386, 0.218344, -0.0603721, -9.796373, 0, 0, 37.97374, 1, 1, 999, 999
RFND, 78045894, 0.2, 25, 0, 0
IMU, 78055644, 0.0003467613, -0.0001288171, 0.0006854018, 0.2128087, -0.05979654, -9.803548, 0, 0, 37.97384, 1, 1, 999, 999
MAG, 78095376, 403, 546, 301, 0, 0, 0, 0, 0, 0, 1, 78095367
RFND, 78095406, 0.2, 25, 0, 0
BARO, 78095445, 0.3277835, 993.264, 36.03, -0.5307055, 78095, 0, 35
CTUN, 78095457, 0, 0, 0, 0.2173505, 0.08914364, 0.08914364, 0.32, 0, 0.19, 0, 0, 1
ATT, 78095668, 0, 0.78, 0, 0.48, 354.79, 354.81, 0, 1
RATE, 78095676, -3.535311, -0.05537964, -0.008171418, -2.204812, 0.02268601, -0.005344942, 0.01489723, 0.001215432, 4.509361E-05, -474.3415, -1.059341, 0
NKF1, 78095685, 0.78, 0.48, 354.8, -0.01718229, -0.01196597, -0.01171213, 0, 0, 0, -0.08914363, 0, 0, 0
NKF2, 78095685, 0, 0, 0, 0, 0, 0, 0, 0, 0, 0, 0, 0, 0
NKF3, 78095685, 0, 0, 0, -0.02, 0, -0.02, 0, 0, 0, 0, 0
NKF4, 78095685, 0, 0, 0, 0, 0, 4.157109E-07, 0, 0, 0, 19, 229, 0, 0
NKF5, 78095685, 0, 0, 0, 0, 0.21, 0.13, 0, 0.19, 0.5, 3.598756E-05, 0.0005468342, 0.001035432
NKQ1, 78095685, 0.9989066, 0.002814466, 0.01104299, -0.04534016
AHR2, 78095729, 0.93, 0.46, 354.76, 0.32, 0, 0, 0.9989125, 0.008359722, 0.003671299, -0.04572173
MOTB, 78095737, 1, 1, 0, 1
RCIN, 78095742, 0, 0, 0, 0, 0, 0, 0, 0, 0, 0, 0, 0, 0, 0
RCOU, 78095747, 1101, 1101, 1101, 1101, 0, 0, 0, 0, 0, 0, 0, 0, 0, 0
VIBE, 78095756, 0.0208514, 0.02018365, 0.03197809, 0, 0, 0
CTRL, 78095763, 0.008351054, 0.0001480819, 0.005193135, 0.0002715525, 5.019629E-05
PRX, 78095794, 2, 0.62, 0, 3.6, 0, 3.6, 0, 3.6, 0, 0, 0, 0.62
IMU, 78095801, -0.0008501418, 0.0005052689, 1.176404E-05, 0.2114043, -0.054652, -9.788146, 0, 0, 37.97329, 1, 1, 999, 999
IMU, 78135447, -0.0002172705, -0.00169103, -1.507811E-05, 0.2203396, -0.05231375, -9.804495, 0, 0, 37.97199, 1, 1, 999, 999
RFND, 78145377, 0.2, 25, 0, 0
IMU, 78175478, -0.0001358182, -0.001362846, 0.001277156, 0.2074093, -0.06121721, -9.780545, 0, 0, 37.97063, 1, 1, 999, 999
MAG, 78195275, 398, 547, 309, 0, 0, 0, 0, 0, 0, 1, 78195267
RFND, 78195304, 0.2, 25, 0, 0
BARO, 78195344, 0.4069036, 993.2552, 36.03, -0.2940515, 78195, 0, 35
CTUN, 78195357, 0, 0, 0, 0.2173505, 0.08871923, 0.08871923, 0.4, 0, 0.19, 0, 0, 1
ATT, 78195457, 0, 0.78, 0, 0.48, 354.79, 354.81, 0, 1
RATE, 78195463, -3.515831, -0.07133275, -0.007862309, -2.194578, 0.07463931, -0.005963113, 0.0170679, 0.02290052, -1.494325E-05, -432.8918, -0.9269714, 0
NKF1, 78195470, 0.78, 0.48, 354.8, -0.01795254, -0.01270368, -0.01068869, 0, 0, 0, -0.08871923, 0, 0, 0
NKF2, 78195470, 0, 0, 0, 0, 0, 0, 0, 0, 0, 0, 0, 0, 0
NKF3, 78195470, 0, 0, 0, -0.02, 0, -0.02, 0, 0, 0, 0, 0
NKF4, 78195470, 0, 0, 0, 0, 0, 4.579221E-07, 0, 0, 0, 19, 229, 0, 0
NKF5, 78195470, 0, 0, 0, 0, 0.22, 0.13, 0, 0.19, 0.5, 3.609471E-05, 0.000655742, 0.001406718
NKQ1, 78195470, 0.9989076, 0.002776047, 0.01102592, -0.04532513
AHR2, 78195514, 0.93, 0.46, 354.76, 0.4, 0, 0, 0.9989135, 0.008333203, 0.003647139, -0.04570686
MOTB, 78195520, 1, 1, 0, 1
RCIN, 78195525, 0, 0, 0, 0, 0, 0, 0, 0, 0, 0, 0, 0, 0, 0
RCOU, 78195531, 1101, 1101, 1101, 1101, 0, 0, 0, 0, 0, 0, 0, 0, 0, 0
VIBE, 78195635, 0.02174163, 0.01877318, 0.03098379, 0, 0, 0
CTRL, 78195642, 0.008313055, 0.0001540429, 0.005154657, 0.0002574828, 4.584264E-05
PRX, 78195675, 1, 0.62, 0, 3.6, 0, 3.6, 0, 3.6, 0, 0, 0, 0.62
IMU, 78215439, -9.789014E-05, 0.002274112, -0.0006288505, 0.2243588, -0.04925857, -9.79142, 0, 0, 37.96976, 1, 1, 999, 999
RFND, 78245324, 0.2, 25, 0, 0
IMU, 78255752, 0.001237712, -0.0006393805, 0.0006554794, 0.2029127, -0.04507238, -9.792259, 0, 0, 37.96979, 1, 1, 999, 999
MAG, 78295255, 404, 543, 301, 0, 0, 0, 0, 0, 0, 1, 78295247
RFND, 78295284, 0.2, 25, 0, 0
BARO, 78295321, 0.2967005, 993.2675, 36.03, 0.2083968, 78295, 0, 35
CTUN, 78295334, 0, 0, 0, 0.2173505, 0.08783985, 0.08783985, 0.29, 0, 0.19, 0, 0, 0
ATT, 78295480, 0, 0.78, 0, 0.48, 354.79, 354.81, 0, 1
RATE, 78295486, -3.537999, 0.08501882, -0.00847488, -2.186041, -0.07524626, -0.004829629, 0.01659518, -0.1050379, 0.0001367791, -404.1791, -0.554657, 0
NKF1, 78295494, 0.78, 0.48, 354.8, -0.01843579, -0.01366024, -0.00997973, 0, 0, 0, -0.08783985, 0, 0, 0
NKF2, 78295494, 0, 0, 0, 0, 0, 0, 0, 0, 0, 0, 0, 0, 0
NKF3, 78295494, 0, 0, 0, -0.02, -0.01, -0.02, 0, 0, 0, 0, 0
NKF4, 78295494, 0, 0, 0, 0, 0, 5.28076E-07, 0, 0, 0, 19, 229, 0, 0
NKF5, 78295494, 0, 0, 0, 0, 0.21, 0.13, 0, 0.19, 0.5, 3.579386E-05, 0.0004757343, 0.0008449914
NKQ1, 78295494, 0.9989063, 0.002820063, 0.01100358, -0.04535621
AHR2, 78295618, 0.94, 0.45, 354.76, 0.29, 0, 0, 0.9989117, 0.008390899, 0.003618106, -0.04573862
MOTB, 78295630, 1, 1, 0, 1
RCIN, 78295635, 0, 0, 0, 0, 0, 0, 0, 0, 0, 0, 0, 0, 0, 0
RCOU, 78295641, 1101, 1101, 1101, 1101, 0, 0, 0, 0, 0, 0, 0, 0, 0, 0
VIBE, 78295650, 0.02270958, 0.01922419, 0.03088958, 0, 0, 0
CTRL, 78295656, 0.008345359, 0.0001601269, 0.005157911, 0.000266233, 4.873286E-05
PRX, 78295688, 1, 0.62, 0, 3.6, 0, 3.6, 0, 3.6, 0, 0, 0, 0.62
IMU, 78295695, 0.001600159, -0.001204067, -0.001842697, 0.2173578, -0.07088129, -9.793007, 0, 0, 37.96991, 1, 1, 999, 999
IMU, 78335315, 0.0002648811, -0.0003818898, -0.000320973, 0.2079687, -0.05574962, -9.78329, 0, 0, 37.96979, 1, 1, 999, 999
RFND, 78345207, 0.2, 25, 0, 0
IMU, 78375484, 0.001373459, -0.0006410562, -0.001745783, 0.2054258, -0.04711113, -9.794088, 0, 0, 37.96974, 1, 1, 999, 999
MAG, 78395502, 401, 547, 297, 0, 0, 0, 0, 0, 0, 1, 78395494
RFND, 78395627, 0.2, 25, 0, 0
BARO, 78395667, 0.2825719, 993.2692, 36.03, 0.3576301, 78395, 0, 35
CTUN, 78395681, 0, 0, 0, 0.2173505, 0.08726967, 0.08726967, 0.28, 0, 0.19, 0, 0, 0
ATT, 78395789, 0, 0.78, 0, 0.48, 354.79, 354.81, 0, 1
RATE, 78395795, -3.550609, 0.03243783, -0.008258605, -2.180102, -0.1162063, -0.00457311, 0.01497381, 0.04796532, 0.0001575112, -370.5427, 1.569748, 0
NKF1, 78395802, 0.78, 0.48, 354.8, -0.01933595, -0.01440981, -0.009149202, 0, 0, 0, -0.08726966, 0, 0, 0
NKF2, 78395802, 0, 0, 0, 0, 0, 0, 0, 0, 0, 0, 0, 0, 0
NKF3, 78395802, 0, 0, 0, -0.02, -0.01, -0.02, 0, 0, 0, 0, 0
NKF4, 78395802, 0, 0, 0, 0, 0, 5.838073E-07, 0, 0, 0, 19, 229, 0, 0
NKF5, 78395802, 0, 0, 0, 0, 0.21, 0.13, 0, 0.19, 0.5, 3.552877E-05, 0.000634264, 0.001383819
NKQ1, 78395802, 0.9989058, 0.002841362, 0.01099487, -0.04536941
AHR2, 78395846, 0.94, 0.45, 354.75, 0.28, 0, 0, 0.9989108, 0.008424818, 0.003603322, -0.04575238
MOTB, 78395854, 1, 1, 0, 1
RCIN, 78395858, 0, 0, 0, 0, 0, 0, 0, 0, 0, 0, 0, 0, 0, 0
RCOU, 78395864, 1101, 1101, 1101, 1101, 0, 0, 0, 0, 0, 0, 0, 0, 0, 0
VIBE, 78395873, 0.02106259, 0.02058109, 0.03059134, 0, 0, 0
CTRL, 78395880, 0.008374673, 0.000173964, 0.005152966, 0.0002652973, 9.467555E-05
PRX, 78395910, 1, 0.62, 0, 3.6, 0, 3.6, 0, 3.6, 0, 0, 0, 0.62
IMU, 78415451, 0.0008148638, -0.002441775, 0.0001284023, 0.2063484, -0.05215086, -9.818987, 0, 0, 37.96983, 1, 1, 999, 999
RFND, 78445820, 0.2, 25, 0, 0
IMU, 78455461, -0.0004923202, 0.001174182, 0.0009634431, 0.2212348, -0.07004729, -9.806082, 0, 0, 37.96807, 1, 1, 999, 999
MAG, 78495420, 398, 545, 308, 0, 0, 0, 0, 0, 0, 1, 78495412
RFND, 78495455, 0.2, 25, 0, 0
BARO, 78495491, 0.2656176, 993.2709, 36.03, 0.03090627, 78495, 0, 35
CTUN, 78495505, 0, 0, 0, 0.2173505, 0.08636746, 0.08636746, 0.26, 0, 0.19, 0, 0, 0
ATT, 78495709, 0, 0.78, 0, 0.48, 354.79, 354.81, 0, 1
RATE, 78495715, -3.546734, 0.0007891736, -0.008371591, -2.177315, 0.07212075, -0.005284064, 0.01564997, 0.01426888, 2.320226E-05, -358.2361, 1.812077, 0
NKF1, 78495723, 0.78, 0.48, 354.8, -0.01971597, -0.01538213, -0.008845337, 0, 0, 0, -0.08636746, 0, 0, 0
NKF2, 78495723, 0, 0, 0, 0, 0, 0, 0, 0, 0, 0, 0, 0, 0
NKF3, 78495723, 0, 0, 0, -0.02, -0.01, -0.02, 0, 0, 0, 0, 0
NKF4, 78495723, 0, 0, 0, 0, 0, 6.834396E-07, 0, 0, 0, 19, 229, 0, 0
NKF5, 78495723, 0, 0, 0, 0, 0.21, 0.13, 0, 0.19, 0.5, 3.555995E-05, 0.0004684927, 0.0009091013
NKQ1, 78495723, 0.9989062, 0.002834356, 0.01098909, -0.04536158
AHR2, 78495768, 0.94, 0.45, 354.75, 0.26, 0, 0, 0.9989111, 0.008429217, 0.003592419, -0.04574496
MOTB, 78495775, 1, 1, 0, 1
RCIN, 78495779, 0, 0, 0, 0, 0, 0, 0, 0, 0, 0, 0, 0, 0, 0
RCOU, 78495786, 1101, 1101, 1101, 1101, 0, 0, 0, 0, 0, 0, 0, 0, 0, 0
VIBE, 78495794, 0.02123168, 0.02274799, 0.03539365, 0, 0, 0
CTRL, 78495801, 0.008365797, 0.0001559276, 0.005131702, 0.0003071656, 8.916183E-05
PRX, 78495831, 2, 0.62, 0, 3.6, 0, 3.6, 0, 3.6, 0, 0, 0, 0.62
IMU, 78495838, 0.0001301669, 0.001368077, 0.0002395927, 0.2211539, -0.0473199, -9.816717, 0, 0, 37.96603, 1, 1, 999, 999
IMU, 78535632, 0.0004287005, -0.0004760782, -0.0007342575, 0.211592, -0.04260654, -9.789572, 0, 0, 37.96415, 1, 1, 999, 999
RFND, 78545373, 0.2, 25, 0, 0
EV, 78562640, 57
IMU, 78575498, -0.0009225971, 0.0007316031, 0.0005403127, 0.2088133, -0.05231054, -9.785528, 0, 0, 37.96236, 1, 1, 999, 999
MAG, 78595238, 400, 546, 314, 0, 0, 0, 0, 0, 0, 1, 78595230
RFND, 78595271, 0.2, 25, 0, 0
BARO, 78595307, 0.1893232, 993.2794, 36.03, -0.2861041, 78595, 0, 35
CTUN, 78595321, 0, 0, 0, 0.2173505, 0.08569894, 0.08569894, 0.18, 0, 0.19, 0, 0, 0
ATT, 78595415, 0, 0.78, 0, 0.48, 354.79, 354.81, 0, 1
RATE, 78595421, -3.543467, -0.0511857, -0.008221486, -2.166221, -0.001531123, -0.004924205, 0.01490645, 0.01495642, -3.285621E-06, -327.7766, 1.258278, 0
NKF1, 78595429, 0.78, 0.48, 354.8, -0.0205296, -0.01578413, -0.008093248, 0, 0, 0, -0.08569894, 0, 0, 0
NKF2, 78595429, 0, 0, 0, 0, 0, 0, 0, 0, 0, 0, 0, 0, 0
NKF3, 78595429, 0, 0, 0, -0.02, -0.01, -0.01, 0, 0, 0, 0, 0
NKF4, 78595429, 0, 0, 0, 0, 0, 7.675785E-07, 0, 0, 0, 19, 229, 0, 0
NKF5, 78595429, 0, 0, 0, 0, 0.21, 0.13, 0, 0.19, 0.5, 3.530203E-05, 0.0004481308, 0.0008416849
NKQ1, 78595429, 0.9989069, 0.002826401, 0.01096764, -0.04535193
AHR2, 78595473, 0.94, 0.45, 354.76, 0.18, 0, 0, 0.9989117, 0.008431452, 0.003564847, -0.04573566
MOTB, 78595480, 1, 1, 0, 1
RCIN, 78595485, 0, 0, 0, 0, 0, 0, 0, 0, 0, 0, 0, 0, 0, 0
RCOU, 78595490, 1108, 1108, 1108, 1108, 0, 0, 0, 0, 0, 0, 0, 0, 0, 0
VIBE, 78595499, 0.02045845, 0.0193899, 0.03286561, 0, 0, 0
CTRL, 78595506, 0.008361468, 0.0001501995, 0.005112779, 0.0002848036, 7.634518E-05
PRX, 78595623, 2, 0.62, 0, 3.6, 0, 3.6, 0, 3.6, 0, 0, 0, 0.62
IMU, 78615465, -0.00038983, 0.001575935, -0.0002348173, 0.2232529, -0.05749235, -9.801128, 0, 0, 37.9599, 1, 1, 999, 999
RFND, 78645233, 0.2, 25, 0, 0
IMU, 78655437, -0.0005899583, 0.0007716188, -0.0004334287, 0.2145136, -0.04880791, -9.796938, 0, 0, 37.95797, 1, 1, 999, 999
MAG, 78695292, 393, 545, 309, 0, 0, 0, 0, 0, 0, 1, 78695284
RFND, 78695324, 0.2, 25, 0, 0
BARO, 78695360, 0.251489, 993.2725, 36.03, -0.3443846, 78695, 0, 35
CTUN, 78695373, 0, 0, 0, 0.2173505, 0.08489154, 0.08489154, 0.25, 0, 0.19, 0, 0, 0
ATT, 78695471, 0, 0.78, 0, 0.49, 354.79, 354.81, 0, 1
RATE, 78695476, -3.520732, -0.03702869, -0.008251606, -2.206558, 0.1320772, -0.006083693, 0.01508361, -0.03310622, 3.041048E-05, -312.1343, 1.027012, 0
NKF1, 78695484, 0.78, 0.49, 354.8, -0.02112255, -0.016411, -0.00770702, 0, 0, 0, -0.08489154, 0, 0, 0
NKF2, 78695484, 0, 0, 0, 0, 0, 0, 0, 0, 0, 0, 0, 0, 0
NKF3, 78695484, 0, 0, 0, -0.02, -0.01, -0.01, 0, 0, 0, 0, 0
NKF4, 78695484, 0, 0, 0, 0, 0, 8.804129E-07, 0, 0, 0, 19, 229, 0, 0
NKF5, 78695484, 0, 0, 0, 0, 0.21, 0.13, 0, 0.19, 0.5, 3.536547E-05, 0.0005134299, 0.001146001
NKQ1, 78695484, 0.9989064, 0.002787003, 0.01104673, -0.04534613
AHR2, 78695528, 0.94, 0.46, 354.76, 0.25, 0, 0, 0.9989119, 0.008400726, 0.003636611, -0.04573033
MOTB, 78695622, 1, 1, 0, 1
RCIN, 78695628, 0, 0, 0, 0, 0, 0, 0, 0, 0, 0, 0, 0, 0, 0
RCOU, 78695633, 1132, 1132, 1132, 1132, 0, 0, 0, 0, 0, 0, 0, 0, 0, 0
VIBE, 78695642, 0.01972591, 0.01940376, 0.03127727, 0, 0, 0
CTRL, 78695649, 0.00831373, 0.0001461868, 0.005182411, 0.0002764154, 6.416933E-05
PRX, 78695681, 1, 0.62, 0, 3.6, 0, 3.6, 0, 3.6, 0, 0, 0, 0.62
IMU, 78695688, -0.0005299839, 0.002414439, -0.0005872498, 0.2053082, -0.04986479, -9.809226, 0, 0, 37.95625, 1, 1, 999, 999
IMU, 78735482, -9.679214E-05, -0.0002341, -0.0002842514, 0.2251725, -0.04412234, -9.82955, 0, 0, 37.95573, 1, 1, 999, 999
RFND, 78745656, 0.2, 25, 0, 0
IMU, 78775698, 2.896965E-05, -0.0005695453, 0.0004385785, 0.207686, -0.05395925, -9.79452, 0, 0, 37.95565, 1, 1, 999, 999
MAG, 78795432, 405, 548, 300, 0, 0, 0, 0, 0, 0, 1, 78795423
RFND, 78795466, 0.2, 25, 0, 0
BARO, 78795504, 0.1864975, 993.2797, 36.03, -0.2710924, 78795, 0, 35
CTUN, 78795518, 0, 0, 0, 0.2173505, 0.0841231, 0.0841231, 0.18, 0, 0.19, 0, 0, 0
ATT, 78795722, 0, 0.77, 0, 0.49, 354.79, 354.81, 0, 1
RATE, 78795729, -3.509331, -0.08064368, -0.007830543, -2.210339, 0.09249561, -0.005789203, 0.01506064, 0.06053868, 2.588745E-06, -333.7288, 0.3521919, 0
NKF1, 78795736, 0.77, 0.49, 354.8, -0.02173721, -0.01665874, -0.008240217, 0, 0, 0, -0.0841231, 0, 0, 0
NKF2, 78795736, 0, 0, 0, 0, 0, 0, 0, 0, 0, 0, 0, 0, 0
NKF3, 78795736, 0, 0, 0, -0.03, -0.01, -0.01, 0, 0, 0, 0, 0
NKF4, 78795736, 0, 0, 0, 0, 0, 1.003515E-06, 0, 0, 0, 19, 229, 0, 0
NKF5, 78795736, 0, 0, 0, 0, 0.21, 0.13, 0, 0.19, 0.5, 3.498888E-05, 0.0003315102, 0.0005194691
NKQ1, 78795736, 0.998907, 0.00276376, 0.01105771, -0.04533058
AHR2, 78795782, 0.94, 0.46, 354.76, 0.18, 0, 0, 0.9989127, 0.00838549, 0.003641779, -0.04571513
MOTB, 78795790, 1, 1, 0, 1
RCIN, 78795795, 0, 0, 0, 0, 0, 0, 0, 0, 0, 0, 0, 0, 0, 0
RCOU, 78795801, 1156, 1156, 1156, 1156, 0, 0, 0, 0, 0, 0, 0, 0, 0, 0
VIBE, 78795810, 0.02106668, 0.01797298, 0.03232094, 0, 0, 0
CTRL, 78795816, 0.008291823, 0.0001328115, 0.00519619, 0.0002581221, 5.658807E-05
PRX, 78795847, 1, 0.62, 0, 3.6, 0, 3.6, 0, 3.6, 0, 0, 0, 0.62
IMU, 78815509, 6.961388E-05, 0.001989264, 0.000347356, 0.2067017, -0.05038131, -9.779613, 0, 0, 37.95543, 1, 1, 999, 999
RFND, 78845426, 0.2, 25, 0, 0
IMU, 78855679, -0.001484665, -0.001487784, 0.000305562, 0.2009587, -0.05235507, -9.811239, 0, 0, 37.95552, 1, 1, 999, 999
MAG, 78895395, 399, 549, 301, 0, 0, 0, 0, 0, 0, 1, 78895387
RFND, 78895430, 0.2, 25, 0, 0
BARO, 78895469, 0.1864975, 993.2797, 36.03, -0.1766074, 78895, 0, 35
CTUN, 78895481, 0, 0, 0, 0.2173505, 0.08354142, 0.08354142, 0.18, 0, 0.19, 0, 0, 0
DU32, 78895522, 7, 33611992
ATT, 78895768, 0, 0.77, 0, 0.49, 354.79, 354.81, 0, 1
RATE, 78895775, -3.499707, 0.005831826, -0.008125362, -2.216617, 0.05407685, -0.005862066, 0.01505492, -0.1801311, -5.113552E-05, -316.7355, 0.5548477, 0
NKF1, 78895783, 0.77, 0.49, 354.8, -0.02321346, -0.01741322, -0.007820629, 0, 0, 0, -0.08354142, 0, 0, 0
NKF2, 78895783, 0, 0, 0, 0, 0, 0, 0, 0, 0, 0, 0, 0, 0
NKF3, 78895783, 0, 0, 0, -0.03, -0.01, -0.01, 0, 0, 0, 0, 0
NKF4, 78895783, 0, 0, 0, 0, 0, 1.122526E-06, 0, 0, 0, 19, 229, 0, 0
NKF5, 78895783, 0, 0, 0, 0, 0.21, 0.13, 0, 0.19, 0.5, 3.520233E-05, 0.000609127, 0.001498921
NKQ1, 78895783, 0.9989073, 0.002749652, 0.01106443, -0.04532318
AHR2, 78895829, 0.94, 0.46, 354.76, 0.18, 0, 0, 0.9989131, 0.008378511, 0.003644797, -0.04570815
MOTB, 78895836, 1, 1, 0, 1
RCIN, 78895841, 0, 0, 0, 0, 0, 0, 0, 0, 0, 0, 0, 0, 0, 0
RCOU, 78895846, 1180, 1180, 1180, 1180, 0, 0, 0, 0, 0, 0, 0, 0, 0, 0
VIBE, 78895855, 0.02466247, 0.04570483, 0.03769814, 0, 0, 0
CTRL, 78895861, 0.008267466, 0.0001791853, 0.005204853, 0.000274548, 5.814667E-05
PRX, 78895893, 1, 0.62, 0, 3.6, 0, 3.6, 0, 3.6, 0, 0, 0, 0.62
IMU, 78895900, 0.0002181479, 0.001053172, -0.003153325, 0.2081721, -0.04910295, -9.804453, 0, 0, 37.95549, 1, 1, 999, 999
IMU, 78935336, 0.002762175, -0.002336157, -0.008138161, 0.2214131, -0.05154969, -9.79489, 0, 0, 37.95546, 1, 1, 999, 999
RFND, 78945232, 0.2, 25, 0, 0
IMU, 78975472, -0.003715844, 0.002313528, 0.01411403, 0.1922851, -0.07587918, -9.776855, 0, 0, 37.95549, 1, 1, 999, 999
MAG, 78995923, 405, 549, 307, 0, 0, 0, 0, 0, 0, 1, 78995915
RFND, 78995958, 0.2, 25, 0, 0
BARO, 78995995, 0.3277835, 993.264, 36.03, -0.08918674, 78995, 0, 35
CTUN, 78996008, 0, 0, 0, 0.2173505, 0.08269003, 0.08269003, 0.32, 0, 0.19, 0, 0, 0
ATT, 78996118, 0, 0.77, 0, 0.49, 354.78, 354.8, 0, 1
RATE, 78996124, -3.472324, 0.09641711, -0.008470571, -2.270014, 0.190543, -0.006901327, 0.01519351, -2.146611, 0.0003288613, -288.0729, -3.319168, 0
NKF1, 78996131, 0.77, 0.49, 354.79, -0.0236546, -0.01856554, -0.007112911, 0, 0, 0, -0.08269003, 0, 0, 0
NKF2, 78996131, 0, 0, 0, 0, 0, 0, 0, 0, 0, 0, 0, 0, 0
NKF3, 78996131, 0, 0, 0, -0.03, -0.02, -0.01, 0, 0, 0, 0, 0
NKF4, 78996131, 0, 0, 0, 0, 0, 1.281364E-06, 0, 0, 0, 19, 229, 0, 0
NKF5, 78996131, 0, 0, 0, 0, 0.21, 0.13, 0, 0.19, 0.5, 3.459043E-05, 0.0003727716, 0.0008110632
NKQ1, 78996131, 0.9989014, 0.002732758, 0.01111653, -0.04544275
AHR2, 78996174, 0.93, 0.46, 354.75, 0.32, 0, 0, 0.9989075, 0.008366849, 0.003688816, -0.04582824
MOTB, 78996181, 1, 1, 0, 1
RCIN, 78996186, 0, 0, 0, 0, 0, 0, 0, 0, 0, 0, 0, 0, 0, 0
RCOU, 78996191, 1204, 1204, 1204, 1204, 0, 0, 0, 0, 0, 0, 0, 0, 0, 0
VIBE, 78996200, 0.2123819, 0.2157442, 0.2129912, 0, 0, 0
CTRL, 78996207, 0.008249957, 0.0004687303, 0.005250486, 0.0003784879, 0.0003410931
PRX, 78996239, 1, 0.62, 0, 3.6, 0, 3.6, 0, 3.6, 0, 0, 0, 0.62
IMU, 79015766, -0.003046268, 0.000595661, 0.02336379, 0.1654564, -0.06160401, -9.821169, 0, 0, 37.95549, 1, 1, 999, 999
RFND, 79045481, 0.2, 25, 0, 0
IMU, 79055494, 0.006481242, 0.006799178, -0.02398182, 0.2498472, -0.03143938, -9.824232, 0, 0, 37.95547, 1, 1, 999, 999
MAG, 79095656, 394, 544, 311, 0, 0, 0, 0, 0, 0, 1, 79095648
RFND, 79095692, 0.2, 25, 0, 0
BARO, 79095730, 0.3249578, 993.2644, 36.03, 0.09006983, 79095, 0, 35
CTUN, 79095743, 0, 0, 0, 0.2173505, 0.08210996, 0.08210996, 0.32, 0, 0.19, 0, 0, 0
ATT, 79095853, 0, 0.76, 0, 0.49, 354.8, 354.82, 0, 1
RATE, 79095859, -3.426525, -0.316302, -0.00745883, -2.237854, -0.4347981, -0.003005955, 0.01484772, -0.81205, -0.0006974042, -200.7914, -0.7509232, 0
NKF1, 79095867, 0.76, 0.49, 354.81, -0.02393753, -0.02106312, -0.004957813, 0, 0, 0, -0.08210996, 0, 0, 0
NKF2, 79095867, 0, 0, 0, 0, 0, 0, 0, 0, 0, 0, 0, 0, 0
NKF3, 79095867, 0, 0, 0, -0.03, -0.02, -0.01, 0, 0, 0, 0, 0
NKF4, 79095867, 0, 0, 0, 0, 0, 1.405548E-06, 0, 0, 0, 19, 229, 0, 0
NKF5, 79095867, 0, 0, 0, 0, 0.21, 0.13, 0, 0.19, 0.5, 3.41152E-05, 0.0002619572, 0.0003492892
NKQ1, 79095867, 0.9989089, 0.002619455, 0.0110956, -0.04528804
AHR2, 79095913, 0.92, 0.46, 354.76, 0.32, 0, 0, 0.9989156, 0.008259174, 0.00365473, -0.04567316
MOTB, 79095920, 1, 1, 0, 1
RCIN, 79095924, 0, 0, 0, 0, 0, 0, 0, 0, 0, 0, 0, 0, 0, 0
RCOU, 79095931, 1232, 1225, 1221, 1239, 0, 0, 0, 0, 0, 0, 0, 0, 0, 0
VIBE, 79095940, 0.4693682, 0.5069932, 0.5786449, 0, 0, 0
CTRL, 79095947, 0.00815342, 0.0008001603, 0.005301806, 0.000783031, 0.0004266558
PRX, 79095978, 2, 0.62, 0, 3.6, 0, 3.6, 0, 3.6, 0, 0, 0, 0.62
IMU, 79095985, -0.00540432, -0.007479395, -0.01418238, 0.242806, -0.008565102, -9.790821, 0, 0, 37.95555, 1, 1, 999, 999
IMU, 79135480, -0.005277736, -0.001777546, 0.02842883, 0.1594304, -0.09236247, -9.784618, 0, 0, 37.95544, 1, 1, 999, 999
RFND, 79145365, 0.2, 25, 0, 0
IMU, 79175483, 0.009854266, 0.01266171, 0.004704162, 0.1519519, -0.01160045, -9.78078, 0, 0, 37.95586, 1, 1, 999, 999
MAG, 79195446, 402, 550, 303, 0, 0, 0, 0, 0, 0, 1, 79195437
RFND, 79195481, 0.2, 25, 0, 0
BARO, 79195519, 0.3390864, 993.2628, 36.03, 0.3593962, 79195, 0, 35
CTUN, 79195532, 0, 0, 0, 0.2173505, 0.0812323, 0.0812323, 0.33, 0, 0.19, 0, 0, 0
ATT, 79195746, 0, 0.76, 0, 0.5, 354.81, 354.83, 0, 1
RATE, 79195752, -3.444607, -0.3020718, -0.005372422, -2.259597, -0.3011299, -0.001129784, 0.01515742, 0.8541924, -0.0003390317, -257.3787, 2.628326, 0
NKF1, 79195761, 0.76, 0.5, 354.82, -0.02647956, -0.0215636, -0.00635503, 0, 0, 0, -0.0812323, 0, 0, 0
NKF2, 79195761, 0, 0, 0, 0, 0, 0, 0, 0, 0, 0, 0, 0, 0
NKF3, 79195761, 0, 0, 0, -0.03, -0.02, -0.01, 0, 0, 0, 0, 0
NKF4, 79195761, 0, 0, 0, 0, 0, 1.606748E-06, 0, 0, 0, 19, 229, 0, 0
NKF5, 79195761, 0, 0, 0, 0, 0.21, 0.13, 0, 0.19, 0.5, 3.436672E-05, 0.0004719744, 0.001201886
NKQ1, 79195761, 0.998912, 0.002628353, 0.01118012, -0.04519893
AHR2, 79195808, 0.92, 0.47, 354.77, 0.33, 0, 0, 0.9989192, 0.008275232, 0.003730058, -0.04558481
MOTB, 79195815, 1, 1, 0, 1
RCIN, 79195820, 0, 0, 0, 0, 0, 0, 0, 0, 0, 0, 0, 0, 0, 0
RCOU, 79195826, 1229, 1222, 1221, 1232, 0, 0, 0, 0, 0, 0, 0, 0, 0, 0
VIBE, 79195835, 0.4621512, 0.4299593, 0.6669493, 0, 0, 0
CTRL, 79195842, 0.008201129, 0.001179852, 0.005475227, 0.00136364, 0.0005135487
PRX, 79195873, 2, 0.62, 0, 3.6, 0, 3.6, 0, 3.6, 0, 0, 0, 0.62
IMU, 79215505, 0.001431463, 0.003657453, -0.02253869, 0.281322, -0.009034691, -9.817932, 0, 0, 37.95721, 1, 1, 999, 999
RFND, 79245478, 0.2, 25, 0, 0
IMU, 79255998, -0.01147346, -0.01287177, 0.01256991, 0.1952723, -0.08943294, -9.821692, 0, 0, 37.95896, 1, 1, 999, 999
MAG, 79295436, 398, 549, 300, 0, 0, 0, 0, 0, 0, 1, 79295428
RFND, 79295470, 0.2, 25, 0, 0
BARO, 79295507, 0.5086295, 993.2441, 36.03, 0.4874366, 79295, 0, 35
CTUN, 79295520, 0, 0, 0, 0.2173505, 0.08049358, 0.08049358, 0.5, 0, 0.19, 0, 0, 0
ATT, 79295718, 0, 0.77, 0, 0.51, 354.8, 354.82, 0, 1
RATE, 79295725, -3.486501, 0.4274227, -0.008454091, -2.332724, 0.3994759, -0.00603791, 0.01579955, 0.2410239, -1.749802E-05, -222.6907, -3.348732, 0
NKF1, 79295732, 0.77, 0.51, 354.81, -0.02835598, -0.02175931, -0.005498536, 0, 0, 0, -0.08049358, 0, 0, 0
NKF2, 79295732, 0, 0, 0, 0, 0, 0, 0, 0, 0, 0, 0, 0, 0
NKF3, 79295732, 0, 0, 0, -0.04, -0.02, -0.01, 0, 0, 0, 0, 0
NKF4, 79295732, 0, 0, 0, 0, 0, 1.793081E-06, 0, 0, 0, 19, 229, 0, 0
NKF5, 79295732, 0, 0, 0, 0, 0.21, 0.13, 0, 0.19, 0.5, 3.35957E-05, 0.0002291845, 0.0005134482
NKQ1, 79295732, 0.9989068, 0.002726246, 0.01130153, -0.0452772
AHR2, 79295777, 0.93, 0.48, 354.76, 0.5, 0, 0, 0.9989143, 0.008382684, 0.003848756, -0.04566457
MOTB, 79295785, 1, 1, 0, 1
RCIN, 79295789, 0, 0, 0, 0, 0, 0, 0, 0, 0, 0, 0, 0, 0, 0
RCOU, 79295795, 1235, 1231, 1221, 1245, 0, 0, 0, 0, 0, 0, 0, 0, 0, 0
VIBE, 79295804, 0.4476505, 0.4482535, 0.7602579, 0, 0, 0
CTRL, 79295811, 0.008278464, 0.001705571, 0.005593308, 0.00189674, 0.0004869867
PRX, 79295843, 1, 0.62, 0, 3.6, 0, 3.6, 0, 3.6, 0, 0, 0, 0.62
IMU, 79295850, 0.007576442, 0.00708178, 0.004197208, 0.128999, -0.07714982, -9.767125, 0, 0, 37.96057, 1, 1, 999, 999
IMU, 79335478, -0.000312718, 0.01120259, -0.005123388, 0.2514758, 0.04128183, -9.807269, 0, 0, 37.96225, 1, 1, 999, 999
RFND, 79345355, 0.2, 25, 0, 0
IMU, 79375528, -0.01804782, -0.01108165, -0.0006917656, 0.2579098, -0.0201638, -9.793108, 0, 0, 37.96405, 1, 1, 999, 999
MAG, 79395758, 395, 546, 303, 0, 0, 0, 0, 0, 0, 1, 79395750
RFND, 79395793, 0.2, 25, 0, 0
BARO, 79395831, 0.5058038, 993.2444, 36.04, 0.5201089, 79395, 0, 35
CTUN, 79395844, 0, 0, 0, 0.2173505, 0.07991482, 0.07991482, 0.5, 0, 0.19, 0, 0, 0
ATT, 79395953, 0, 0.77, 0, 0.53, 354.78, 354.8, 0, 1
RATE, 79395959, -3.496683, 0.7038571, -0.0158161, -2.381555, 0.8005158, -0.01174395, 0.01619384, 0.4861051, -0.0004222181, -243.6606, 1.363373, 0
NKF1, 79395967, 0.77, 0.53, 354.79, -0.02569422, -0.02199184, -0.00601631, 0, 0, 0, -0.07991482, 0, 0, 0
NKF2, 79395967, 0, 0, 0, 0, 0, 0, 0, 0, 0, 0, 0, 0, 0
NKF3, 79395967, 0, 0, 0, -0.04, -0.02, -0.01, 0, 0, 0, 0, 0
NKF4, 79395967, 0, 0, 0, 0, 0, 1.986528E-06, 0, 0, 0, 19, 229, 0, 0
NKF5, 79395967, 0, 0, 0, 0, 0.21, 0.13, 0, 0.19, 0.5, 3.398506E-05, 0.0006133523, 0.001655388
NKQ1, 79395967, 0.9989006, 0.002748277, 0.01140214, -0.04538781
AHR2, 79396011, 0.94, 0.49, 354.75, 0.5, 0, 0, 0.9989086, 0.008413812, 0.003938213, -0.04577605
MOTB, 79396018, 1, 1, 0, 1
RCIN, 79396023, 0, 0, 0, 0, 0, 0, 0, 0, 0, 0, 0, 0, 0, 0
RCOU, 79396029, 1247, 1240, 1221, 1265, 0, 0, 0, 0, 0, 0, 0, 0, 0, 0
VIBE, 79396038, 0.4472089, 0.4172406, 0.7473454, 0, 0, 0
CTRL, 79396045, 0.008177582, 0.002181344, 0.005611955, 0.002203762, 0.0005092326
PRX, 79396076, 1, 0.62, 0, 3.6, 0, 3.6, 0, 3.6, 0, 0, 0, 0.62
IMU, 79415533, -0.003922924, -0.003751633, -0.009031679, 0.1387188, -0.07073729, -9.781746, 0, 0, 37.9657, 1, 1, 999, 999
RFND, 79445414, 0.2, 25, 0, 0
IMU, 79455459, 0.01142071, 0.0115163, 0.003010675, 0.1304219, -0.03540114, -9.811583, 0, 0, 37.96706, 1, 1, 999, 999
MAG, 79495806, 392, 544, 306, 0, 0, 0, 0, 0, 0, 1, 79495798
RFND, 79495840, 0.2, 25, 0, 0
BARO, 79495878, 0.5368867, 993.2411, 36.04, 0.6190091, 79495, 0, 35
CTUN, 79495891, 0, 0, 0, 0.2173505, 0.07927814, 0.07927814, 0.53, 0, 0.19, 0, 0, 0
ATT, 79496049, 0, 0.76, 0, 0.51, 354.8, 354.82, 0, 1
RATE, 79496055, -3.439249, -0.5154478, -0.006666665, -2.312698, -0.2631394, -0.00533407, 0.01546137, 0.2249687, 0.0001107474, -239.6741, 0.2896309, 0
NKF1, 79496062, 0.76, 0.51, 354.82, -0.02854508, -0.02306046, -0.005917878, 0, 0, 0, -0.07927814, 0, 0, 0
NKF2, 79496062, 0, 0, 0, 0, 0, 0, 0, 0, 0, 0, 0, 0, 0
NKF3, 79496062, 0, 0, 0, -0.04, -0.02, -0.01, 0, 0, 0, 0, 0
NKF4, 79496062, 0, 0, 0, 0, 0, 2.218256E-06, 0, 0, 0, 19, 229, 0, 0
NKF5, 79496062, 0, 0, 0, 0, 0.21, 0.13, 0, 0.19, 0.5, 3.325595E-05, 0.0003544484, 0.001042728
NKQ1, 79496062, 0.9989105, 0.002633676, 0.0112673, -0.04520975
AHR2, 79496105, 0.93, 0.47, 354.77, 0.53, 0, 0, 0.9989182, 0.008309631, 0.003777339, -0.04559715
MOTB, 79496112, 1, 1, 0, 1
RCIN, 79496117, 0, 0, 0, 0, 0, 0, 0, 0, 0, 0, 0, 0, 0, 0
RCOU, 79496122, 1232, 1230, 1221, 1241, 0, 0, 0, 0, 0, 0, 0, 0, 0, 0
VIBE, 79496131, 0.4243104, 0.3633623, 0.6186033, 0, 0, 0
CTRL, 79496138, 0.008202099, 0.002481239, 0.005591331, 0.00236774, 0.0004900284
PRX, 79496169, 1, 0.62, 0, 3.6, 0, 3.6, 0, 3.6, 0, 0, 0, 0.62
IMU, 79496176, -0.008879915, -0.004483134, 0.003917004, 0.183347, -0.03894775, -9.802461, 0, 0, 37.96817, 1, 1, 999, 999
IMU, 79535521, -0.008595853, -0.01408953, 0.008771866, 0.05621301, -0.1158481, -9.792473, 0, 0, 37.96901, 1, 1, 999, 999
RFND, 79545443, 0.2, 25, 0, 0
IMU, 79575474, 0.01087693, 0.0004251064, 0.02384842, 0.1255428, -0.06091309, -9.792815, 0, 0, 37.96999, 1, 1, 999, 999
MAG, 79595487, 398, 547, 303, 0, 0, 0, 0, 0, 0, 1, 79595479
RFND, 79595521, 0.2, 25, 0, 0
BARO, 79595647, 0.6131811, 993.2326, 36.04, 0.614594, 79595, 0, 35
CTUN, 79595661, 0, 0, 0, 0.2173505, 0.07887363, 0.07887363, 0.61, 0, 0.19, 0, 0, 0
ATT, 79595772, 0, 0.76, 0, 0.49, 354.8, 354.82, 0, 1
RATE, 79595778, -3.455643, -0.5515018, -0.002926127, -2.258518, -0.6268347, -0.001814751, 0.01511875, -0.6132733, 1.237891E-05, -261.4278, 2.928257, 0
NKF1, 79595786, 0.76, 0.49, 354.81, -0.02875717, -0.02373262, -0.006455007, 0, 0, 0, -0.07887363, 0, 0, 0
NKF2, 79595786, 0, 0, 0, 0, 0, 0, 0, 0, 0, 0, 0, 0, 0
NKF3, 79595786, 0, 0, 0, -0.04, -0.02, -0.01, 0, 0, 0, 0, 0
NKF4, 79595786, 0, 0, 0, 0, 0, 2.430587E-06, 0, 0, 0, 19, 229, 0, 0
NKF5, 79595786, 0, 0, 0, 0, 0.21, 0.13, 0, 0.19, 0.5, 3.368878E-05, 0.0007131455, 0.001998279
NKQ1, 79595786, 0.9989085, 0.002674254, 0.01113798, -0.04528482
AHR2, 79595831, 0.93, 0.45, 354.76, 0.61, 0, 0, 0.998915, 0.008354876, 0.003628412, -0.04567244
MOTB, 79595838, 1, 1, 0, 1
RCIN, 79595843, 0, 0, 0, 0, 0, 0, 0, 0, 0, 0, 0, 0, 0, 0
RCOU, 79595849, 1226, 1224, 1221, 1229, 0, 0, 0, 0, 0, 0, 0, 0, 0, 0
VIBE, 79595858, 0.3563949, 0.3365509, 0.507896, 0, 0, 0
CTRL, 79595865, 0.008303614, 0.002414985, 0.005484425, 0.002336553, 0.0004354707
PRX, 79595897, 2, 0.62, 0, 3.6, 0, 3.6, 0, 3.6, 0, 0, 0, 0.62
IMU, 79615686, 0.007510792, 0.005649886, -0.006824532, 0.2103221, -0.02883468, -9.827398, 0, 0, 37.9711, 1, 1, 999, 999
RFND, 79645378, 0.2, 25, 0, 0
IMU, 79655499, -0.002759376, -0.006931128, -0.01723677, 0.2875405, -0.007377128, -9.749642, 0, 0, 37.97174, 1, 1, 999, 999
MAG, 79695450, 402, 547, 305, 0, 0, 0, 0, 0, 0, 1, 79695442
RFND, 79695485, 0.2, 25, 0, 0
BARO, 79695522, 0.624484, 993.2313, 36.04, 0.4803723, 79695, 0, 35
CTUN, 79695627, 0, 0, 0, 0.2173505, 0.07825036, 0.07825036, 0.62, 0, 0.19, 0, 0, 0
ATT, 79695739, 0, 0.77, 0, 0.51, 354.79, 354.81, 0, 1
