FMT, 128, 89, FMT, BBnNZ, Type,Length,Name,Format,Columns
FMT, 129, 31, PARM, QNf, TimeUS,Name,Value
FMT, 130, 46, GPS, QBIHBcLLefffB, TimeUS,Status,GMS,GWk,NSats,HDop,Lat,Lng,Alt,Spd,GCrs,VZ,U
FMT, 131, 46, GPS2, QBIHBcLLefffB, TimeUS,Status,GMS,GWk,NSats,HDop,Lat,Lng,Alt,Spd,GCrs,VZ,U
FMT, 132, 46, GPSB, QBIHBcLLefffB, TimeUS,Status,GMS,GWk,NSats,HDop,Lat,Lng,Alt,Spd,GCrs,VZ,U
FMT, 193, 24, GPA, QCCCCBI, TimeUS,VDop,HAcc,VAcc,SAcc,VV,SMS
FMT, 194, 24, GPA2, QCCCCBI, TimeUS,VDop,HAcc,VAcc,SAcc,VV,SMS
FMT, 195, 24, GPAB, QCCCCBI, TimeUS,VDop,HAcc,VAcc,SAcc,VV,SMS
FMT, 133, 53, IMU, QffffffIIfBBHH, TimeUS,GyrX,GyrY,GyrZ,AccX,AccY,AccZ,EG,EA,T,GH,AH,GHz,AHz
FMT, 134, 75, MSG, QZ, TimeUS,Message
FMT, 135, 39, RCIN, QHHHHHHHHHHHHHH, TimeUS,C1,C2,C3,C4,C5,C6,C7,C8,C9,C10,C11,C12,C13,C14
FMT, 136, 39, RCOU, QHHHHHHHHHHHHHH, TimeUS,C1,C2,C3,C4,C5,C6,C7,C8,C9,C10,C11,C12,C13,C14
FMT, 137, 15, RSSI, Qf, TimeUS,RXRSSI
FMT, 139, 37, BARO, QffcfIff, TimeUS,Alt,Press,Temp,CRt,SMS,Offset,GndTemp
FMT, 140, 22, POWR, QffHB, TimeUS,Vcc,VServo,Flags,Safety
FMT, 143, 45, CMD, QHHHfffffff, TimeUS,CTot,CNum,CId,Prm1,Prm2,Prm3,Prm4,Lat,Lng,Alt
FMT, 144, 20, RAD, QBBBBBHH, TimeUS,RSSI,RemRSSI,TxBuf,Noise,RemNoise,RxErrors,Fixed
FMT, 146, 43, CAM, QIHLLeeeccC, TimeUS,GPSTime,GPSWeek,Lat,Lng,Alt,RelAlt,GPSAlt,Roll,Pitch,Yaw
FMT, 232, 43, TRIG, QIHLLeeeccC, TimeUS,GPSTime,GPSWeek,Lat,Lng,Alt,RelAlt,GPSAlt,Roll,Pitch,Yaw
FMT, 162, 30, ARSP, QffcffB, TimeUS,Airspeed,DiffPress,Temp,RawPress,Offset,U
FMT, 164, 45, CURR, QfffcHHHHHHHHHH, TimeUS,Volt,Curr,CurrTot,Temp,V1,V2,V3,V4,V5,V6,V7,V8,V9,V10
FMT, 165, 45, CUR2, QfffcHHHHHHHHHH, TimeUS,Volt,Curr,CurrTot,Temp,V1,V2,V3,V4,V5,V6,V7,V8,V9,V10
FMT, 163, 27, ATT, QccccCCCC, TimeUS,DesRoll,Roll,DesPitch,Pitch,DesYaw,Yaw,ErrRP,ErrYaw
FMT, 166, 34, MAG, QhhhhhhhhhBI, TimeUS,MagX,MagY,MagZ,OfsX,OfsY,OfsZ,MOfsX,MOfsY,MOfsZ,Health,S
FMT, 169, 14, MODE, QMBB, TimeUS,Mode,ModeNum,Rsn
FMT, 196, 17, RFND, QCBCB, TimeUS,Dist1,Orient1,Dist2,Orient2
FMT, 223, 33, DMS, IIIIIBBBBBBBBBB, TimeMS,N,Dp,RT,RS,Er,Fa,Fmn,Fmx,Pa,Pmn,Pmx,Sa,Smn,Smx
FMT, 240, 41, BCN, QBBfffffff, TimeUS,Health,Cnt,D0,D1,D2,D3,PosX,PosY,PosZ
FMT, 138, 53, IMU2, QffffffIIfBBHH, TimeUS,GyrX,GyrY,GyrZ,AccX,AccY,AccZ,EG,EA,T,GH,AH,GHz,AHz
FMT, 147, 53, IMU3, QffffffIIfBBHH, TimeUS,GyrX,GyrY,GyrZ,AccX,AccY,AccZ,EG,EA,T,GH,AH,GHz,AHz
FMT, 141, 45, AHR2, QccCfLLffff, TimeUS,Roll,Pitch,Yaw,Alt,Lat,Lng,Q1,Q2,Q3,Q4
FMT, 180, 31, POS, QLLfff, TimeUS,Lat,Lng,Alt,RelHomeAlt,RelOriginAlt
FMT, 142, 45, SIM, QccCfLLffff, TimeUS,Roll,Pitch,Yaw,Alt,Lat,Lng,Q1,Q2,Q3,Q4
FMT, 198, 51, NKF1, QccCfffffffccc, TimeUS,Roll,Pitch,Yaw,VN,VE,VD,dPD,PN,PE,PD,GX,GY,GZ
FMT, 199, 35, NKF2, QbccccchhhhhhB, TimeUS,AZbias,GSX,GSY,GSZ,VWN,VWE,MN,ME,MD,MX,MY,MZ,MI
FMT, 200, 33, NKF3, Qcccccchhhcc, TimeUS,IVN,IVE,IVD,IPN,IPE,IPD,IMX,IMY,IMZ,IYAW,IVT
FMT, 201, 35, NKF4, QcccccfbbHBHHb, TimeUS,SV,SP,SH,SM,SVT,errRP,OFN,OFE,FS,TS,SS,GPS,PI
FMT, 202, 40, NKF5, QBhhhcccCCfff, TimeUS,NI,FIX,FIY,AFI,HAGL,offset,RI,rng,Herr,eAng,eVel,ePos
FMT, 203, 51, NKF6, QccCfffffffccc, TimeUS,Roll,Pitch,Yaw,VN,VE,VD,dPD,PN,PE,PD,GX,GY,GZ
FMT, 204, 35, NKF7, QbccccchhhhhhB, TimeUS,AZbias,GSX,GSY,GSZ,VWN,VWE,MN,ME,MD,MX,MY,MZ,MI
FMT, 205, 33, NKF8, Qcccccchhhcc, TimeUS,IVN,IVE,IVD,IPN,IPE,IPD,IMX,IMY,IMZ,IYAW,IVT
FMT, 206, 35, NKF9, QcccccfbbHBHHb, TimeUS,SV,SP,SH,SM,SVT,errRP,OFN,OFE,FS,TS,SS,GPS,PI
FMT, 207, 36, NKF0, QBccCCcccccccc, TimeUS,ID,rng,innov,SIV,TR,BPN,BPE,BPD,OFH,OFL,OFN,OFE,OFD
FMT, 208, 27, NKQ1, Qffff, TimeUS,Q1,Q2,Q3,Q4
FMT, 209, 27, NKQ2, Qffff, TimeUS,Q1,Q2,Q3,Q4
FMT, 210, 51, XKF1, QccCfffffffccc, TimeUS,Roll,Pitch,Yaw,VN,VE,VD,dPD,PN,PE,PD,GX,GY,GZ
FMT, 211, 34, XKF2, QccccchhhhhhB, TimeUS,AX,AY,AZ,VWN,VWE,MN,ME,MD,MX,MY,MZ,MI
FMT, 212, 33, XKF3, Qcccccchhhcc, TimeUS,IVN,IVE,IVD,IPN,IPE,IPD,IMX,IMY,IMZ,IYAW,IVT
FMT, 213, 35, XKF4, QcccccfbbHBHHb, TimeUS,SV,SP,SH,SM,SVT,errRP,OFN,OFE,FS,TS,SS,GPS,PI
FMT, 214, 40, XKF5, QBhhhcccCCfff, TimeUS,NI,FIX,FIY,AFI,HAGL,offset,RI,rng,Herr,eAng,eVel,ePos
FMT, 215, 51, XKF6, QccCfffffffccc, TimeUS,Roll,Pitch,Yaw,VN,VE,VD,dPD,PN,PE,PD,GX,GY,GZ
FMT, 216, 34, XKF7, QccccchhhhhhB, TimeUS,AX,AY,AZ,VWN,VWE,MN,ME,MD,MX,MY,MZ,MI
FMT, 217, 33, XKF8, Qcccccchhhcc, TimeUS,IVN,IVE,IVD,IPN,IPE,IPD,IMX,IMY,IMZ,IYAW,IVT
FMT, 218, 35, XKF9, QcccccfbbHBHHb, TimeUS,SV,SP,SH,SM,SVT,errRP,OFN,OFE,FS,TS,SS,GPS,PI
FMT, 219, 36, XKF0, QBccCCcccccccc, TimeUS,ID,rng,innov,SIV,TR,BPN,BPE,BPD,OFH,OFL,OFN,OFE,OFD
FMT, 220, 27, XKQ1, Qffff, TimeUS,Q1,Q2,Q3,Q4
FMT, 221, 27, XKQ2, Qffff, TimeUS,Q1,Q2,Q3,Q4
FMT, 222, 35, XKFD, Qffffff, TimeUS,IX,IY,IZ,IVX,IVY,IVZ
FMT, 148, 34, TERR, QBLLHffHH, TimeUS,Status,Lat,Lng,Spacing,TerrH,CHeight,Pending,Loaded
FMT, 149, 18, UBX1, QBHBBH, TimeUS,Instance,noisePerMS,jamInd,aPower,agcCnt
FMT, 150, 16, UBX2, QBbBbB, TimeUS,Instance,ofsI,magI,ofsQ,magQ
FMT, 151, 18, UBY1, QBHBBH, TimeUS,Instance,noisePerMS,jamInd,aPower,agcCnt
FMT, 152, 16, UBY2, QBbBbB, TimeUS,Instance,ofsI,magI,ofsQ,magQ
FMT, 170, 42, GRAW, QIHBBddfBbB, TimeUS,WkMS,Week,numSV,sv,cpMes,prMes,doMes,mesQI,cno,lli
FMT, 171, 24, GRXH, QdHbBB, TimeUS,rcvTime,week,leapS,numMeas,recStat
FMT, 172, 41, GRXS, QddfBBBHBBBBB, TimeUS,prMes,cpMes,doMes,gnss,sv,freq,lock,cno,prD,cpD,doD,trk
FMT, 173, 63, SBFE, QIHBBdddfffff, TimeUS,TOW,WN,Mode,Err,Lat,Lng,Height,Undul,Vn,Ve,Vu,COG
FMT, 153, 19, ESC1, Qcccc, TimeUS,RPM,Volt,Curr,Temp
FMT, 154, 19, ESC2, Qcccc, TimeUS,RPM,Volt,Curr,Temp
FMT, 155, 19, ESC3, Qcccc, TimeUS,RPM,Volt,Curr,Temp
FMT, 156, 19, ESC4, Qcccc, TimeUS,RPM,Volt,Curr,Temp
FMT, 157, 19, ESC5, Qcccc, TimeUS,RPM,Volt,Curr,Temp
FMT, 158, 19, ESC6, Qcccc, TimeUS,RPM,Volt,Curr,Temp
FMT, 159, 19, ESC7, Qcccc, TimeUS,RPM,Volt,Curr,Temp
FMT, 160, 19, ESC8, Qcccc, TimeUS,RPM,Volt,Curr,Temp
FMT, 167, 34, MAG2, QhhhhhhhhhBI, TimeUS,MagX,MagY,MagZ,OfsX,OfsY,OfsZ,MOfsX,MOfsY,MOfsZ,Health,S
FMT, 168, 34, MAG3, QhhhhhhhhhBI, TimeUS,MagX,MagY,MagZ,OfsX,OfsY,OfsZ,MOfsX,MOfsY,MOfsZ,Health,S
FMT, 174, 31, ACC1, QQfff, TimeUS,SampleUS,AccX,AccY,AccZ
FMT, 175, 31, ACC2, QQfff, TimeUS,SampleUS,AccX,AccY,AccZ
FMT, 176, 31, ACC3, QQfff, TimeUS,SampleUS,AccX,AccY,AccZ
FMT, 177, 31, GYR1, QQfff, TimeUS,SampleUS,GyrX,GyrY,GyrZ
FMT, 178, 31, GYR2, QQfff, TimeUS,SampleUS,GyrX,GyrY,GyrZ
FMT, 179, 31, GYR3, QQfff, TimeUS,SampleUS,GyrX,GyrY,GyrZ
FMT, 181, 35, PIDR, Qffffff, TimeUS,Des,P,I,D,FF,AFF
FMT, 182, 35, PIDP, Qffffff, TimeUS,Des,P,I,D,FF,AFF
FMT, 183, 35, PIDY, Qffffff, TimeUS,Des,P,I,D,FF,AFF
FMT, 184, 35, PIDA, Qffffff, TimeUS,Des,P,I,D,FF,AFF
FMT, 185, 35, PIDS, Qffffff, TimeUS,Des,P,I,D,FF,AFF
FMT, 186, 35, PIDL, Qffffff, TimeUS,Des,P,I,D,FF,AFF
FMT, 161, 37, BAR2, QffcfIff, TimeUS,Alt,Press,Temp,CRt,SMS,Offset,GndTemp
FMT, 197, 37, BAR3, QffcfIff, TimeUS,Alt,Press,Temp,CRt,SMS,Offset,GndTemp
FMT, 187, 35, VIBE, QfffIII, TimeUS,VibeX,VibeY,VibeZ,Clip0,Clip1,Clip2
FMT, 188, 47, IMT, Qfffffffff, TimeUS,DelT,DelvT,DelaT,DelAX,DelAY,DelAZ,DelVX,DelVY,DelVZ
FMT, 189, 47, IMT2, Qfffffffff, TimeUS,DelT,DelvT,DelaT,DelAX,DelAY,DelAZ,DelVX,DelVY,DelVZ
FMT, 190, 47, IMT3, Qfffffffff, TimeUS,DelT,DelvT,DelaT,DelAX,DelAY,DelAZ,DelVX,DelVY,DelVZ
FMT, 191, 24, ORGN, QBLLe, TimeUS,Type,Lat,Lng,Alt
FMT, 192, 19, RPM, Qff, TimeUS,rpm1,rpm2
FMT, 233, 47, GMB1, Iffffffffff, TimeMS,dt,dax,day,daz,dvx,dvy,dvz,jx,jy,jz
FMT, 234, 44, GMB2, IBfffffffff, TimeMS,es,ex,ey,ez,rx,ry,rz,tx,ty,tz
FMT, 235, 13, GMB3, Ihhh, TimeMS,rl_torque_cmd,el_torque_cmd,az_torque_cmd
FMT, 236, 59, RATE, Qffffffffffff, TimeUS,RDes,R,ROut,PDes,P,POut,YDes,Y,YOut,ADes,A,AOut
FMT, 237, 23, RALY, QBBLLh, TimeUS,Tot,Seq,Lat,Lng,Alt
FMT, 238, 43, VISO, Qffffffff, TimeUS,dt,AngDX,AngDY,AngDZ,PosDX,PosDY,PosDZ,conf
FMT, 224, 23, SBPH, QIII, TimeUS,CrcError,LastInject,IARhyp
FMT, 229, 80, SBR1, QHHBZ, TimeUS,msg_type,sender_id,msg_len,d1
FMT, 230, 205, SBR2, QHZZZ, TimeUS,msg_type,d2,d3,d4
FMT, 25, 41, ATUN, QBBfffffff, TimeUS,Axis,TuneStep,Targ,Min,Max,RP,RD,SP,ddt
FMT, 26, 19, ATDE, Qff, TimeUS,Angle,Rate
FMT, 31, 22, PTUN, QBfHHH, TimeUS,Param,TunVal,CtrlIn,TunLo,TunHi
FMT, 12, 28, OF, QBffff, TimeUS,Qual,flowX,flowY,bodyX,bodyY
FMT, 5, 51, NTUN, Qffffffffff, TimeUS,DPosX,DPosY,PosX,PosY,DVelX,DVelY,VelX,VelY,DAccX,DAccY
FMT, 4, 51, CTUN, Qffffffeccfhh, TimeUS,ThI,ABst,ThO,ThH,DAlt,Alt,BAlt,DSAlt,SAlt,TAlt,DCRt,CRt
FMT, 6, 32, PM, QHHIhBHII, TimeUS,NLon,NLoop,MaxT,PMT,I2CErr,INSErr,LogDrop,Mem
FMT, 30, 27, MOTB, Qffff, TimeUS,LiftMax,BatVolt,BatRes,ThLimit
FMT, 13, 12, EV, QB, TimeUS,Id
FMT, 20, 14, D16, QBh, TimeUS,Id,Value
FMT, 21, 14, DU16, QBH, TimeUS,Id,Value
FMT, 22, 16, D32, QBi, TimeUS,Id,Value
FMT, 23, 16, DU32, QBI, TimeUS,Id,Value
FMT, 24, 16, DFLT, QBf, TimeUS,Id,Value
FMT, 19, 13, ERR, QBB, TimeUS,Subsys,ECode
FMT, 32, 19, HELI, Qff, TimeUS,DRRPM,ERRPM
FMT, 33, 29, PL, QBBffff, TimeUS,Heal,TAcq,pX,pY,vX,vY
FMT, 34, 36, GUID, QBffffff, TimeUS,Type,pX,pY,pZ,vX,vY,vZ
FMT, 35, 32, THRO, QBffffbbbb, TimeUS,Stage,Vel,VelZ,Acc,AccEfZ,Throw,AttOk,HgtOk,PosOk
FMT, 36, 56, PRX, QBfffffffffff, TimeUS,Health,D0,D45,D90,D135,D180,D225,D270,D315,DUp,CAn,CDis
MODE, 43012593, 100, 100, 2
EV, 43012905, 15
FMT, 254, 47, NKT1, QIffffffff, TimeUS,Cnt,IMUMin,IMUMax,EKFMin,EKFMax,AngMin,AngMax,VelMin,VelM
FMT, 253, 31, CTRL, Qfffff, TimeUS,RMSRollP,RMSRollD,RMSPitchP,RMSPitchD,RMSYaw
MSG, 43139007, APM:Copter V3.5.7 (38483450)
MSG, 43139012, New mission
MSG, 43139022, Frame: QUAD
MODE, 43139027, Autonomous, 100, 2
IMU, 43153689, -2.894931E-05, -0.0006411874, -0.0007674181, 0.2067131, -0.02235211, -9.822936, 0, 0, 32.37114, 1, 1, 1000, 1000
MAG, 43173723, 397, 504, 342, 0, 0, 0, 0, 0, 0, 1, 43173715
RFND, 43173754, 0.2, 25, 0, 0
BARO, 43173793, 0.2100644, 993.2469, 30.33, 0.05486284, 43173, 0, 28.27
CTUN, 43173806, 0, 0, 0, 0.2160927, 0.07204696, 0.07204696, 0.21, 0, 0.19, 0, 0, 0
ATT, 43173975, 0, 0.65, 0, 0.33, 139.31, 139.32, 0, 1
RATE, 43173981, -2.963963, -0.06956199, -0.006467272, -1.494218, -0.01328332, -0.003765111, 0.009975948, -0.06944713, 0.0002010011, 43.95098, -1.116943, 0
NKF1, 43173988, 0.65, 0.33, 139.32, -0.04566532, 0.03710363, 0.001085209, 0, 0, 0, -0.07204696, 0, 0.02, 0.03
NKF2, 43173988, -2, 0, 0, 0, 0, 0, 0, 0, 0, 0, 0, 0, 0
NKF3, 43173988, 0, 0, 0, -0.06, 0.05, 0, 0, 0, 0, 0, 0
NKF4, 43173988, 0, 0.02, 0, 0, 0, 0.0002390982, 0, 0, 0, 19, 229, 0, 0
NKF5, 43173988, 0, 0, 0, 0, 0.2, 0.13, 0, 0.19, 0.5, 0.0005793996, 0.006113365, 0.01412911
NKQ1, 43173988, 0.3475274, -0.008750363, 0.004528915, 0.9376181
AHR2, 43174489, 0.72, 0.31, 141.07, 0.21, 0, 0, 0.3331792, -0.0005270233, 0.006856014, 0.9428385
MOTB, 43174499, 1, 1, 0, 1
RCIN, 43174505, 0, 0, 0, 0, 0, 0, 0, 0, 0, 0, 0, 0, 0, 0
RCOU, 43174511, 1101, 1101, 1101, 1101, 0, 0, 0, 0, 0, 0, 0, 0, 0, 0
VIBE, 43174519, 0.01862086, 0.02009481, 0.03105619, 0, 0, 0
CTRL, 43174525, 0.007006683, 0.0001554088, 0.003311268, 0.0001715402, 0.0002082938
PRX, 43174557, 2, 0.52, 0, 0.65, 0, 3.6, 0, 2.39, 0, 0, 0, 0.52
IMU, 43193743, 0.000853884, 0.000387802, -0.0005065111, 0.2181208, -0.01806317, -9.826959, 0, 0, 32.37114, 1, 1, 1000, 1000
RFND, 43223595, 0.2, 25, 0, 0
IMU, 43233852, -0.0008383271, 0.000433133, -0.0008206598, 0.2207334, -0.00976118, -9.847253, 0, 0, 32.37129, 1, 1, 1000, 1000
MAG, 43273683, 396, 501, 340, 0, 0, 0, 0, 0, 0, 1, 43273675
RFND, 43273715, 0.2, 25, 0, 0
BARO, 43273753, 0.2321765, 993.2442, 30.34, -0.02817437, 43273, 0, 28.27
CTUN, 43273766, 0, 0, 0, 0.2160927, 0.07148871, 0.07148871, 0.23, 0, 0.19, 0, 0, 0
ATT, 43273868, 0, 0.65, 0, 0.33, 139.31, 139.32, 0, 1
RATE, 43273874, -2.968422, -0.03047317, -0.006880426, -1.503915, -0.04305591, -0.003281868, 0.007563164, -0.05770037, 0.0002178957, 37.60124, -0.7323265, 0
NKF1, 43273881, 0.65, 0.33, 139.32, -0.04521104, 0.0361836, 0.0009284256, 0, 0, 0, -0.07148871, 0, 0.02, 0.03
NKF2, 43273881, -2, 0, 0, 0, 0, 0, 0, 0, 0, 0, 0, 0, 0
NKF3, 43273881, 0, 0, 0, -0.06, 0.04, 0, 0, 0, 0, 0, 0
NKF4, 43273881, 0, 0, 0, 0, 0, 0.0001659066, 0, 0, 0, 19, 229, 0, 0
NKF5, 43273881, 0, 0, 0, 0, 0.2, 0.13, 0, 0.19, 0.5, 0.0004498763, 0.009303085, 0.02003394
NKQ1, 43273881, 0.34758, -0.00876481, 0.004542158, 0.9375983
AHR2, 43273925, 0.72, 0.31, 141.07, 0.23, 0, 0, 0.3332033, -0.0005065781, 0.006870854, 0.9428298
MOTB, 43273933, 1, 1, 0, 1
RCIN, 43273937, 0, 0, 0, 0, 0, 0, 0, 0, 0, 0, 0, 0, 0, 0
RCOU, 43273943, 1101, 1101, 1101, 1101, 0, 0, 0, 0, 0, 0, 0, 0, 0, 0
VIBE, 43273951, 0.01996927, 0.02143335, 0.03054552, 0, 0, 0
CTRL, 43273958, 0.007001495, 0.0001813406, 0.003371514, 0.0001654364, 0.0002175133
PRX, 43273989, 2, 0.53, 0, 0.65, 0, 3.6, 0, 2.39, 0, 0, 0, 0.53
IMU, 43273996, -0.0006853883, -0.0002623674, -0.0004601636, 0.2221083, -0.02506358, -9.81892, 0, 0, 32.37121, 1, 1, 1000, 1000
IMU, 43313799, -0.000348958, -0.0002406667, 0.0003430887, 0.2158738, -0.01959735, -9.817532, 0, 0, 32.37132, 1, 1, 1000, 1000
RFND, 43323593, 0.2, 25, 0, 0
IMU, 43353792, -0.0008168871, -0.0005372222, 0.0002476954, 0.2165137, -0.02341089, -9.810508, 0, 0, 32.37125, 1, 1, 1000, 1000
MAG, 43373665, 395, 504, 340, 0, 0, 0, 0, 0, 0, 1, 43373657
RFND, 43373695, 0.2, 25, 0, 0
BARO, 43373733, 0.3068046, 993.236, 30.34, -0.08926386, 43373, 0, 28.27
CTUN, 43373747, 0, 0, 0, 0.2160927, 0.07098962, 0.07098962, 0.3, 0, 0.19, 0, 0, 0
ATT, 43373906, 0, 0.65, 0, 0.33, 139.3, 139.31, 0, 1
RATE, 43373912, -2.96581, 0.05570628, -0.00732612, -1.506434, -0.02954067, -0.00347022, 0.009222925, -0.1032659, 0.0001826586, 101.4137, -2.258682, 0
NKF1, 43373919, 0.65, 0.33, 139.31, -0.04513138, 0.03588534, 0.002504042, 0, 0, 0, -0.07098962, 0, 0.02, 0.03
NKF2, 43373919, -2, 0, 0, 0, 0, 0, 0, 0, 0, 0, 0, 0, 0
NKF3, 43373919, 0, 0, 0, -0.07, 0.05, 0, 0, 0, 0, 0, 0
NKF4, 43373919, 0, 0, 0, 0, 0, 0.000109026, 0, 0, 0, 19, 229, 0, 0
NKF5, 43373919, 0, 0, 0, 0, 0.2, 0.13, 0, 0.19, 0.5, 0.0003135018, 0.01140859, 0.02416345
NKQ1, 43373919, 0.3476202, -0.008769832, 0.004539687, 0.9375834
AHR2, 43373962, 0.72, 0.31, 141.07, 0.3, 0, 0, 0.3332154, -0.0004942013, 0.006872305, 0.9428256
MOTB, 43373969, 1, 1, 0, 1
RCIN, 43373975, 0, 0, 0, 0, 0, 0, 0, 0, 0, 0, 0, 0, 0, 0
RCOU, 43373980, 1101, 1101, 1101, 1101, 0, 0, 0, 0, 0, 0, 0, 0, 0, 0
VIBE, 43373988, 0.02002592, 0.02127961, 0.02957058, 0, 0, 0
CTRL, 43373995, 0.006989029, 0.0001803135, 0.003394224, 0.000150481, 0.0002038847
PRX, 43374026, 2, 0.52, 0, 0.65, 0, 3.6, 0, 2.42, 0, 0, 0, 0.52
IMU, 43393662, 0.0002679038, 0.0006096641, 2.813733E-05, 0.2209145, -0.01256864, -9.828928, 0, 0, 32.37116, 1, 1, 1000, 1000
RFND, 43423672, 0.2, 25, 0, 0
IMU, 43433863, -0.001425057, 0.0002854482, 0.0001090649, 0.2255956, -0.02645536, -9.828403, 0, 0, 32.37122, 1, 1, 1000, 1000
MAG, 43473566, 391, 503, 339, 0, 0, 0, 0, 0, 0, 1, 43473558
RFND, 43473596, 0.2, 25, 0, 0
BARO, 43473633, 0.2957486, 993.2371, 30.35, 0.01594314, 43473, 0, 28.27
CTUN, 43473646, 0, 0, 0, 0.2160927, 0.07035103, 0.07035103, 0.29, 0, 0.19, 0, 0, 0
ATT, 43473746, 0, 0.65, 0, 0.33, 139.3, 139.31, 0, 1
RATE, 43473751, -2.961898, 0.06351877, -0.007379987, -1.516744, 0.04847454, -0.003813338, 0.009591806, -0.1125444, 0.0001905325, 115.2364, -0.9361267, 0
NKF1, 43473759, 0.65, 0.33, 139.31, -0.04621561, 0.03646689, 0.002845343, 0, 0, 0, -0.07035103, 0, 0.02, 0.03
NKF2, 43473759, -2, 0, 0, 0, 0, 0, 0, 0, 0, 0, 0, 0, 0
NKF3, 43473759, 0, 0, 0, -0.07, 0.05, 0, 0, 0, 0, 0, 0
NKF4, 43473759, 0, 0, 0, 0, 0, 7.296573E-05, 0, 0, 0, 19, 229, 0, 0
NKF5, 43473759, 0, 0, 0, 0, 0.2, 0.13, 0, 0.19, 0.5, 0.0002052732, 0.01278562, 0.02706355
NKQ1, 43473759, 0.3476627, -0.008790849, 0.004540574, 0.9375675
AHR2, 43473802, 0.72, 0.31, 141.07, 0.29, 0, 0, 0.33323, -0.0005104502, 0.006880055, 0.9428203
MOTB, 43473809, 1, 1, 0, 1
RCIN, 43473814, 0, 0, 0, 0, 0, 0, 0, 0, 0, 0, 0, 0, 0, 0
RCOU, 43473819, 1101, 1101, 1101, 1101, 0, 0, 0, 0, 0, 0, 0, 0, 0, 0
VIBE, 43473827, 0.0214099, 0.01982806, 0.02939186, 0, 0, 0
CTRL, 43473834, 0.006974722, 0.0001751789, 0.003442065, 0.000148122, 0.0001960068
PRX, 43473865, 2, 0.52, 0, 0.65, 0, 3.6, 0, 2.34, 0, 0, 0, 0.52
IMU, 43473872, 0.0009544744, 0.001337048, -0.001415185, 0.2110836, -0.01746554, -9.817209, 0, 0, 32.37132, 1, 1, 1000, 1000
IMU, 43513706, -0.001168793, 0.0003256536, 0.0001819178, 0.2188435, -0.02366005, -9.805819, 0, 0, 32.37125, 1, 1, 1000, 1000
RFND, 43523585, 0.2, 25, 0, 0
IMU, 43553761, -0.0005415967, 0.0003139146, 0.0005327688, 0.2268776, -0.02525216, -9.853491, 0, 0, 32.37116, 1, 1, 1000, 1000
MAG, 43573722, 399, 507, 339, 0, 0, 0, 0, 0, 0, 1, 43573714
RFND, 43573753, 0.2, 25, 0, 0
BARO, 43573793, 0.3233887, 993.2341, 30.35, 0.2104874, 43573, 0, 28.27
CTUN, 43573806, 0, 0, 0, 0.2160927, 0.06974463, 0.06974463, 0.32, 0, 0.19, 0, 0, 0
ATT, 43574922, 0, 0.65, 0, 0.33, 139.29, 139.3, 0, 1
RATE, 43574930, -2.96218, 0.01369281, -0.007022304, -1.518807, -0.007119013, -0.003544795, 0.009791594, -0.04484652, 0.0001307386, 114.4274, 0.256443, 0
NKF1, 43574940, 0.65, 0.33, 139.3, -0.04742055, 0.03723048, 0.002825368, 0, 0, 0, -0.06974463, 0, 0.02, 0.03
NKF2, 43574940, -2, 0, 0, 0, 0, 0, 0, 0, 0, 0, 0, 0, 0
NKF3, 43574940, 0, 0, 0, -0.08, 0.06, 0, 0, 0, 0, 0, 0
NKF4, 43574940, 0, 0, 0, 0, 0, 4.915963E-05, 0, 0, 0, 19, 229, 0, 0
NKF5, 43574940, 0, 0, 0, 0, 0.2, 0.13, 0, 0.19, 0.5, 0.0001231922, 0.01355465, 0.02881163
NKQ1, 43574940, 0.3476883, -0.008795979, 0.004542636, 0.9375579
AHR2, 43574990, 0.72, 0.31, 141.07, 0.32, 0, 0, 0.3332284, -0.0005173515, 0.006892154, 0.9428208
MOTB, 43574999, 1, 1, 0, 1
RCIN, 43575004, 0, 0, 0, 0, 0, 0, 0, 0, 0, 0, 0, 0, 0, 0
RCOU, 43575009, 1101, 1101, 1101, 1101, 0, 0, 0, 0, 0, 0, 0, 0, 0, 0
VIBE, 43575017, 0.02079234, 0.01674173, 0.0359154, 0, 0, 0
CTRL, 43575051, 0.006978672, 0.0001883844, 0.003479609, 0.0001652607, 0.0001900281
PRX, 43575084, 2, 0.52, 0, 0.65, 0, 3.6, 0, 2.37, 0, 0, 0, 0.52
IMU, 43593860, 0.0004409988, -0.0001717935, -0.0003517546, 0.2172168, -0.01928775, -9.819157, 0, 0, 32.37123, 1, 1, 1000, 1000
RFND, 43623909, 0.2, 25, 0, 0
IMU, 43634496, -0.0009370046, -3.023982E-05, 7.830681E-05, 0.2136737, -0.02628651, -9.825106, 0, 0, 32.37132, 1, 1, 1000, 1000
MAG, 43673675, 392, 500, 339, 0, 0, 0, 0, 0, 0, 1, 43673667
RFND, 43673705, 0.2, 25, 0, 0
BARO, 43673743, 0.2128284, 993.2466, 30.35, 0.2254392, 43673, 0, 28.27
CTUN, 43673755, 0, 0, 0, 0.2160927, 0.06917114, 0.06917114, 0.21, 0, 0.19, 0, 0, 0
ATT, 43673858, 0, 0.65, 0, 0.33, 139.29, 139.3, 0, 1
RATE, 43673864, -2.968539, 0.04659512, -0.007330969, -1.506322, 0.00982526, -0.003857812, 0.009745405, -0.07257891, 0.0001598331, 130.5453, -2.006721, 0
NKF1, 43673872, 0.65, 0.33, 139.3, -0.04883387, 0.0388104, 0.003223342, 0, 0, 0, -0.06917114, 0, 0.02, 0.03
NKF2, 43673872, -2, 0, 0, 0, 0, 0, 0, 0, 0, 0, 0, 0, 0
NKF3, 43673872, 0, 0, 0, -0.08, 0.06, 0, 0, 0, 0, 0, 0
NKF4, 43673872, 0, 0, 0, 0, 0, 3.329987E-05, 0, 0, 0, 19, 229, 0, 0
NKF5, 43673872, 0, 0, 0, 0, 0.2, 0.13, 0, 0.19, 0.5, 6.7017E-05, 0.01397232, 0.02983904
NKQ1, 43673872, 0.3477302, -0.008768045, 0.004545777, 0.9375426
AHR2, 43673917, 0.72, 0.31, 141.06, 0.21, 0, 0, 0.3332432, -0.0004982978, 0.006907717, 0.9428155
MOTB, 43673925, 1, 1, 0, 1
RCIN, 43673929, 0, 0, 0, 0, 0, 0, 0, 0, 0, 0, 0, 0, 0, 0
RCOU, 43673935, 1101, 1101, 1101, 1101, 0, 0, 0, 0, 0, 0, 0, 0, 0, 0
VIBE, 43673943, 0.01946342, 0.01954877, 0.03321938, 0, 0, 0
CTRL, 43673950, 0.006985216, 0.0001827356, 0.003468472, 0.0001592608, 0.0001802871
PRX, 43673980, 2, 0.52, 0, 0.65, 0, 3.6, 0, 2.39, 0, 0, 0, 0.52
IMU, 43673988, 0.0006592937, 0.0006618455, -0.0007183135, 0.2271792, -0.03558034, -9.80612, 0, 0, 32.37125, 1, 1, 1000, 1000
IMU, 43714245, 0.0003101478, -0.0001064008, -3.005854E-05, 0.21079, -0.02365543, -9.815547, 0, 0, 32.37116, 1, 1, 1000, 1000
RFND, 43723953, 0.2, 25, 0, 0
IMU, 43753932, -0.000339923, -0.001142483, -0.0006415629, 0.2260292, -0.02321164, -9.815383, 0, 0, 32.3712, 1, 1, 1000, 1000
MAG, 43774067, 393, 499, 339, 0, 0, 0, 0, 0, 0, 1, 43774059
RFND, 43774099, 0.2, 25, 0, 0
BARO, 43774138, 0.2542885, 993.2418, 30.36, 0.01552455, 43774, 0, 28.27
CTUN, 43774150, 0, 0, 0, 0.2160927, 0.06856753, 0.06856753, 0.25, 0, 0.19, 0, 0, 0
ATT, 43774258, 0, 0.66, 0, 0.33, 139.28, 139.29, 0, 1
RATE, 43774264, -2.980423, 0.07999833, -0.007662422, -1.487974, -0.05942303, -0.003348411, 0.009145899, -0.05193779, 0.0002209378, 167.6253, -1.160336, 0
NKF1, 43774271, 0.66, 0.33, 139.29, -0.05105583, 0.04065616, 0.004138897, 0, 0, 0, -0.06856753, 0, 0.02, 0.03
NKF2, 43774271, -2, 0, 0, 0, 0, 0, 0, 0, 0, 0, 0, 0, 0
NKF3, 43774271, 0, 0, 0, -0.09, 0.06, 0, 0, 0, 0, 0, 0
NKF4, 43774271, 0, 0, 0, 0, 0, 2.273441E-05, 0, 0, 0, 19, 229, 0, 0
NKF5, 43774271, 0, 0, 0, 0, 0.2, 0.13, 0, 0.19, 0.5, 3.844127E-05, 0.01403794, 0.03012899
NKQ1, 43774271, 0.3477837, -0.008727094, 0.004557007, 0.9375232
AHR2, 43774316, 0.73, 0.31, 141.06, 0.25, 0, 0, 0.33327, -0.0004703968, 0.006937744, 0.9428058
MOTB, 43774323, 1, 1, 0, 1
RCIN, 43774327, 0, 0, 0, 0, 0, 0, 0, 0, 0, 0, 0, 0, 0, 0
RCOU, 43774333, 1101, 1101, 1101, 1101, 0, 0, 0, 0, 0, 0, 0, 0, 0, 0
VIBE, 43774430, 0.01918234, 0.01879906, 0.02948984, 0, 0, 0
CTRL, 43774436, 0.007007053, 0.0001815607, 0.003463185, 0.0001682254, 0.0001892662
PRX, 43774468, 2, 0.52, 0, 0.65, 0, 3.6, 0, 2.4, 0, 0, 0, 0.52
IMU, 43793785, 0.0002389703, 0.0005614783, 0.0001755854, 0.2190857, -0.01600908, -9.838622, 0, 0, 32.37169, 1, 1, 1000, 1000
RFND, 43823775, 0.2, 25, 0, 0
IMU, 43833952, 0.001507375, -0.0002558041, 0.0001935221, 0.2107267, -0.03669432, -9.828068, 0, 0, 32.37199, 1, 1, 1000, 1000
MAG, 43873721, 394, 505, 342, 0, 0, 0, 0, 0, 0, 1, 43873713
RFND, 43873752, 0.2, 25, 0, 0
BARO, 43873789, 0.3150966, 993.235, 30.36, -0.1691317, 43873, 0, 28.27
CTUN, 43873802, 0, 0, 0, 0.2160927, 0.06800985, 0.06800985, 0.31, 0, 0.19, 0, 0, 0
DU32, 43873841, 7, 50356728
ATT, 43873982, 0, 0.66, 0, 0.32, 139.28, 139.28, 0, 1
RATE, 43873988, -2.996598, -0.01078347, -0.006712236, -1.484777, -0.01720473, -0.003564457, 0.01103598, -0.118077, 0.0001964039, 131.8096, 0.1182556, 0
NKF1, 43873996, 0.66, 0.32, 139.28, -0.05326294, 0.04243742, 0.003254558, 0, 0, 0, -0.06800985, 0, 0.02, 0.03
NKF2, 43873996, -2, 0, 0, 0, 0, 0, 0, 0, 0, 0, 0, 0, 0
NKF3, 43873996, 0, 0, 0, -0.09, 0.06, 0, 0, 0, 0, 0, 0
NKF4, 43873996, 0, 0, 0, 0, 0, 1.575952E-05, 0, 0, 0, 19, 229, 0, 0
NKF5, 43873996, 0, 0, 0, 0, 0.2, 0.13, 0, 0.19, 0.5, 3.005873E-05, 0.0139672, 0.03009222
NKQ1, 43873996, 0.347831, -0.008708361, 0.004583784, 0.9375057
AHR2, 43874040, 0.73, 0.31, 141.06, 0.31, 0, 0, 0.3332909, -0.0004675725, 0.006984321, 0.942798
MOTB, 43874048, 1, 1, 0, 1
RCIN, 43874052, 0, 0, 0, 0, 0, 0, 0, 0, 0, 0, 0, 0, 0, 0
RCOU, 43874057, 1101, 1101, 1101, 1101, 0, 0, 0, 0, 0, 0, 0, 0, 0, 0
VIBE, 43874066, 0.01904105, 0.01966253, 0.03425198, 0, 0, 0
CTRL, 43874072, 0.007061087, 0.0001688213, 0.003462722, 0.0001715649, 0.0001886947
PRX, 43874102, 2, 0.53, 0, 0.65, 0, 3.6, 0, 2.39, 0, 0, 0, 0.53
IMU, 43874110, -0.0003427335, 0.0001918938, -0.001510299, 0.2216325, -0.02271128, -9.827604, 0, 0, 32.37209, 1, 1, 1000, 1000
IMU, 43914099, -0.0006538711, -0.0007258959, 1.792317E-05, 0.2202175, -0.02846849, -9.812662, 0, 0, 32.3725, 1, 1, 1000, 1000
RFND, 43923772, 0.2, 25, 0, 0
IMU, 43954303, 0.0001779603, 0.0001547428, 0.0009919116, 0.2146084, -0.03181605, -9.843767, 0, 0, 32.37293, 1, 1, 1000, 1000
MAG, 43974016, 395, 498, 339, 0, 0, 0, 0, 0, 0, 1, 43974007
RFND, 43974512, 0.2, 25, 0, 0
BARO, 43974556, 0.2377045, 993.2438, 30.36, -0.1048046, 43974, 0, 28.27
CTUN, 43974571, 0, 0, 0, 0.2160927, 0.06752878, 0.06752878, 0.23, 0, 0.19, 0, 0, 0
ATT, 43974731, 0, 0.66, 0, 0.32, 139.27, 139.28, 0, 1
RATE, 43974737, -2.997461, -0.00129491, -0.007120545, -1.464173, -0.02414122, -0.003414919, 0.008976645, -0.01698684, 0.0001490207, 114.599, 0.3170967, 0
NKF1, 43974744, 0.66, 0.32, 139.28, -0.05514476, 0.04452746, 0.002829604, 0, 0, 0, -0.06752878, 0, 0.02, 0.03
NKF2, 43974744, -2, 0, 0, 0, 0, 0, 0, 0, 0, 0, 0, 0, 0
NKF3, 43974744, 0, 0, 0, -0.1, 0.07, 0, 0, 0, 0, 0, 0
NKF4, 43974744, 0, 0, 0, 0, 0, 1.119205E-05, 0, 0, 0, 19, 229, 0, 0
NKF5, 43974744, 0, 0, 0, 0, 0.2, 0.13, 0, 0.19, 0.5, 2.980758E-05, 0.0136676, 0.0295549
NKQ1, 43974744, 0.3478654, -0.008672806, 0.004572772, 0.9374932
AHR2, 43974786, 0.73, 0.31, 141.06, 0.23, 0, 0, 0.3332989, -0.0004520242, 0.00699223, 0.9427952
MOTB, 43974794, 1, 1, 0, 1
RCIN, 43974798, 0, 0, 0, 0, 0, 0, 0, 0, 0, 0, 0, 0, 0, 0
RCOU, 43974804, 1101, 1101, 1101, 1101, 0, 0, 0, 0, 0, 0, 0, 0, 0, 0
VIBE, 43974812, 0.01831706, 0.0224144, 0.03259128, 0, 0, 0
CTRL, 43974819, 0.007054026, 0.0001833396, 0.003431022, 0.0001565121, 0.0002034382
PRX, 43974850, 2, 0.53, 0, 0.65, 0, 3.6, 0, 2.38, 0, 0, 0, 0.53
IMU, 43993664, 0.0002594673, 0.0007489391, -0.0001195466, 0.2128386, -0.01557989, -9.852391, 0, 0, 32.37308, 1, 1, 1000, 1000
RFND, 44024001, 0.2, 25, 0, 0
IMU, 44034122, 0.0004487577, 0.0002983849, -0.001188151, 0.2034859, -0.02859548, -9.825148, 0, 0, 32.3737, 1, 1, 1000, 1000
MAG, 44073607, 396, 500, 339, 0, 0, 0, 0, 0, 0, 1, 44073598
RFND, 44073637, 0.2, 25, 0, 0
BARO, 44073674, 0.1520203, 993.2534, 30.37, 0.008040843, 44073, 0, 28.27
CTUN, 44073685, 0, 0, 0, 0.2160927, 0.06717736, 0.06717736, 0.15, 0, 0.19, 0, 0, 0
ATT, 44073987, 0, 0.66, 0, 0.32, 139.26, 139.27, 0, 1
RATE, 44073993, -2.992732, -0.03847425, -0.006929693, -1.468434, -0.02331885, -0.003335632, 0.01057496, -0.09154263, 0.0003163271, 98.53867, -1.087666, 0
NKF1, 44074001, 0.66, 0.32, 139.27, -0.05764611, 0.04578363, 0.002433053, 0, 0, 0, -0.06717736, 0, 0.02, 0.03
NKF2, 44074001, -2, 0, 0, 0, 0, 0, 0, 0, 0, 0, 0, 0, 0
NKF3, 44074001, 0, 0, 0, -0.1, 0.07, 0, 0, 0, 0, 0, 0
NKF4, 44074001, 0, 0, 0, 0, 0, 8.174213E-06, 0, 0, 0, 19, 229, 0, 0
NKF5, 44074001, 0, 0, 0, 0, 0.2, 0.13, 0, 0.19, 0.5, 2.965571E-05, 0.01336095, 0.0289513
NKQ1, 44074001, 0.3479455, -0.008681357, 0.004566555, 0.9374635
AHR2, 44074045, 0.73, 0.31, 141.05, 0.15, 0, 0, 0.3333528, -0.0004815746, 0.00700364, 0.942776
MOTB, 44074052, 1, 1, 0, 1
RCIN, 44074056, 0, 0, 0, 0, 0, 0, 0, 0, 0, 0, 0, 0, 0, 0
RCOU, 44074061, 1101, 1101, 1101, 1101, 0, 0, 0, 0, 0, 0, 0, 0, 0, 0
VIBE, 44074070, 0.02066649, 0.01955919, 0.03196348, 0, 0, 0
CTRL, 44074075, 0.007050651, 0.000185804, 0.003446235, 0.0001544497, 0.0002099193
PRX, 44074105, 2, 0.52, 0, 0.66, 0, 3.6, 0, 2.38, 0, 0, 0, 0.52
IMU, 44074113, -0.0008259222, 8.478775E-05, -0.001047529, 0.2142119, -0.01287829, -9.815701, 0, 0, 32.37469, 1, 1, 1000, 1000
IMU, 44113752, 0.0007899313, -0.001511619, -0.001038292, 0.2180273, -0.01611988, -9.824224, 0, 0, 32.37548, 1, 1, 1000, 1000
RFND, 44123729, 0.2, 25, 0, 0
IMU, 44154078, -0.0003335335, -0.0001514207, -0.0004379348, 0.2167283, -0.02843136, -9.817532, 0, 0, 32.37624, 1, 1, 1000, 1000
MAG, 44173558, 396, 506, 343, 0, 0, 0, 0, 0, 0, 1, 44173551
RFND, 44173588, 0.2, 25, 0, 0
BARO, 44173624, 0.1022682, 993.2589, 30.37, -0.1710229, 44173, 0, 28.27
CTUN, 44173637, 0, 0, 0, 0.2160927, 0.0668119, 0.0668119, 0.1, 0, 0.19, 0, 0, 0
ATT, 44173733, 0, 0.66, 0, 0.31, 139.25, 139.26, 0, 1
RATE, 44173739, -3.00031, 0.03357551, -0.007303379, -1.439134, -0.02508032, -0.003449354, 0.0105441, -0.1390035, 0.0002691473, 124.693, -1.850128, 0
NKF1, 44173747, 0.66, 0.31, 139.26, -0.06029886, 0.0474087, 0.003078839, 0, 0, 0, -0.0668119, 0, 0.02, 0.03
NKF2, 44173747, -2, 0, 0, 0, 0, 0, 0, 0, 0, 0, 0, 0, 0
NKF3, 44173747, 0, 0, 0, -0.11, 0.08, 0, 0, 0, 0, 0, 0
NKF4, 44173747, 0, 0, 0, 0, 0, 6.360068E-06, 0, 0, 0, 19, 229, 0, 0
NKF5, 44173747, 0, 0, 0, 0, 0.2, 0.13, 0, 0.19, 0.5, 2.929634E-05, 0.01289519, 0.02798313
NKQ1, 44173747, 0.3480082, -0.008621598, 0.004562361, 0.9374408
AHR2, 44173790, 0.74, 0.31, 141.05, 0.09999999, 0, 0, 0.3333893, -0.0004380092, 0.007013835, 0.9427631
MOTB, 44173797, 1, 1, 0, 1
RCIN, 44173802, 0, 0, 0, 0, 0, 0, 0, 0, 0, 0, 0, 0, 0, 0
RCOU, 44173807, 1101, 1101, 1101, 1101, 0, 0, 0, 0, 0, 0, 0, 0, 0, 0
VIBE, 44173815, 0.02040615, 0.01919519, 0.03456041, 0, 0, 0
CTRL, 44173822, 0.007057047, 0.000180924, 0.003389177, 0.0001572606, 0.0002354353
PRX, 44173853, 2, 0.52, 0, 0.65, 0, 0.78, 0, 3.6, 0, 0, 0, 0.52
IMU, 44193648, -0.000912287, -0.001096273, -0.001530604, 0.2239676, -0.01481078, -9.817583, 0, 0, 32.37601, 1, 1, 1000, 1000
RFND, 44223761, 0.2, 25, 0, 0
IMU, 44234418, -0.0003183117, 0.000369915, -0.0006667249, 0.2139618, -0.024521, -9.823772, 0, 0, 32.37597, 1, 1, 1000, 1000
MAG, 44273557, 396, 497, 343, 0, 0, 0, 0, 0, 0, 1, 44273549
RFND, 44273679, 0.2, 25, 0, 0
BARO, 44273721, 0.08568417, 993.2609, 30.37, -0.485041, 44273, 0, 28.27
CTUN, 44273734, 0, 0, 0, 0.2160927, 0.06644984, 0.06644984, 0.08, 0, 0.19, 0, 0, 0
ATT, 44273887, 0, 0.66, 0, 0.31, 139.25, 139.26, 0, 1
RATE, 44273893, -3.007808, 0.09131146, -0.007424491, -1.417778, -0.08157612, -0.00300602, 0.008315651, -0.05479061, 0.0002855839, 137.9229, -0.9384155, 0
NKF1, 44273901, 0.66, 0.31, 139.26, -0.06284817, 0.04912098, 0.003405503, 0, 0, 0, -0.06644984, 0, 0.02, 0.03
NKF2, 44273901, -2, 0, 0, 0, 0, 0, 0, 0, 0, 0, 0, 0, 0
NKF3, 44273901, 0, 0, 0, -0.12, 0.09, 0, 0, 0, 0, 0, 0
NKF4, 44273901, 0, 0, 0, 0, 0, 5.173058E-06, 0, 0, 0, 19, 229, 0, 0
NKF5, 44273901, 0, 0, 0, 0, 0.2, 0.13, 0, 0.19, 0.5, 3.10731E-05, 0.01235329, 0.02686354
NKQ1, 44273901, 0.3480753, -0.008579363, 0.004560612, 0.9374163
AHR2, 44273945, 0.74, 0.31, 141.04, 0.08, 0, 0, 0.3334304, -0.000410887, 0.007025409, 0.9427485
MOTB, 44273952, 1, 1, 0, 1
RCIN, 44273957, 0, 0, 0, 0, 0, 0, 0, 0, 0, 0, 0, 0, 0, 0
RCOU, 44273962, 1101, 1101, 1101, 1101, 0, 0, 0, 0, 0, 0, 0, 0, 0, 0
VIBE, 44273970, 0.01969659, 0.01894013, 0.03093053, 0, 0, 0
CTRL, 44273978, 0.007070229, 0.0001737842, 0.00334882, 0.0001526845, 0.0002619946
PRX, 44274008, 2, 0.53, 0, 0.65, 0, 0.78, 0, 2.37, 0, 0, 0, 0.53
IMU, 44274015, 0.001439085, -0.0009315761, -0.0004053457, 0.2168755, -0.02023202, -9.817158, 0, 0, 32.37597, 1, 1, 1000, 1000
IMU, 44313841, 0.0007743776, 0.0006423327, -0.001053606, 0.2171307, -0.02344872, -9.835428, 0, 0, 32.37597, 1, 1, 1000, 1000
RFND, 44323980, 0.2, 25, 0, 0
IMU, 44353993, 0.0006691544, 0.0003533645, 0.0002335833, 0.2166876, -0.02274376, -9.840862, 0, 0, 32.37623, 1, 1, 1000, 1000
MAG, 44373564, 393, 506, 342, 0, 0, 0, 0, 0, 0, 1, 44373555
RFND, 44373593, 0.2, 25, 0, 0
BARO, 44373631, 0.1105602, 993.258, 30.38, -0.5444382, 44373, 0, 28.27
CTUN, 44373643, 0, 0, 0, 0.2160927, 0.06611048, 0.06611048, 0.11, 0, 0.19, 0, 0, 0
ATT, 44373741, 0, 0.67, 0, 0.31, 139.24, 139.25, 0, 1
RATE, 44373747, -3.017416, 0.00486996, -0.007134973, -1.416928, -0.02452061, -0.003252938, 0.007869885, -0.00634145, 0.0001890386, 126.9627, -0.2588272, 0
NKF1, 44373755, 0.67, 0.31, 139.25, -0.06567688, 0.05103454, 0.003134881, 0, 0, 0, -0.06611048, 0, 0.02, 0.03
NKF2, 44373755, -2, 0, 0, 0, 0, 0, 0, 0, 0, 0, 0, 0, 0
NKF3, 44373755, 0, 0, 0, -0.12, 0.09, 0, 0, 0, 0, 0, 0
NKF4, 44373755, 0, 0, 0, 0, 0, 4.550033E-06, 0, 0, 0, 19, 229, 0, 0
NKF5, 44373755, 0, 0, 0, 0, 0.19, 0.13, 0, 0.19, 0.5, 3.298805E-05, 0.01195074, 0.02596087
NKQ1, 44373755, 0.3481141, -0.008572331, 0.004577568, 0.9374018
AHR2, 44373798, 0.74, 0.31, 141.04, 0.11, 0, 0, 0.3334432, -0.0004213323, 0.007054831, 0.9427437
MOTB, 44373806, 1, 1, 0, 1
RCIN, 44373810, 0, 0, 0, 0, 0, 0, 0, 0, 0, 0, 0, 0, 0, 0
RCOU, 44373816, 1101, 1101, 1101, 1101, 0, 0, 0, 0, 0, 0, 0, 0, 0, 0
VIBE, 44373824, 0.01898632, 0.01879339, 0.03165789, 0, 0, 0
CTRL, 44373830, 0.007098328, 0.0001754289, 0.003341954, 0.000140826, 0.0002597323
PRX, 44373861, 2, 0.52, 0, 0.65, 0, 0.83, 0, 2.36, 0, 0, 0, 0.52
IMU, 44393643, -0.0001310701, 0.0003970368, -0.0004387998, 0.2083656, -0.03033513, -9.844318, 0, 0, 32.37576, 1, 1, 1000, 1000
RFND, 44423675, 0.2, 25, 0, 0
IMU, 44433649, -0.002292085, -9.256139E-05, 0.001171921, 0.2158049, -0.02350086, -9.842087, 0, 0, 32.37539, 1, 1, 1000, 1000
MAG, 44473574, 394, 503, 339, 0, 0, 0, 0, 0, 0, 1, 44473566
RFND, 44473603, 0.2, 25, 0, 0
BARO, 44473640, 0.1686043, 993.2514, 30.38, -0.3087577, 44473, 0, 28.27
CTUN, 44473653, 0, 0, 0, 0.2160927, 0.06588172, 0.06588172, 0.16, 0, 0.19, 0, 0, 0
ATT, 44473813, 0, 0.66, 0, 0.31, 139.24, 139.24, 0, 1
RATE, 44473819, -3.00133, 0.04887392, -0.007605489, -1.41192, -0.01825087, -0.003196591, 0.00928388, -0.1048942, 0.0001726681, 107.7409, -0.7864952, 0
NKF1, 44473826, 0.66, 0.31, 139.24, -0.06809486, 0.05287551, 0.00266027, 0, 0, 0, -0.06588172, 0, 0.02, 0.03
NKF2, 44473826, -2, 0, 0, 0, 0, 0, 0, 0, 0, 0, 0, 0, 0
NKF3, 44473826, 0, 0, 0, -0.13, 0.1, 0, 0, 0, 0, 0, 0
NKF4, 44473826, 0, 0, 0, 0, 0, 4.275117E-06, 0, 0, 0, 19, 229, 0, 0
NKF5, 44473826, 0, 0, 0, 0, 0.19, 0.13, 0, 0.19, 0.5, 3.741543E-05, 0.01136382, 0.02466101
NKQ1, 44473826, 0.3481618, -0.008571513, 0.004546785, 0.9373842
AHR2, 44473870, 0.74, 0.31, 141.04, 0.16, 0, 0, 0.3334647, -0.0004370189, 0.007036131, 0.9427363
MOTB, 44473877, 1, 1, 0, 1
RCIN, 44473881, 0, 0, 0, 0, 0, 0, 0, 0, 0, 0, 0, 0, 0, 0
RCOU, 44473887, 1101, 1101, 1101, 1101, 0, 0, 0, 0, 0, 0, 0, 0, 0, 0
VIBE, 44473896, 0.01924703, 0.02221268, 0.03320884, 0, 0, 0
CTRL, 44473903, 0.007059441, 0.0001882194, 0.003324642, 0.0001344162, 0.0002362707
PRX, 44473932, 2, 0.53, 0, 0.65, 0, 0.83, 0, 2.36, 0, 0, 0, 0.53
IMU, 44473940, 0.0006982644, 0.0001740134, -0.001279235, 0.2260326, -0.02701853, -9.818506, 0, 0, 32.37539, 1, 1, 1000, 1000
IMU, 44513742, 6.302021E-05, 0.0001492133, 0.0002311486, 0.2125538, -0.01554433, -9.81561, 0, 0, 32.37579, 1, 1, 1000, 1000
RFND, 44523623, 0.2, 25, 0, 0
IMU, 44553771, 0.0003026834, 0.0006527384, -5.643762E-05, 0.226913, -0.03459575, -9.821674, 0, 0, 32.37536, 1, 1, 1000, 1000
MAG, 44573582, 399, 500, 339, 0, 0, 0, 0, 0, 0, 1, 44573573
RFND, 44573611, 0.2, 25, 0, 0
BARO, 44573648, 0.1686043, 993.2517, 30.38, 0.01205647, 44573, 0, 28.27
CTUN, 44573661, 0, 0, 0, 0.2160927, 0.06559711, 0.06559711, 0.16, 0, 0.19, 0, 0, 0
ATT, 44573965, 0, 0.67, 0, 0.31, 139.23, 139.24, 0, 1
RATE, 44573971, -3.02302, 0.1256385, -0.007644131, -1.413366, 0.003848048, -0.003305992, 0.01085118, -0.1706252, 0.000171939, 153.8685, -0.8805275, 0
NKF1, 44573978, 0.67, 0.31, 139.24, -0.0709049, 0.05520585, 0.003799222, 0, 0, 0, -0.06559711, 0, 0.02, 0.03
NKF2, 44573978, -2, 0, 0, 0, 0, 0, 0, 0, 0, 0, 0, 0, 0
NKF3, 44573978, 0, 0, 0, -0.13, 0.1, 0, 0, 0, 0, 0, 0
NKF4, 44573978, 0, 0, 0, 0, 0, 4.219568E-06, 0, 0, 0, 19, 229, 0, 0
NKF5, 44573978, 0, 0, 0, 0, 0.19, 0.13, 0, 0.19, 0.5, 3.900531E-05, 0.01096736, 0.02373236
NKQ1, 44573978, 0.348202, -0.008557638, 0.004587772, 0.9373693
AHR2, 44574023, 0.74, 0.31, 141.04, 0.16, 0, 0, 0.3334788, -0.0004392813, 0.007089789, 0.9427308
MOTB, 44574029, 1, 1, 0, 1
RCIN, 44574034, 0, 0, 0, 0, 0, 0, 0, 0, 0, 0, 0, 0, 0, 0
RCOU, 44574039, 1101, 1101, 1101, 1101, 0, 0, 0, 0, 0, 0, 0, 0, 0, 0
VIBE, 44574048, 0.01765676, 0.01978593, 0.03404498, 0, 0, 0
CTRL, 44574053, 0.007109066, 0.0001984384, 0.003323241, 0.0001207248, 0.000212602
PRX, 44574084, 2, 0.52, 0, 0.65, 0, 3.6, 0, 2.37, 0, 0, 0, 0.52
IMU, 44593672, 0.0006769192, 0.0008353463, -0.001152045, 0.2107658, -0.01422981, -9.824921, 0, 0, 32.37497, 1, 1, 1000, 1000
RFND, 44623665, 0.2, 25, 0, 0
IMU, 44633799, 0.0006367027, 0.000284379, -0.001011798, 0.2208299, -0.01871989, -9.81378, 0, 0, 32.37484, 1, 1, 1000, 1000
MAG, 44673577, 390, 504, 337, 0, 0, 0, 0, 0, 0, 1, 44673569
RFND, 44673607, 0.2, 25, 0, 0
BARO, 44673644, 0.1188522, 993.2572, 30.39, 0.2021179, 44673, 0, 28.27
CTUN, 44673656, 0, 0, 0, 0.2160927, 0.06528076, 0.06528076, 0.11, 0, 0.19, 0, 0, 0
ATT, 44673843, 0, 0.67, 0, 0.31, 139.22, 139.23, 0, 1
RATE, 44673849, -3.040552, -0.03553958, -0.006797215, -1.398077, -0.05044186, -0.003281576, 0.01014407, -0.05152589, 0.0002176238, 179.2112, -0.4699707, 0
NKF1, 44673856, 0.67, 0.31, 139.23, -0.07375146, 0.05689998, 0.004424968, 0, 0, 0, -0.06528076, 0, 0.02, 0.03
NKF2, 44673856, -2, 0, 0, 0, 0, 0, 0, 0, 0, 0, 0, 0, 0
NKF3, 44673856, 0, 0, 0, -0.14, 0.11, 0, 0, 0, 0, 0, 0
NKF4, 44673856, 0, 0, 0, 0, 0, 4.42801E-06, 0, 0, 0, 19, 229, 0, 0
NKF5, 44673856, 0, 0, 0, 0, 0.19, 0.13, 0, 0.19, 0.5, 4.34854E-05, 0.01038334, 0.02239502
NKQ1, 44673856, 0.3482561, -0.008520592, 0.004608055, 0.9373494
AHR2, 44673901, 0.75, 0.31, 141.03, 0.11, 0, 0, 0.3335069, -0.0004173225, 0.007122909, 0.9427207
MOTB, 44673908, 1, 1, 0, 1
RCIN, 44673912, 0, 0, 0, 0, 0, 0, 0, 0, 0, 0, 0, 0, 0, 0
RCOU, 44673917, 1101, 1101, 1101, 1101, 0, 0, 0, 0, 0, 0, 0, 0, 0, 0
VIBE, 44673926, 0.01786311, 0.02189885, 0.03519033, 0, 0, 0
CTRL, 44673932, 0.007158106, 0.0001769827, 0.003294806, 0.0001256983, 0.0002248161
PRX, 44673962, 2, 0.53, 0, 0.65, 0, 3.6, 0, 2.37, 0, 0, 0, 0.53
IMU, 44673970, -0.0007751021, -0.0003877263, -0.0003474455, 0.2055966, -0.03051647, -9.822067, 0, 0, 32.37582, 1, 1, 1000, 1000
IMU, 44713724, 0.001175678, 0.0008830386, -0.001014549, 0.2166641, -0.02684399, -9.818467, 0, 0, 32.37731, 1, 1, 1000, 1000
RFND, 44723584, 0.2, 25, 0, 0
IMU, 44753990, 0.000338501, 0.0005168371, -0.000989068, 0.2212359, -0.02246322, -9.809633, 0, 0, 32.3787, 1, 1, 1000, 1000
MAG, 44773566, 393, 502, 341, 0, 0, 0, 0, 0, 0, 1, 44773558
RFND, 44773595, 0.2, 25, 0, 0
BARO, 44773632, 0.1105602, 993.258, 30.39, 0.1347453, 44773, 0, 28.27
CTUN, 44773644, 0, 0, 0, 0.2160927, 0.06490412, 0.06490412, 0.11, 0, 0.19, 0, 0, 0
ATT, 44773744, 0, 0.67, 0, 0.31, 139.22, 139.23, 0, 1
RATE, 44773750, -3.055293, 0.03079515, -0.007264629, -1.397118, -0.01039231, -0.003187471, 0.007239374, -0.03096766, 0.0002577797, 204.6489, -0.3682137, 0
NKF1, 44773759, 0.67, 0.31, 139.23, -0.07655317, 0.05843191, 0.005053059, 0, 0, 0, -0.06490412, 0, 0.02, 0.03
NKF2, 44773759, -2, 0, 0, 0, 0, 0, 0, 0, 0, 0, 0, 0, 0
NKF3, 44773759, 0, 0, 0, -0.14, 0.11, 0, 0, 0, 0, 0, 0
NKF4, 44773759, 0, 0, 0, 0, 0, 4.625614E-06, 0, 0, 0, 19, 229, 0, 0
NKF5, 44773759, 0, 0, 0, 0, 0.19, 0.13, 0, 0.19, 0.5, 4.335339E-05, 0.01002341, 0.02151923
NKQ1, 44773759, 0.3483074, -0.008509202, 0.00463533, 0.9373304
AHR2, 44773802, 0.75, 0.31, 141.03, 0.11, 0, 0, 0.3335321, -0.0004219745, 0.007163532, 0.9427115
MOTB, 44773810, 1, 1, 0, 1
RCIN, 44773814, 0, 0, 0, 0, 0, 0, 0, 0, 0, 0, 0, 0, 0, 0
RCOU, 44773819, 1101, 1101, 1101, 1101, 0, 0, 0, 0, 0, 0, 0, 0, 0, 0
VIBE, 44773828, 0.01887992, 0.01986724, 0.03241034, 0, 0, 0
CTRL, 44773834, 0.00718342, 0.0001735892, 0.003288755, 0.0001264702, 0.0002290521
PRX, 44773866, 2, 0.53, 0, 0.65, 0, 3.6, 0, 2.43, 0, 0, 0, 0.53
IMU, 44793666, -0.0006940798, -1.750633E-05, 0.0004847908, 0.2165169, -0.02606469, -9.835392, 0, 0, 32.3797, 1, 1, 1000, 1000
RFND, 44823754, 0.2, 25, 0, 0
IMU, 44833646, -0.000583517, -0.0006593341, -0.0004599417, 0.2195306, -0.02094617, -9.813889, 0, 0, 32.38032, 1, 1, 1000, 1000
MAG, 44874111, 395, 506, 338, 0, 0, 0, 0, 0, 0, 1, 44874102
RFND, 44874141, 0.2, 25, 0, 0
BARO, 44874180, 0.06357213, 993.2634, 30.4, -0.08463617, 44874, 0, 28.27
CTUN, 44874193, 0, 0, 0, 0.2160927, 0.06450264, 0.06450264, 0.06, 0, 0.19, 0, 0, 0
DU32, 44874228, 7, 50356728
ATT, 44874544, 0, 0.67, 0, 0.3, 139.21, 139.22, 0, 1
RATE, 44874550, -3.051636, -0.03686643, -0.00708288, -1.390904, 0.00678018, -0.003261093, 0.007516023, -0.09110726, 0.000249891, 242.1696, -0.6382942, 0
NKF1, 44874559, 0.67, 0.3, 139.22, -0.079672, 0.05980844, 0.005979495, 0, 0, 0, -0.06450264, 0, 0.02, 0.03
NKF2, 44874559, -2, 0, 0, 0, 0, 0, 0, 0, 0, 0, 0, 0, 0
NKF3, 44874559, 0, 0, 0, -0.15, 0.12, 0, 0, 0, 0, 0, 0
NKF4, 44874559, 0, 0, 0, 0, 0, 5.124402E-06, 0, 0, 0, 19, 229, 0, 0
NKF5, 44874559, 0, 0, 0, 0, 0.19, 0.13, 0, 0.19, 0.5, 4.733364E-05, 0.009453599, 0.02018156
NKQ1, 44874559, 0.348355, -0.008498603, 0.004624623, 0.9373128
AHR2, 44874607, 0.75, 0.31, 141.03, 0.06, 0, 0, 0.3335533, -0.000426472, 0.00716633, 0.942704
MOTB, 44874614, 1, 1, 0, 1
RCIN, 44874619, 0, 0, 0, 0, 0, 0, 0, 0, 0, 0, 0, 0, 0, 0
RCOU, 44874625, 1101, 1101, 1101, 1101, 0, 0, 0, 0, 0, 0, 0, 0, 0, 0
VIBE, 44874633, 0.01920413, 0.01909662, 0.03575231, 0, 0, 0
CTRL, 44874639, 0.007184547, 0.000166883, 0.003275533, 0.0001362735, 0.000218269
PRX, 44874671, 2, 0.52, 0, 0.65, 0, 3.6, 0, 2.44, 0, 0, 0, 0.52
IMU, 44874678, -0.0007983259, 0.0006110347, -0.001037942, 0.2202891, -0.01300826, -9.820159, 0, 0, 32.38108, 1, 1, 1000, 1000
IMU, 44913634, 9.009205E-06, -0.001205392, -0.00215827, 0.2121399, -0.02175974, -9.843153, 0, 0, 32.38096, 1, 1, 1000, 1000
RFND, 44923604, 0.2, 25, 0, 0
IMU, 44953771, -0.0004073823, 0.001244513, -0.0008110853, 0.2128978, -0.02302628, -9.826082, 0, 0, 32.38051, 1, 1, 1000, 1000
MAG, 44973560, 398, 504, 341, 0, 0, 0, 0, 0, 0, 1, 44973552
RFND, 44973589, 0.2, 25, 0, 0
BARO, 44973625, 0.1077962, 993.2584, 30.4, -0.2225206, 44973, 0, 28.27
CTUN, 44973637, 0, 0, 0, 0.2160927, 0.06406476, 0.06406476, 0.1, 0, 0.19, 0, 0, 0
ATT, 44973737, 0, 0.67, 0, 0.3, 139.2, 139.21, 0, 1
RATE, 44973742, -3.043632, -0.03478959, -0.007062145, -1.37412, -0.03981082, -0.002913337, 0.01054356, -0.08349575, 0.0002992233, 234.7938, -0.4571915, 0
NKF1, 44973750, 0.67, 0.3, 139.21, -0.08222378, 0.06174082, 0.005797378, 0, 0, 0, -0.06406476, 0, 0.02, 0.03
NKF2, 44973750, -2, 0, 0, 0, 0, 0, 0, 0, 0, 0, 0, 0, 0
NKF3, 44973750, 0, 0, 0, -0.17, 0.13, 0, 0, 0, 0, 0, 0
NKF4, 44973750, 0, 0, 0, 0, 0, 5.555448E-06, 0, 0, 0, 19, 229, 0, 0
NKF5, 44973750, 0, 0, 0, 0, 0.19, 0.13, 0, 0.19, 0.5, 5.173911E-05, 0.008811481, 0.01866875
NKQ1, 44973750, 0.3484272, -0.008473435, 0.00460057, 0.9372863
AHR2, 44973792, 0.75, 0.31, 141.02, 0.09999999, 0, 0, 0.3335993, -0.0004172677, 0.007151185, 0.9426878
MOTB, 44973800, 1, 1, 0, 1
RCIN, 44973804, 0, 0, 0, 0, 0, 0, 0, 0, 0, 0, 0, 0, 0, 0
RCOU, 44973810, 1101, 1101, 1101, 1101, 0, 0, 0, 0, 0, 0, 0, 0, 0, 0
VIBE, 44973818, 0.01820727, 0.01977973, 0.03217757, 0, 0, 0
CTRL, 44973825, 0.0071724, 0.0001627629, 0.00324103, 0.0001603182, 0.000235481
PRX, 44973855, 2, 0.53, 0, 0.65, 0, 3.6, 0, 2.4, 0, 0, 0, 0.53
IMU, 44993770, -0.0003472723, 0.0002838429, -0.001995404, 0.2141907, -0.02737574, -9.841549, 0, 0, 32.38138, 1, 1, 1000, 1000
EV, 45013771, 57
RFND, 45024688, 0.2, 25, 0, 0
IMU, 45033825, -0.0002598705, 0.0005749003, -0.001477331, 0.2186362, -0.02883874, -9.806459, 0, 0, 32.38207, 1, 1, 1000, 1000
MAG, 45073692, 398, 504, 336, 0, 0, 0, 0, 0, 0, 1, 45073684
RFND, 45073723, 0.2, 25, 0, 0
BARO, 45073761, 0.1326723, 993.2555, 30.4, -0.1731844, 45073, 0, 28.27
CTUN, 45073774, 0, 0, 0, 0.2160927, 0.06366172, 0.06366172, 0.13, 0, 0.19, 0, 0, 0
ATT, 45074171, 0, 0.67, 0, 0.3, 139.19, 139.2, 0, 1
RATE, 45074177, -3.03599, -0.01385712, -0.00706888, -1.373719, -0.05321448, -0.00297718, 0.008054039, -0.03039479, 0.0003091464, 227.3038, 1.834297, 0
NKF1, 45074186, 0.67, 0.3, 139.2, -0.08463695, 0.06397376, 0.005612438, 0, 0, 0, -0.06366172, 0, 0.02, 0.03
NKF2, 45074186, -2, 0, 0, 0, 0, 0, 0, 0, 0, 0, 0, 0, 0
NKF3, 45074186, 0, 0, 0, -0.17, 0.13, 0, 0, 0, 0, 0, 0
NKF4, 45074186, 0, 0, 0, 0, 0, 6.191099E-06, 0, 0, 0, 19, 229, 0, 0
NKF5, 45074186, 0, 0, 0, 0, 0.19, 0.13, 0, 0.19, 0.5, 4.969778E-05, 0.008590804, 0.01808476
NKQ1, 45074186, 0.3484944, -0.008478829, 0.004586207, 0.9372613
AHR2, 45074232, 0.75, 0.32, 141.02, 0.13, 0, 0, 0.3336403, -0.000438575, 0.00714432, 0.9426733
MOTB, 45074239, 1, 1, 0, 1
RCIN, 45074244, 0, 0, 0, 0, 0, 0, 0, 0, 0, 0, 0, 0, 0, 0
RCOU, 45074249, 1114, 1114, 1114, 1114, 0, 0, 0, 0, 0, 0, 0, 0, 0, 0
VIBE, 45074257, 0.01798169, 0.0179385, 0.0325738, 0, 0, 0
CTRL, 45074263, 0.007154537, 0.000140158, 0.003235857, 0.0001501844, 0.0002616185
PRX, 45074293, 2, 0.53, 0, 0.65, 0, 3.6, 0, 2.39, 0, 0, 0, 0.53
IMU, 45074301, -0.0003968011, -0.0004360632, 2.202972E-05, 0.2206867, -0.02840288, -9.844851, 0, 0, 32.38318, 1, 1, 1000, 1000
IMU, 45113776, 0.0005361425, 0.0003987667, -0.0004944253, 0.2216459, -0.03096439, -9.822198, 0, 0, 32.38467, 1, 1, 1000, 1000
RFND, 45123741, 0.2, 25, 0, 0
IMU, 45154398, 0.000621622, 0.001382225, -4.081253E-05, 0.2194836, -0.0224328, -9.82334, 0, 0, 32.38546, 1, 1, 1000, 1000
MAG, 45173653, 394, 504, 339, 0, 0, 0, 0, 0, 0, 1, 45173644
RFND, 45173684, 0.2, 25, 0, 0
BARO, 45173786, 0.1603123, 993.2525, 30.4, 0.01036504, 45173, 0, 28.27
CTUN, 45173801, 0, 0, 0, 0.2160927, 0.06327906, 0.06327906, 0.16, 0, 0.19, 0, 0, 0
ATT, 45173952, 0, 0.67, 0, 0.3, 139.19, 139.2, 0, 1
RATE, 45173957, -3.05638, 0.07285735, -0.007496322, -1.374664, -0.003400532, -0.003098997, 0.008146034, -0.05549571, 0.0002222878, 242.3191, -0.6219864, 0
NKF1, 45173965, 0.67, 0.3, 139.2, -0.08710323, 0.0663122, 0.005983188, 0, 0, 0, -0.06327906, 0, 0.02, 0.03
NKF2, 45173965, -2, 0, 0, 0, 0, 0, 0, 0, 0, 0, 0, 0, 0
NKF3, 45173965, 0, 0, 0, -0.18, 0.14, 0, 0, 0, 0, 0, 0
NKF4, 45173965, 0, 0, 0, 0, 0, 6.826688E-06, 0, 0, 0, 19, 229, 0, 0
NKF5, 45173965, 0, 0, 0, 0, 0.19, 0.13, 0, 0.19, 0.5, 5.45881E-05, 0.007953748, 0.01656383
NKQ1, 45173965, 0.3485406, -0.008465925, 0.004624836, 0.9372441
AHR2, 45174006, 0.76, 0.32, 141.01, 0.16, 0, 0, 0.3336602, -0.0004413717, 0.007196651, 0.9426658
MOTB, 45174014, 1, 1, 0, 1
RCIN, 45174018, 0, 0, 0, 0, 0, 0, 0, 0, 0, 0, 0, 0, 0, 0
RCOU, 45174023, 1138, 1138, 1138, 1138, 0, 0, 0, 0, 0, 0, 0, 0, 0, 0
VIBE, 45174032, 0.01777786, 0.0195547, 0.03375866, 0, 0, 0
CTRL, 45174039, 0.007186445, 0.0001352441, 0.003232025, 0.0001364154, 0.0002536402
PRX, 45174071, 2, 0.52, 0, 0.65, 0, 3.6, 0, 2.37, 0, 0, 0, 0.52
IMU, 45193885, 0.0004593382, -0.0005617429, -0.0005846429, 0.227663, -0.02429625, -9.814621, 0, 0, 32.38636, 1, 1, 1000, 1000
RFND, 45224556, 0.2, 25, 0, 0
IMU, 45233738, 5.880482E-05, 0.001404337, -0.0004966774, 0.2128049, -0.02185855, -9.80433, 0, 0, 32.3857, 1, 1, 1000, 1000
MAG, 45273780, 393, 506, 338, 0, 0, 0, 0, 0, 0, 1, 45273771
RFND, 45273810, 0.2, 25, 0, 0
BARO, 45273850, 0.1575483, 993.2528, 30.4, 0.1827942, 45273, 0, 28.27
CTUN, 45273862, 0, 0, 0, 0.2160927, 0.06284951, 0.06284951, 0.15, 0, 0.19, 0, 0, 0
ATT, 45274523, 0, 0.68, 0, 0.3, 139.18, 139.19, 0, 1
RATE, 45274531, -3.063039, 0.004256133, -0.007113689, -1.380022, 0.02476378, -0.003562873, 0.008099868, -0.09875222, 0.0001792093, 256.4099, 0.8889198, 0
NKF1, 45274541, 0.68, 0.3, 139.19, -0.08995505, 0.0678819, 0.00633111, 0, 0, 0, -0.06284951, 0, 0.02, 0.03
NKF2, 45274541, -2, 0, 0, 0, 0, 0, 0, 0, 0, 0, 0, 0, 0
NKF3, 45274541, 0, 0, 0, -0.18, 0.14, 0, 0, 0, 0, 0, 0
NKF4, 45274541, 0, 0, 0, 0, 0, 7.544981E-06, 0, 0, 0, 19, 229, 0, 0
NKF5, 45274541, 0, 0, 0, 0, 0.19, 0.13, 0, 0.19, 0.5, 5.160453E-05, 0.007794923, 0.0161329
NKQ1, 45274541, 0.3485867, -0.0084698, 0.004640469, 0.9372268
AHR2, 45274591, 0.76, 0.32, 141.01, 0.15, 0, 0, 0.33368, -0.000460032, 0.007227147, 0.9426586
MOTB, 45274599, 1, 1, 0, 1
RCIN, 45274604, 0, 0, 0, 0, 0, 0, 0, 0, 0, 0, 0, 0, 0, 0
RCOU, 45274610, 1162, 1162, 1162, 1162, 0, 0, 0, 0, 0, 0, 0, 0, 0, 0
VIBE, 45274619, 0.019139, 0.02176648, 0.03413633, 0, 0, 0
CTRL, 45274626, 0.007212916, 0.0001276493, 0.003230578, 0.0001534463, 0.000238868
PRX, 45274657, 2, 0.53, 0, 0.65, 0, 3.6, 0, 2.36, 0, 0, 0, 0.53
IMU, 45274665, -8.067367E-05, 0.0009247081, -0.001170866, 0.2160733, -0.01067782, -9.835532, 0, 0, 32.38552, 1, 1, 1000, 1000
IMU, 45313864, 1.665724E-05, -0.0006787522, -0.0006782749, 0.2146946, -0.03531028, -9.829954, 0, 0, 32.38559, 1, 1, 1000, 1000
RFND, 45324151, 0.2, 25, 0, 0
IMU, 45354051, -0.001578084, -6.340157E-05, 0.0001181071, 0.201711, -0.01993082, -9.83694, 0, 0, 32.3864, 1, 1, 1000, 1000
MAG, 45373849, 398, 504, 337, 0, 0, 0, 0, 0, 0, 1, 45373841
RFND, 45373881, 0.2, 25, 0, 0
BARO, 45373919, 0.2459965, 993.2428, 30.41, 0.2421449, 45373, 0, 28.27
CTUN, 45373932, 0, 0, 0, 0.2160927, 0.06246417, 0.06246417, 0.24, 0, 0.19, 0, 0, 0
ATT, 45374398, 0, 0.67, 0, 0.3, 139.18, 139.19, 0, 1
RATE, 45374408, -3.058538, -0.05890535, -0.007213917, -1.35821, -0.1068824, -0.002788725, 0.008084534, 0.2643007, 0.0001061258, 227.0436, 1.017857, 0
NKF1, 45374417, 0.67, 0.3, 139.19, -0.09205171, 0.0691486, 0.005606015, 0, 0, 0, -0.06246417, 0, 0.02, 0.03
NKF2, 45374417, -2, 0, 0, 0, 0, 0, 0, 0, 0, 0, 0, 0, 0
NKF3, 45374417, 0, 0, 0, -0.2, 0.15, 0, 0, 0, 0, 0, 0
NKF4, 45374417, 0, 0, 0, 0, 0, 8.382219E-06, 0, 0, 0, 19, 229, 0, 0
NKF5, 45374417, 0, 0, 0, 0, 0.19, 0.13, 0, 0.19, 0.5, 5.760252E-05, 0.007165001, 0.01460903
NKQ1, 45374417, 0.3485853, -0.008442388, 0.004617746, 0.9372277
AHR2, 45374465, 0.76, 0.32, 141.02, 0.24, 0, 0, 0.3336513, -0.000446856, 0.007216182, 0.9426689
MOTB, 45374474, 1, 1, 0, 1
RCIN, 45374478, 0, 0, 0, 0, 0, 0, 0, 0, 0, 0, 0, 0, 0, 0
RCOU, 45374484, 1186, 1186, 1186, 1186, 0, 0, 0, 0, 0, 0, 0, 0, 0, 0
VIBE, 45374492, 0.07497788, 0.09072911, 0.2022916, 0, 0, 0
CTRL, 45374499, 0.007194908, 0.0001444965, 0.00321672, 0.0001838551, 0.0002308295
PRX, 45374531, 2, 0.53, 0, 0.65, 0, 3.6, 0, 2.4, 0, 0, 0, 0.53
IMU, 45393708, -0.0006192452, -0.0002091223, -0.003702126, 0.1985432, -0.02091721, -9.83071, 0, 0, 32.38746, 1, 1, 1000, 1000
RFND, 45423935, 0.2, 25, 0, 0
IMU, 45433644, -0.001205704, -0.0006869244, -0.002697614, 0.2256753, -0.0345105, -9.82897, 0, 0, 32.38809, 1, 1, 1000, 1000
MAG, 45473961, 390, 504, 334, 0, 0, 0, 0, 0, 0, 1, 45473953
RFND, 45473992, 0.2, 25, 0, 0
BARO, 45474030, 0.1630763, 993.252, 30.41, 0.2427142, 45474, 0, 28.27
CTUN, 45474042, 0, 0, 0, 0.2160927, 0.06216393, 0.06216393, 0.16, 0, 0.19, 0, 0, 0
ATT, 45474235, 0, 0.67, 0, 0.3, 139.18, 139.19, 0, 1
RATE, 45474241, -3.048795, -0.06353942, -0.006918021, -1.365518, -0.04137515, -0.002575055, 0.008053906, 0.1528111, -7.192831E-05, 239.2986, -0.4098892, 0
NKF1, 45474250, 0.67, 0.3, 139.19, -0.09486654, 0.0709165, 0.005908607, 0, 0, 0, -0.06216393, 0, 0.02, 0.03
NKF2, 45474250, -2, 0, 0, 0, 0, 0, 0, 0, 0, 0, 0, 0, 0
NKF3, 45474250, 0, 0, 0, -0.2, 0.15, 0, 0, 0, 0, 0, 0
NKF4, 45474250, 0, 0, 0, 0, 0, 9.167567E-06, 0, 0, 0, 19, 229, 0, 0
NKF5, 45474250, 0, 0, 0, 0, 0.19, 0.13, 0, 0.19, 0.5, 5.381664E-05, 0.007071392, 0.01434758
NKQ1, 45474250, 0.348615, -0.008459275, 0.004604897, 0.9372166
AHR2, 45474294, 0.76, 0.32, 141.01, 0.16, 0, 0, 0.3336548, -0.0004774894, 0.00721289, 0.9426676
MOTB, 45474301, 1, 1, 0, 1
RCIN, 45474306, 0, 0, 0, 0, 0, 0, 0, 0, 0, 0, 0, 0, 0, 0
RCOU, 45474312, 1210, 1210, 1210, 1210, 0, 0, 0, 0, 0, 0, 0, 0, 0, 0
VIBE, 45474320, 0.2947363, 0.3391783, 0.461104, 0, 0, 0
CTRL, 45474327, 0.00715312, 0.0002608154, 0.003203844, 0.0002812923, 0.0002082771
PRX, 45474445, 2, 0.52, 0, 0.65, 0, 3.6, 0, 2.42, 0, 0, 0, 0.52
IMU, 45474453, -0.001263677, -0.0002307106, 0.003219006, 0.2565038, -0.07356086, -9.82156, 0, 0, 32.38882, 1, 1, 1000, 1000
IMU, 45513987, -0.001217093, 0.002734207, 0.009383835, 0.2703337, -0.03338076, -9.830643, 0, 0, 32.38885, 1, 1, 1000, 1000
RFND, 45523653, 0.2, 25, 0, 0
IMU, 45553699, -0.002994549, 0.005268205, 0.01031324, 0.2160244, 0.003399697, -9.825253, 0, 0, 32.38885, 1, 1, 1000, 1000
MAG, 45573554, 393, 500, 338, 0, 0, 0, 0, 0, 0, 1, 45573545
RFND, 45573583, 0.2, 25, 0, 0
BARO, 45573619, 0.2238845, 993.2453, 30.41, 0.2080694, 45573, 0, 28.27
CTUN, 45573631, 0, 0, 0, 0.2160927, 0.06192205, 0.06192205, 0.22, 0, 0.19, 0, 0, 0
ATT, 45573933, 0, 0.66, 0, 0.31, 139.17, 139.18, 0, 1
RATE, 45573938, -3.001753, -0.2401947, -0.005917655, -1.408207, 0.07023174, -0.002703473, 0.008100572, 0.3032864, -0.0001596603, 285.5345, -3.269863, 0
NKF1, 45573946, 0.66, 0.31, 139.18, -0.09684686, 0.07335951, 0.007050233, 0, 0, 0, -0.06192205, 0, 0.02, 0.03
NKF2, 45573946, -2, 0, 0, 0, 0, 0, 0, 0, 0, 0, 0, 0, 0
NKF3, 45573946, 0, 0, 0, -0.21, 0.16, 0, 0, 0, 0, 0, 0
NKF4, 45573946, 0, 0, 0, 0, 0, 1.023485E-05, 0, 0, 0, 19, 229, 0, 0
NKF5, 45573946, 0, 0, 0, 0, 0.19, 0.13, 0, 0.19, 0.5, 6.135781E-05, 0.006445803, 0.01281943
NKQ1, 45573946, 0.3486945, -0.008572041, 0.004549163, 0.9371862
AHR2, 45573988, 0.75, 0.33, 141.01, 0.22, 0, 0, 0.3337078, -0.0006010524, 0.007168387, 0.9426491
MOTB, 45573996, 1, 1, 0, 1
RCIN, 45574000, 0, 0, 0, 0, 0, 0, 0, 0, 0, 0, 0, 0, 0, 0
RCOU, 45574005, 1231, 1225, 1221, 1236, 0, 0, 0, 0, 0, 0, 0, 0, 0, 0
VIBE, 45574014, 0.4642605, 0.5033502, 0.6945116, 0, 0, 0
CTRL, 45574020, 0.007095301, 0.0003925733, 0.003320362, 0.000513588, 0.0003129755
PRX, 45574050, 2, 0.52, 0, 0.66, 0, 3.6, 0, 2.42, 0, 0, 0, 0.52
IMU, 45593751, 0.001343365, 0.001697965, -0.003920593, 0.2276359, -0.04220592, -9.851181, 0, 0, 32.39003, 1, 1, 1000, 1000
RFND, 45623746, 0.2, 25, 0, 0
IMU, 45633641, -0.002702798, -0.0008186573, 0.0004151307, 0.2595485, -0.02168473, -9.804747, 0, 0, 32.3922, 1, 1, 1000, 1000
MAG, 45674308, 395, 504, 336, 0, 0, 0, 0, 0, 0, 1, 45674299
RFND, 45674403, 0.2, 25, 0, 0
BARO, 45674443, 0.2211204, 993.2458, 30.42, 0.1156538, 45674, 0, 28.27
CTUN, 45674458, 0, 0, 0, 0.2160927, 0.06160026, 0.06160026, 0.22, 0, 0.19, 0, 0, 0
ATT, 45674563, 0, 0.67, 0, 0.33, 139.13, 139.14, 0, 1
RATE, 45674569, -3.018662, 0.008081069, -0.007165505, -1.488127, 0.3049479, -0.004562656, 0.008622987, -0.1592305, 0.0008454582, 249.7898, 0.179863, 0
NKF1, 45674576, 0.67, 0.33, 139.14, -0.0983767, 0.07492457, 0.006167649, 0, 0, 0, -0.06160027, 0, 0.02, 0.03
NKF2, 45674576, -2, 0, 0, 0, 0, 0, 0, 0, 0, 0, 0, 0, 0
NKF3, 45674576, 0, 0, 0, -0.23, 0.17, 0, 0, 0, 0, 0, 0
NKF4, 45674576, 0, 0, 0, 0, 0, 1.113379E-05, 0, 0, 0, 19, 229, 0, 0
NKF5, 45674576, 0, 0, 0, 0, 0.19, 0.13, 0, 0.19, 0.5, 6.966871E-05, 0.005675293, 0.01091074
NKQ1, 45674576, 0.349007, -0.008692797, 0.004638226, 0.9370683
AHR2, 45674622, 0.75, 0.35, 140.97, 0.22, 0, 0, 0.3339963, -0.0007337541, 0.007267823, 0.9425461
MOTB, 45674630, 1, 1, 0, 1
RCIN, 45674635, 0, 0, 0, 0, 0, 0, 0, 0, 0, 0, 0, 0, 0, 0
RCOU, 45674640, 1235, 1230, 1221, 1241, 0, 0, 0, 0, 0, 0, 0, 0, 0, 0
VIBE, 45674649, 0.4695962, 0.416751, 0.8541175, 0, 0, 0
CTRL, 45674655, 0.007107163, 0.0005207428, 0.003472236, 0.0007670562, 0.0004463546
PRX, 45674687, 2, 0.53, 0, 0.65, 0, 3.6, 0, 2.39, 0, 0, 0, 0.53
IMU, 45674694, -1.369681E-05, 0.005813173, -0.002226612, 0.2526365, -0.03320148, -9.827614, 0, 0, 32.39356, 1, 1, 1000, 1000
IMU, 45713655, 0.0005704597, 0.001690148, 0.008611603, 0.237725, -0.05679808, -9.815797, 0, 0, 32.39508, 1, 1, 1000, 1000
RFND, 45723618, 0.2, 25, 0, 0
IMU, 45753639, -0.00551758, 0.004101316, 0.03022478, 0.1905312, 0.03027822, -9.828632, 0, 0, 32.39729, 1, 1, 1000, 1000
MAG, 45773559, 395, 507, 338, 0, 0, 0, 0, 0, 0, 1, 45773551
RFND, 45773590, 0.2, 25, 0, 0
BARO, 45773628, 0.1824244, 993.2499, 30.42, 0.05162694, 45773, 0, 28.27
CTUN, 45773641, 0, 0, 0, 0.2160927, 0.06141271, 0.06141271, 0.18, 0, 0.19, 0, 0, 0
ATT, 45773746, 0, 0.66, 0, 0.34, 139.09, 139.1, 0, 1
RATE, 45773752, -2.996713, 0.250004, -0.008801849, -1.590501, -0.01284174, -0.003945283, 0.009130417, -1.401171, 0.0002722639, 226.4801, 9.441376, 0
NKF1, 45773759, 0.66, 0.34, 139.1, -0.1001815, 0.07855405, 0.005592103, 0, 0, 0, -0.06141272, 0, 0.02, 0.03
NKF2, 45773759, -2, 0, 0, 0, 0, 0, 0, 0, 0, 0, 0, 0, 0
NKF3, 45773759, 0, 0, 0, -0.23, 0.17, 0, 0, 0, 0, 0, 0
NKF4, 45773759, 0, 0, 0, 0, 0, 1.236882E-05, 0, 0, 0, 19, 229, 0, 0
NKF5, 45773759, 0, 0, 0, 0, 0.19, 0.13, 0, 0.19, 0.5, 6.4969E-05, 0.005806062, 0.01119454
NKQ1, 45773759, 0.3493152, -0.008860519, 0.004673003, 0.9369517
AHR2, 45773802, 0.75, 0.37, 140.94, 0.18, 0, 0, 0.3342803, -0.0009014859, 0.007299866, 0.942445
MOTB, 45773809, 1, 1, 0, 1
RCIN, 45773814, 0, 0, 0, 0, 0, 0, 0, 0, 0, 0, 0, 0, 0, 0
RCOU, 45773819, 1236, 1228, 1221, 1242, 0, 0, 0, 0, 0, 0, 0, 0, 0, 0
VIBE, 45773828, 0.3945093, 0.4080419, 0.804863, 0, 0, 0
CTRL, 45773834, 0.007083489, 0.0007348209, 0.003657828, 0.0008680581, 0.0006530045
PRX, 45773866, 2, 0.53, 0, 0.65, 0, 3.6, 0, 2.39, 0, 0, 0, 0.53
IMU, 45794514, -0.008981007, 0.008737689, -0.02765452, 0.1689407, 0.08636505, -9.769201, 0, 0, 32.39983, 1, 1, 1000, 1000
RFND, 45823585, 0.2, 25, 0, 0
IMU, 45833621, -0.003617922, -0.002258548, -0.02460426, 0.4900053, -0.01403117, -9.833485, 0, 0, 32.40383, 1, 1, 1000, 1000
MAG, 45874158, 387, 500, 334, 0, 0, 0, 0, 0, 0, 1, 45874150
RFND, 45874188, 0.2, 25, 0, 0
BARO, 45874227, 0.2985126, 993.2369, 30.42, 0.05520681, 45874, 0, 28.27
CTUN, 45874242, 0, 0, 0, 0.2160927, 0.0611649, 0.0611649, 0.29, 0, 0.19, 0, 0, 0
DU32, 45874284, 7, 33579512
ATT, 45874490, 0, 0.65, 0, 0.36, 139.14, 139.15, 0, 1
RATE, 45874496, -2.957599, -0.03913315, -0.005980628, -1.664495, -0.253937, 5.499413E-05, 0.009438391, -0.1296165, -0.001327692, 230.1115, 0.8649826, 0
NKF1, 45874505, 0.65, 0.36, 139.15, -0.1028801, 0.07707398, 0.005681766, 0, 0, 0, -0.0611649, 0, 0.02, 0.03
NKF2, 45874505, -2, 0, 0, 0, 0, 0, 0, 0, 0, 0, 0, 0, 0
NKF3, 45874505, 0, 0, 0, -0.25, 0.18, 0, 0, 0, 0, 0, 0
NKF4, 45874505, 0, 0, 0, 0, 0, 1.347096E-05, 0, 0, 0, 19, 229, 0, 0
NKF5, 45874505, 0, 0, 0, 0, 0.19, 0.13, 0, 0.19, 0.5, 7.488426E-05, 0.005018646, 0.009193853
NKQ1, 45874505, 0.3489517, -0.009055419, 0.004644485, 0.9370854
AHR2, 45874551, 0.74, 0.39, 140.99, 0.29, 0, 0, 0.3338885, -0.00109256, 0.007269938, 0.9425839
MOTB, 45874559, 1, 1, 0, 1
RCIN, 45874563, 0, 0, 0, 0, 0, 0, 0, 0, 0, 0, 0, 0, 0, 0
RCOU, 45874568, 1231, 1221, 1223, 1233, 0, 0, 0, 0, 0, 0, 0, 0, 0, 0
VIBE, 45874577, 0.5050706, 0.4291813, 0.7006769, 0, 0, 0
CTRL, 45874583, 0.007020829, 0.001039762, 0.004042113, 0.001598129, 0.0008411465
PRX, 45874614, 2, 0.53, 0, 0.66, 0, 3.6, 0, 3.6, 0, 0, 0, 0.53
IMU, 45874621, -0.0008377759, -0.003941531, -0.001709359, 0.3973311, -0.001712467, -9.831581, 0, 0, 32.40878, 1, 1, 1000, 1000
PM, 45874633, 48, 4000, 3971, 10, 0, 0, 24, 262144
IMU, 45913669, 0.0007084796, 0.00877383, -0.01224897, 0.03796959, -0.02044099, -9.836458, 0, 0, 32.41352, 1, 1, 1000, 1000
RFND, 45923702, 0.2, 25, 0, 0
IMU, 45953644, 0.0001927512, -0.00819446, -0.00854436, 0.08133984, -0.01582871, -9.826048, 0, 0, 32.41747, 1, 1, 1000, 1000
MAG, 45973558, 394, 501, 339, 0, 0, 0, 0, 0, 0, 1, 45973550
RFND, 45973586, 0.2, 25, 0, 0
BARO, 45973622, 0.3676127, 993.2292, 30.43, 0.142519, 45973, 0, 28.27
CTUN, 45973634, 0, 0, 0, 0.2160927, 0.06094303, 0.06094303, 0.36, 0, 0.19, 0, 0, 0
ATT, 45973728, 0, 0.66, 0, 0.37, 139.12, 139.13, 0, 1
RATE, 45973733, -2.986205, -0.2578534, -0.004247669, -1.696488, 0.9691296, -0.01019707, 0.009837716, -0.02286719, -7.834944E-05, 276.0229, -1.355362, 0
NKF1, 45973742, 0.66, 0.37, 139.13, -0.1071354, 0.08006206, 0.00681538, 0, 0, 0, -0.06094303, 0, 0.02, 0.03
NKF2, 45973742, -2, 0, 0, 0, 0, 0, 0, 0, 0, 0, 0, 0, 0
NKF3, 45973742, 0, 0, 0, -0.25, 0.18, 0, 0, 0, 0, 0, 0
NKF4, 45973742, 0, 0, 0, 0, 0, 1.474851E-05, 0, 0, 0, 19, 229, 0, 0
NKF5, 45973742, 0, 0, 0, 0, 0.19, 0.13, 0, 0.19, 0.5, 6.864405E-05, 0.00521485, 0.009680809
NKQ1, 45973742, 0.3491006, -0.009096128, 0.004719248, 0.9370293
AHR2, 45973786, 0.75, 0.4, 140.97, 0.36, 0, 0, 0.3340118, -0.001144881, 0.007353639, 0.9425395
MOTB, 45973793, 1, 1, 0, 1
RCIN, 45973798, 0, 0, 0, 0, 0, 0, 0, 0, 0, 0, 0, 0, 0, 0
RCOU, 45973803, 1228, 1238, 1221, 1245, 0, 0, 0, 0, 0, 0, 0, 0, 0, 0
VIBE, 45973812, 0.4889908, 0.48715, 0.6865705, 0, 0, 0
CTRL, 45973818, 0.007100866, 0.001195202, 0.00399026, 0.00210722, 0.0007367743
PRX, 45973849, 2, 0.52, 0, 0.65, 0, 3.6, 0, 2.38, 0, 0, 0, 0.52
IMU, 45993922, 0.002720739, -0.01039949, 0.009175588, 0.1195526, 0.01473963, -9.791015, 0, 0, 32.42074, 1, 1, 1000, 1000
RFND, 46023673, 0.2, 25, 0, 0
IMU, 46033805, -0.009370269, 0.01698346, 0.01092763, 0.1487533, -0.01651293, -9.809183, 0, 0, 32.42311, 1, 1, 1000, 1000
MAG, 46073627, 394, 500, 342, 0, 0, 0, 0, 0, 0, 1, 46073618
RFND, 46073656, 0.2, 25, 0, 0
BARO, 46074205, 0.3786688, 993.228, 30.43, 0.3680707, 46073, 0, 28.27
CTUN, 46074228, 0, 0, 0, 0.2160927, 0.06071116, 0.06071116, 0.37, 0, 0.19, 0, 0, 0
ATT, 46074603, 0, 0.68, 0, 0.35, 139.11, 139.12, 0, 1
RATE, 46074609, -3.084771, 0.3306969, -0.00959909, -1.618693, 0.08364979, -0.006476909, 0.00963675, -0.5004984, 0.0001294128, 259.4462, 1.405239, 0
NKF1, 46074617, 0.68, 0.35, 139.12, -0.1076889, 0.0813472, 0.006406079, 0, 0, 0, -0.06071116, 0, 0.02, 0.03
NKF2, 46074617, -2, 0, 0, 0, 0, 0, 0, 0, 0, 0, 0, 0, 0
NKF3, 46074617, 0, 0, 0, -0.26, 0.2, 0, 0, 0, 0, 0, 0
NKF4, 46074617, 0, 0, 0, 0, 0, 1.609006E-05, 0, 0, 0, 19, 229, 0, 0
NKF5, 46074617, 0, 0, 0, 0, 0.19, 0.13, 0, 0.19, 0.5, 8.048884E-05, 0.004406236, 0.007628202
NKQ1, 46074617, 0.3492089, -0.008875194, 0.004849396, 0.9369904
AHR2, 46074663, 0.77, 0.38, 140.96, 0.37, 0, 0, 0.3340941, -0.0009405795, 0.007501397, 0.9425094
MOTB, 46074670, 1, 1, 0, 1
RCIN, 46074675, 0, 0, 0, 0, 0, 0, 0, 0, 0, 0, 0, 0, 0, 0
RCOU, 46074680, 1237, 1232, 1221, 1248, 0, 0, 0, 0, 0, 0, 0, 0, 0, 0
VIBE, 46074688, 0.3704368, 0.404232, 0.5464175, 0, 0, 0
CTRL, 46074694, 0.007224221, 0.001880873, 0.003976477, 0.002681037, 0.0006215778
PRX, 46074724, 2, 0.52, 0, 0.65, 0, 3.6, 0, 2.42, 0, 0, 0, 0.52
