FMT, 128, 89, FMT, BBnNZ, Type,Length,Name,Format,Columns
FMT, 129, 31, PARM, QNf, TimeUS,Name,Value
FMT, 130, 46, GPS, QBIHBcLLefffB, TimeUS,Status,GMS,GWk,NSats,HDop,Lat,Lng,Alt,Spd,GCrs,VZ,U
FMT, 131, 46, GPS2, QBIHBcLLefffB, TimeUS,Status,GMS,GWk,NSats,HDop,Lat,Lng,Alt,Spd,GCrs,VZ,U
FMT, 132, 46, GPSB, QBIHBcLLefffB, TimeUS,Status,GMS,GWk,NSats,HDop,Lat,Lng,Alt,Spd,GCrs,VZ,U
FMT, 193, 24, GPA, QCCCCBI, TimeUS,VDop,HAcc,VAcc,SAcc,VV,SMS
FMT, 194, 24, GPA2, QCCCCBI, TimeUS,VDop,HAcc,VAcc,SAcc,VV,SMS
FMT, 195, 24, GPAB, QCCCCBI, TimeUS,VDop,HAcc,VAcc,SAcc,VV,SMS
FMT, 133, 53, IMU, QffffffIIfBBHH, TimeUS,GyrX,GyrY,GyrZ,AccX,AccY,AccZ,EG,EA,T,GH,AH,GHz,AHz
FMT, 134, 75, MSG, QZ, TimeUS,Message
FMT, 135, 39, RCIN, QHHHHHHHHHHHHHH, TimeUS,C1,C2,C3,C4,C5,C6,C7,C8,C9,C10,C11,C12,C13,C14
FMT, 136, 39, RCOU, QHHHHHHHHHHHHHH, TimeUS,C1,C2,C3,C4,C5,C6,C7,C8,C9,C10,C11,C12,C13,C14
FMT, 137, 15, RSSI, Qf, TimeUS,RXRSSI
FMT, 139, 37, BARO, QffcfIff, TimeUS,Alt,Press,Temp,CRt,SMS,Offset,GndTemp
FMT, 140, 22, POWR, QffHB, TimeUS,Vcc,VServo,Flags,Safety
FMT, 143, 45, CMD, QHHHfffffff, TimeUS,CTot,CNum,CId,Prm1,Prm2,Prm3,Prm4,Lat,Lng,Alt
FMT, 144, 20, RAD, QBBBBBHH, TimeUS,RSSI,RemRSSI,TxBuf,Noise,RemNoise,RxErrors,Fixed
FMT, 146, 43, CAM, QIHLLeeeccC, TimeUS,GPSTime,GPSWeek,Lat,Lng,Alt,RelAlt,GPSAlt,Roll,Pitch,Yaw
FMT, 232, 43, TRIG, QIHLLeeeccC, TimeUS,GPSTime,GPSWeek,Lat,Lng,Alt,RelAlt,GPSAlt,Roll,Pitch,Yaw
FMT, 162, 30, ARSP, QffcffB, TimeUS,Airspeed,DiffPress,Temp,RawPress,Offset,U
FMT, 164, 45, CURR, QfffcHHHHHHHHHH, TimeUS,Volt,Curr,CurrTot,Temp,V1,V2,V3,V4,V5,V6,V7,V8,V9,V10
FMT, 165, 45, CUR2, QfffcHHHHHHHHHH, TimeUS,Volt,Curr,CurrTot,Temp,V1,V2,V3,V4,V5,V6,V7,V8,V9,V10
FMT, 163, 27, ATT, QccccCCCC, TimeUS,DesRoll,Roll,DesPitch,Pitch,DesYaw,Yaw,ErrRP,ErrYaw
FMT, 166, 34, MAG, QhhhhhhhhhBI, TimeUS,MagX,MagY,MagZ,OfsX,OfsY,OfsZ,MOfsX,MOfsY,MOfsZ,Health,S
FMT, 169, 14, MODE, QMBB, TimeUS,Mode,ModeNum,Rsn
FMT, 196, 17, RFND, QCBCB, TimeUS,Dist1,Orient1,Dist2,Orient2
FMT, 223, 33, DMS, IIIIIBBBBBBBBBB, TimeMS,N,Dp,RT,RS,Er,Fa,Fmn,Fmx,Pa,Pmn,Pmx,Sa,Smn,Smx
FMT, 240, 41, BCN, QBBfffffff, TimeUS,Health,Cnt,D0,D1,D2,D3,PosX,PosY,PosZ
FMT, 138, 53, IMU2, QffffffIIfBBHH, TimeUS,GyrX,GyrY,GyrZ,AccX,AccY,AccZ,EG,EA,T,GH,AH,GHz,AHz
FMT, 147, 53, IMU3, QffffffIIfBBHH, TimeUS,GyrX,GyrY,GyrZ,AccX,AccY,AccZ,EG,EA,T,GH,AH,GHz,AHz
FMT, 141, 45, AHR2, QccCfLLffff, TimeUS,Roll,Pitch,Yaw,Alt,Lat,Lng,Q1,Q2,Q3,Q4
FMT, 180, 31, POS, QLLfff, TimeUS,Lat,Lng,Alt,RelHomeAlt,RelOriginAlt
FMT, 142, 45, SIM, QccCfLLffff, TimeUS,Roll,Pitch,Yaw,Alt,Lat,Lng,Q1,Q2,Q3,Q4
FMT, 198, 51, NKF1, QccCfffffffccc, TimeUS,Roll,Pitch,Yaw,VN,VE,VD,dPD,PN,PE,PD,GX,GY,GZ
FMT, 199, 35, NKF2, QbccccchhhhhhB, TimeUS,AZbias,GSX,GSY,GSZ,VWN,VWE,MN,ME,MD,MX,MY,MZ,MI
FMT, 200, 33, NKF3, Qcccccchhhcc, TimeUS,IVN,IVE,IVD,IPN,IPE,IPD,IMX,IMY,IMZ,IYAW,IVT
FMT, 201, 35, NKF4, QcccccfbbHBHHb, TimeUS,SV,SP,SH,SM,SVT,errRP,OFN,OFE,FS,TS,SS,GPS,PI
FMT, 202, 40, NKF5, QBhhhcccCCfff, TimeUS,NI,FIX,FIY,AFI,HAGL,offset,RI,rng,Herr,eAng,eVel,ePos
FMT, 203, 51, NKF6, QccCfffffffccc, TimeUS,Roll,Pitch,Yaw,VN,VE,VD,dPD,PN,PE,PD,GX,GY,GZ
FMT, 204, 35, NKF7, QbccccchhhhhhB, TimeUS,AZbias,GSX,GSY,GSZ,VWN,VWE,MN,ME,MD,MX,MY,MZ,MI
FMT, 205, 33, NKF8, Qcccccchhhcc, TimeUS,IVN,IVE,IVD,IPN,IPE,IPD,IMX,IMY,IMZ,IYAW,IVT
FMT, 206, 35, NKF9, QcccccfbbHBHHb, TimeUS,SV,SP,SH,SM,SVT,errRP,OFN,OFE,FS,TS,SS,GPS,PI
FMT, 207, 36, NKF0, QBccCCcccccccc, TimeUS,ID,rng,innov,SIV,TR,BPN,BPE,BPD,OFH,OFL,OFN,OFE,OFD
FMT, 208, 27, NKQ1, Qffff, TimeUS,Q1,Q2,Q3,Q4
FMT, 209, 27, NKQ2, Qffff, TimeUS,Q1,Q2,Q3,Q4
FMT, 210, 51, XKF1, QccCfffffffccc, TimeUS,Roll,Pitch,Yaw,VN,VE,VD,dPD,PN,PE,PD,GX,GY,GZ
FMT, 211, 34, XKF2, QccccchhhhhhB, TimeUS,AX,AY,AZ,VWN,VWE,MN,ME,MD,MX,MY,MZ,MI
FMT, 212, 33, XKF3, Qcccccchhhcc, TimeUS,IVN,IVE,IVD,IPN,IPE,IPD,IMX,IMY,IMZ,IYAW,IVT
FMT, 213, 35, XKF4, QcccccfbbHBHHb, TimeUS,SV,SP,SH,SM,SVT,errRP,OFN,OFE,FS,TS,SS,GPS,PI
FMT, 214, 40, XKF5, QBhhhcccCCfff, TimeUS,NI,FIX,FIY,AFI,HAGL,offset,RI,rng,Herr,eAng,eVel,ePos
FMT, 215, 51, XKF6, QccCfffffffccc, TimeUS,Roll,Pitch,Yaw,VN,VE,VD,dPD,PN,PE,PD,GX,GY,GZ
FMT, 216, 34, XKF7, QccccchhhhhhB, TimeUS,AX,AY,AZ,VWN,VWE,MN,ME,MD,MX,MY,MZ,MI
FMT, 217, 33, XKF8, Qcccccchhhcc, TimeUS,IVN,IVE,IVD,IPN,IPE,IPD,IMX,IMY,IMZ,IYAW,IVT
FMT, 218, 35, XKF9, QcccccfbbHBHHb, TimeUS,SV,SP,SH,SM,SVT,errRP,OFN,OFE,FS,TS,SS,GPS,PI
FMT, 219, 36, XKF0, QBccCCcccccccc, TimeUS,ID,rng,innov,SIV,TR,BPN,BPE,BPD,OFH,OFL,OFN,OFE,OFD
FMT, 220, 27, XKQ1, Qffff, TimeUS,Q1,Q2,Q3,Q4
FMT, 221, 27, XKQ2, Qffff, TimeUS,Q1,Q2,Q3,Q4
FMT, 222, 35, XKFD, Qffffff, TimeUS,IX,IY,IZ,IVX,IVY,IVZ
FMT, 148, 34, TERR, QBLLHffHH, TimeUS,Status,Lat,Lng,Spacing,TerrH,CHeight,Pending,Loaded
FMT, 149, 18, UBX1, QBHBBH, TimeUS,Instance,noisePerMS,jamInd,aPower,agcCnt
FMT, 150, 16, UBX2, QBbBbB, TimeUS,Instance,ofsI,magI,ofsQ,magQ
FMT, 151, 18, UBY1, QBHBBH, TimeUS,Instance,noisePerMS,jamInd,aPower,agcCnt
FMT, 152, 16, UBY2, QBbBbB, TimeUS,Instance,ofsI,magI,ofsQ,magQ
FMT, 170, 42, GRAW, QIHBBddfBbB, TimeUS,WkMS,Week,numSV,sv,cpMes,prMes,doMes,mesQI,cno,lli
FMT, 171, 24, GRXH, QdHbBB, TimeUS,rcvTime,week,leapS,numMeas,recStat
FMT, 172, 41, GRXS, QddfBBBHBBBBB, TimeUS,prMes,cpMes,doMes,gnss,sv,freq,lock,cno,prD,cpD,doD,trk
FMT, 173, 63, SBFE, QIHBBdddfffff, TimeUS,TOW,WN,Mode,Err,Lat,Lng,Height,Undul,Vn,Ve,Vu,COG
FMT, 153, 19, ESC1, Qcccc, TimeUS,RPM,Volt,Curr,Temp
FMT, 154, 19, ESC2, Qcccc, TimeUS,RPM,Volt,Curr,Temp
FMT, 155, 19, ESC3, Qcccc, TimeUS,RPM,Volt,Curr,Temp
FMT, 156, 19, ESC4, Qcccc, TimeUS,RPM,Volt,Curr,Temp
FMT, 157, 19, ESC5, Qcccc, TimeUS,RPM,Volt,Curr,Temp
FMT, 158, 19, ESC6, Qcccc, TimeUS,RPM,Volt,Curr,Temp
FMT, 159, 19, ESC7, Qcccc, TimeUS,RPM,Volt,Curr,Temp
FMT, 160, 19, ESC8, Qcccc, TimeUS,RPM,Volt,Curr,Temp
FMT, 167, 34, MAG2, QhhhhhhhhhBI, TimeUS,MagX,MagY,MagZ,OfsX,OfsY,OfsZ,MOfsX,MOfsY,MOfsZ,Health,S
FMT, 168, 34, MAG3, QhhhhhhhhhBI, TimeUS,MagX,MagY,MagZ,OfsX,OfsY,OfsZ,MOfsX,MOfsY,MOfsZ,Health,S
FMT, 174, 31, ACC1, QQfff, TimeUS,SampleUS,AccX,AccY,AccZ
FMT, 175, 31, ACC2, QQfff, TimeUS,SampleUS,AccX,AccY,AccZ
FMT, 176, 31, ACC3, QQfff, TimeUS,SampleUS,AccX,AccY,AccZ
FMT, 177, 31, GYR1, QQfff, TimeUS,SampleUS,GyrX,GyrY,GyrZ
FMT, 178, 31, GYR2, QQfff, TimeUS,SampleUS,GyrX,GyrY,GyrZ
FMT, 179, 31, GYR3, QQfff, TimeUS,SampleUS,GyrX,GyrY,GyrZ
FMT, 181, 35, PIDR, Qffffff, TimeUS,Des,P,I,D,FF,AFF
FMT, 182, 35, PIDP, Qffffff, TimeUS,Des,P,I,D,FF,AFF
FMT, 183, 35, PIDY, Qffffff, TimeUS,Des,P,I,D,FF,AFF
FMT, 184, 35, PIDA, Qffffff, TimeUS,Des,P,I,D,FF,AFF
FMT, 185, 35, PIDS, Qffffff, TimeUS,Des,P,I,D,FF,AFF
FMT, 186, 35, PIDL, Qffffff, TimeUS,Des,P,I,D,FF,AFF
FMT, 161, 37, BAR2, QffcfIff, TimeUS,Alt,Press,Temp,CRt,SMS,Offset,GndTemp
FMT, 197, 37, BAR3, QffcfIff, TimeUS,Alt,Press,Temp,CRt,SMS,Offset,GndTemp
FMT, 187, 35, VIBE, QfffIII, TimeUS,VibeX,VibeY,VibeZ,Clip0,Clip1,Clip2
FMT, 188, 47, IMT, Qfffffffff, TimeUS,DelT,DelvT,DelaT,DelAX,DelAY,DelAZ,DelVX,DelVY,DelVZ
FMT, 189, 47, IMT2, Qfffffffff, TimeUS,DelT,DelvT,DelaT,DelAX,DelAY,DelAZ,DelVX,DelVY,DelVZ
FMT, 190, 47, IMT3, Qfffffffff, TimeUS,DelT,DelvT,DelaT,DelAX,DelAY,DelAZ,DelVX,DelVY,DelVZ
FMT, 191, 24, ORGN, QBLLe, TimeUS,Type,Lat,Lng,Alt
FMT, 192, 19, RPM, Qff, TimeUS,rpm1,rpm2
FMT, 233, 47, GMB1, Iffffffffff, TimeMS,dt,dax,day,daz,dvx,dvy,dvz,jx,jy,jz
FMT, 234, 44, GMB2, IBfffffffff, TimeMS,es,ex,ey,ez,rx,ry,rz,tx,ty,tz
FMT, 235, 13, GMB3, Ihhh, TimeMS,rl_torque_cmd,el_torque_cmd,az_torque_cmd
FMT, 236, 59, RATE, Qffffffffffff, TimeUS,RDes,R,ROut,PDes,P,POut,YDes,Y,YOut,ADes,A,AOut
FMT, 237, 23, RALY, QBBLLh, TimeUS,Tot,Seq,Lat,Lng,Alt
FMT, 238, 43, VISO, Qffffffff, TimeUS,dt,AngDX,AngDY,AngDZ,PosDX,PosDY,PosDZ,conf
FMT, 224, 23, SBPH, QIII, TimeUS,CrcError,LastInject,IARhyp
FMT, 229, 80, SBR1, QHHBZ, TimeUS,msg_type,sender_id,msg_len,d1
FMT, 230, 205, SBR2, QHZZZ, TimeUS,msg_type,d2,d3,d4
FMT, 25, 41, ATUN, QBBfffffff, TimeUS,Axis,TuneStep,Targ,Min,Max,RP,RD,SP,ddt
FMT, 26, 19, ATDE, Qff, TimeUS,Angle,Rate
FMT, 31, 22, PTUN, QBfHHH, TimeUS,Param,TunVal,CtrlIn,TunLo,TunHi
FMT, 12, 28, OF, QBffff, TimeUS,Qual,flowX,flowY,bodyX,bodyY
FMT, 5, 51, NTUN, Qffffffffff, TimeUS,DPosX,DPosY,PosX,PosY,DVelX,DVelY,VelX,VelY,DAccX,DAccY
FMT, 4, 51, CTUN, Qffffffeccfhh, TimeUS,ThI,ABst,ThO,ThH,DAlt,Alt,BAlt,DSAlt,SAlt,TAlt,DCRt,CRt
FMT, 6, 32, PM, QHHIhBHII, TimeUS,NLon,NLoop,MaxT,PMT,I2CErr,INSErr,LogDrop,Mem
FMT, 30, 27, MOTB, Qffff, TimeUS,LiftMax,BatVolt,BatRes,ThLimit
FMT, 13, 12, EV, QB, TimeUS,Id
FMT, 20, 14, D16, QBh, TimeUS,Id,Value
FMT, 21, 14, DU16, QBH, TimeUS,Id,Value
FMT, 22, 16, D32, QBi, TimeUS,Id,Value
FMT, 23, 16, DU32, QBI, TimeUS,Id,Value
FMT, 24, 16, DFLT, QBf, TimeUS,Id,Value
FMT, 19, 13, ERR, QBB, TimeUS,Subsys,ECode
FMT, 32, 19, HELI, Qff, TimeUS,DRRPM,ERRPM
FMT, 33, 29, PL, QBBffff, TimeUS,Heal,TAcq,pX,pY,vX,vY
FMT, 34, 36, GUID, QBffffff, TimeUS,Type,pX,pY,pZ,vX,vY,vZ
FMT, 35, 32, THRO, QBffffbbbb, TimeUS,Stage,Vel,VelZ,Acc,AccEfZ,Throw,AttOk,HgtOk,PosOk
FMT, 36, 56, PRX, QBfffffffffff, TimeUS,Health,D0,D45,D90,D135,D180,D225,D270,D315,DUp,CAn,CDis
MODE, 48492462, 100, 100, 2
FMT, 254, 47, NKT1, QIffffffff, TimeUS,Cnt,IMUMin,IMUMax,EKFMin,EKFMax,AngMin,AngMax,VelMin,VelM
FMT, 253, 31, CTRL, Qfffff, TimeUS,RMSRollP,RMSRollD,RMSPitchP,RMSPitchD,RMSYaw
MSG, 48635411, APM:Copter V3.5.7 (38483450)
MSG, 48635416, New mission
MSG, 48635427, Frame: QUAD
MODE, 48635432, Autonomous, 100, 2
IMU, 48643129, 0.0002022364, -0.0002938563, -0.0002467985, 0.2045245, -0.01692718, -9.81611, 0, 0, 38.12871, 1, 1, 1000, 1000
MAG, 48662590, 399, 519, 361, 0, 0, 0, 0, 0, 0, 1, 48662582
RFND, 48662620, 0.2, 25, 0, 0
BARO, 48662660, 0.7205585, 993.0771, 36.26, 0.2509163, 48662, 0, 35
CTUN, 48662672, 0, 0, 0, 0.2099907, 0.07628551, 0.07628551, 0.72, 0, 0.19, 0, 0, 0
ATT, 48662771, 0, 0.6, 0, 0.38, 116.92, 116.93, 0, 1
RATE, 48662777, -2.719173, 0.00948632, -0.006432391, -1.711285, 0.016981, -0.004141853, 0.009809262, 0.009002274, -5.196438E-06, -362.4859, -1.543236, 0
NKF1, 48662785, 0.6, 0.38, 116.93, -0.01072736, -0.00239131, -0.008950268, 0, 0, 0, -0.07628551, 0, 0, 0
NKF2, 48662785, -1, 0, 0, 0, 0, 0, 0, 0, 0, 0, 0, 0, 0
NKF3, 48662785, 0, 0, 0, -0.01, 0, 0, 0, 0, 0, 0, 0
NKF4, 48662785, 0, 0, 0, 0, 0, 4.213489E-05, 0, 0, 0, 19, 229, 0, 0
NKF5, 48662785, 0, 0, 0, 0, 0.2, 0.13, 0, 0.19, 0.5, 0.0001116768, 0.003688873, 0.007428483
NKQ1, 48662785, 0.5229558, -0.008316187, 0.005958396, 0.8522984
AHR2, 48662829, 0.62, 0.25, 116.77, 0.72, 0, 0, 0.5242027, 0.0009940969, 0.005789275, 0.8515733
MOTB, 48662836, 1, 1, 0, 1
RCIN, 48662841, 0, 0, 0, 0, 0, 0, 0, 0, 0, 0, 0, 0, 0, 0
RCOU, 48662846, 1101, 1101, 1101, 1101, 0, 0, 0, 0, 0, 0, 0, 0, 0, 0
VIBE, 48662855, 0.02399246, 0.01921056, 0.0299976, 0, 0, 0
CTRL, 48662957, 0.006423325, 0.0001682918, 0.003999395, 0.0001151726, 4.341455E-05
PRX, 48662991, 2, 0.62, 0, 0.5, 0, 3.6, 0, 2.5, 0, 0, 90, 0.5
IMU, 48682788, 0.0002758696, -0.0005308334, -0.001230704, 0.2052897, -0.002836447, -9.812931, 0, 0, 38.12884, 1, 1, 1000, 1000
RFND, 48712605, 0.2, 25, 0, 0
IMU, 48722700, 0.0003212957, 0.0006105735, -0.0002034046, 0.1932838, -0.001092579, -9.827586, 0, 0, 38.1301, 1, 1, 1000, 1000
MAG, 48762497, 404, 520, 366, 0, 0, 0, 0, 0, 0, 1, 48762489
RFND, 48762526, 0.2, 25, 0, 0
BARO, 48762563, 0.7798986, 993.0706, 36.26, 0.1583754, 48762, 0, 35
CTUN, 48762576, 0, 0, 0, 0.2099907, 0.07660045, 0.07660045, 0.77, 0, 0.19, 0, 0, 0
DU32, 48762610, 7, 50389208
ATT, 48762741, 0, 0.6, 0, 0.38, 116.92, 116.93, 0, 1
RATE, 48762748, -2.728207, 0.07259175, -0.006637519, -1.715425, 0.01469781, -0.0041931, 0.009040936, -0.03569004, 1.719437E-05, -343.3929, -0.8520126, 0
NKF1, 48762755, 0.6, 0.38, 116.93, -0.01113145, -0.002962253, -0.008478838, 0, 0, 0, -0.07660045, 0, 0, 0
NKF2, 48762755, -1, 0, 0, 0, 0, 0, 0, 0, 0, 0, 0, 0, 0
NKF3, 48762755, 0, 0, 0, -0.01, 0, 0, 0, 0, 0, 0, 0
NKF4, 48762755, 0, 0, 0, 0, 0, 2.800803E-05, 0, 0, 0, 19, 229, 0, 0
NKF5, 48762755, 0, 0, 0, 0, 0.2, 0.13, 0, 0.19, 0.5, 8.595346E-05, 0.004019386, 0.00799014
NKQ1, 48762755, 0.5229589, -0.00831277, 0.005978571, 0.8522964
AHR2, 48762801, 0.62, 0.25, 116.77, 0.77, 0, 0, 0.5241995, 0.0009916849, 0.005811806, 0.8515751
MOTB, 48762808, 1, 1, 0, 1
RCIN, 48762812, 0, 0, 0, 0, 0, 0, 0, 0, 0, 0, 0, 0, 0, 0
RCOU, 48762818, 1101, 1101, 1101, 1101, 0, 0, 0, 0, 0, 0, 0, 0, 0, 0
VIBE, 48762826, 0.02083561, 0.02041798, 0.03191777, 0, 0, 0
CTRL, 48762833, 0.006439468, 0.0001651187, 0.004010337, 0.0001165752, 3.809054E-05
PRX, 48762937, 2, 0.62, 0, 0.51, 0, 3.6, 0, 2.51, 0, 0, 90, 0.51
IMU, 48762948, 0.00119183, 0.0003443255, -0.0005599794, 0.2007969, -0.01638436, -9.806709, 0, 0, 38.13147, 1, 1, 1000, 1000
IMU, 48802756, -0.0002989442, -0.0005132136, 0.0001201323, 0.2095561, -0.01334396, -9.813017, 0, 0, 38.1331, 1, 1, 1000, 1000
RFND, 48812989, 0.2, 25, 0, 0
IMU, 48842564, -0.0005363537, -8.380131E-05, -0.001457, 0.2025649, 0.006327292, -9.80901, 0, 0, 38.13531, 1, 1, 1000, 1000
MAG, 48862515, 399, 521, 363, 0, 0, 0, 0, 0, 0, 1, 48862507
RFND, 48862546, 0.2, 25, 0, 0
BARO, 48862581, 0.7798986, 993.0706, 36.26, 0.0680003, 48862, 0, 35
CTUN, 48862593, 0, 0, 0, 0.2099907, 0.07669077, 0.07669077, 0.77, 0, 0.19, 0, 0, 0
ATT, 48862794, 0, 0.6, 0, 0.37, 116.92, 116.93, 0, 1
RATE, 48862802, -2.722325, 0.004642865, -0.006477334, -1.706274, -0.02879238, -0.003955249, 0.01125386, 0.008480801, 9.383249E-05, -302.1943, -0.2723694, 0
NKF1, 48862810, 0.6, 0.37, 116.93, -0.01162346, -0.002799822, -0.007461587, 0, 0, 0, -0.07669077, 0, 0, 0
NKF2, 48862810, -1, 0, 0, 0, 0, 0, 0, 0, 0, 0, 0, 0, 0
NKF3, 48862810, 0, 0, 0, -0.01, 0, 0, 0, 0, 0, 0, 0
NKF4, 48862810, 0, 0, 0, 0, 0, 1.886905E-05, 0, 0, 0, 19, 229, 0, 0
NKF5, 48862810, 0, 0, 0, 0, 0.2, 0.13, 0, 0.19, 0.5, 6.386866E-05, 0.004213193, 0.008387198
NKQ1, 48862810, 0.5229796, -0.008304537, 0.005959664, 0.8522839
AHR2, 48862856, 0.62, 0.25, 116.76, 0.77, 0, 0, 0.5242149, 0.0009919195, 0.005794122, 0.8515658
MOTB, 48862931, 1, 1, 0, 1
RCIN, 48862937, 0, 0, 0, 0, 0, 0, 0, 0, 0, 0, 0, 0, 0, 0
RCOU, 48862943, 1101, 1101, 1101, 1101, 0, 0, 0, 0, 0, 0, 0, 0, 0, 0
VIBE, 48862951, 0.02068311, 0.02162125, 0.03297973, 0, 0, 0
CTRL, 48862958, 0.006424467, 0.0001635203, 0.003998468, 0.0001279115, 4.955718E-05
PRX, 48862989, 2, 0.62, 0, 0.51, 0, 3.6, 0, 2.49, 0, 0, 90, 0.51
IMU, 48882777, 0.000191614, -5.317803E-05, -0.0006514456, 0.1984392, -0.02454093, -9.823688, 0, 0, 38.13705, 1, 1, 1000, 1000
RFND, 48912514, 0.2, 25, 0, 0
IMU, 48922796, 8.724778E-05, -0.0001508981, 0.00124882, 0.1998388, -0.0004709876, -9.821143, 0, 0, 38.13894, 1, 1, 1000, 1000
MAG, 48962685, 405, 522, 360, 0, 0, 0, 0, 0, 0, 1, 48962676
RFND, 48962713, 0.2, 25, 0, 0
BARO, 48962752, 0.6979527, 993.0795, 36.26, 0.08634493, 48962, 0, 35
CTUN, 48962764, 0, 0, 0, 0.2099907, 0.07687484, 0.07687484, 0.69, 0, 0.19, 0, 0, 0
ATT, 48962859, 0, 0.6, 0, 0.37, 116.92, 116.93, 0, 1
RATE, 48962954, -2.725614, 0.04286586, -0.006622243, -1.705668, 0.06639279, -0.004321269, 0.008103455, -0.03252696, 7.902068E-05, -315.2734, -0.08440018, 0
NKF1, 48962966, 0.6, 0.37, 116.93, -0.01178792, -0.002777463, -0.007784528, 0, 0, 0, -0.07687484, 0, 0, 0
NKF2, 48962966, -1, 0, 0, 0, 0, 0, 0, 0, 0, 0, 0, 0, 0
NKF3, 48962966, 0, 0, 0, -0.01, 0, 0, 0, 0, 0, 0, 0
NKF4, 48962966, 0, 0, 0, 0, 0, 1.268235E-05, 0, 0, 0, 19, 229, 0, 0
NKF5, 48962966, 0, 0, 0, 0, 0.2, 0.13, 0, 0.19, 0.5, 4.874848E-05, 0.004312342, 0.008615642
NKQ1, 48962966, 0.522988, -0.008299147, 0.005964288, 0.8522788
AHR2, 48963014, 0.62, 0.25, 116.76, 0.69, 0, 0, 0.5242192, 0.0009872409, 0.005796719, 0.8515632
MOTB, 48963021, 1, 1, 0, 1
RCIN, 48963026, 0, 0, 0, 0, 0, 0, 0, 0, 0, 0, 0, 0, 0, 0
RCOU, 48963032, 1101, 1101, 1101, 1101, 0, 0, 0, 0, 0, 0, 0, 0, 0, 0
VIBE, 48963040, 0.01860625, 0.02056283, 0.02984642, 0, 0, 0
CTRL, 48963046, 0.006430106, 0.0001522772, 0.003993367, 0.000143474, 6.090115E-05
PRX, 48963077, 2, 0.62, 0, 0.5, 0, 3.6, 0, 2.5, 0, 0, 90, 0.5
IMU, 48963086, 0.000672763, 0.001246881, -0.0005045764, 0.2090587, -0.01047508, -9.814287, 0, 0, 38.1411, 1, 1, 1000, 1000
IMU, 49002664, -0.0002936379, -0.0008949221, 0.0003004891, 0.1984686, -0.01204199, -9.80759, 0, 0, 38.1423, 1, 1, 1000, 1000
RFND, 49012533, 0.2, 25, 0, 0
IMU, 49042600, -0.0009002382, -0.001724913, 0.00198573, 0.2063496, -0.01787126, -9.826804, 0, 0, 38.14283, 1, 1, 1000, 1000
MAG, 49062829, 403, 526, 363, 0, 0, 0, 0, 0, 0, 1, 49062820
RFND, 49062858, 0.2, 25, 0, 0
BARO, 49062973, 0.695127, 993.0798, 36.26, 0.02040658, 49062, 0, 35
CTUN, 49062987, 0, 0, 0, 0.2099907, 0.07692592, 0.07692592, 0.69, 0, 0.19, 0, 0, 0
ATT, 49063081, 0, 0.6, 0, 0.37, 116.92, 116.93, 0, 1
RATE, 49063087, -2.718567, -0.0001639541, -0.006476169, -1.679569, -0.02985817, -0.004100903, 0.00945574, 0.1221894, -0.0001285361, -327.6963, 0.3528595, 0
NKF1, 49063095, 0.6, 0.37, 116.93, -0.0122967, -0.002437275, -0.008091266, 0, 0, 0, -0.07692592, 0, 0, 0
NKF2, 49063095, -1, 0, 0, 0, 0, 0, 0, 0, 0, 0, 0, 0, 0
NKF3, 49063095, 0, 0, 0, -0.01, 0, 0, 0, 0, 0, 0, 0
NKF4, 49063095, 0, 0, 0, 0, 0, 8.529937E-06, 0, 0, 0, 19, 229, 0, 0
NKF5, 49063095, 0, 0, 0, 0, 0.2, 0.13, 0, 0.19, 0.5, 4.02901E-05, 0.004306496, 0.008587081
NKQ1, 49063095, 0.5229477, -0.008267158, 0.005924868, 0.8523041
AHR2, 49063217, 0.62, 0.24, 116.77, 0.69, 0, 0, 0.5241753, 0.00100771, 0.005755661, 0.8515904
MOTB, 49063226, 1, 1, 0, 1
RCIN, 49063231, 0, 0, 0, 0, 0, 0, 0, 0, 0, 0, 0, 0, 0, 0
RCOU, 49063236, 1101, 1101, 1101, 1101, 0, 0, 0, 0, 0, 0, 0, 0, 0, 0
VIBE, 49063245, 0.0206912, 0.01974669, 0.03115931, 0, 0, 0
CTRL, 49063252, 0.006409351, 0.0001528406, 0.003949629, 0.0001592918, 6.422831E-05
PRX, 49063283, 2, 0.62, 0, 0.5, 0, 3.6, 0, 2.5, 0, 0, 90, 0.5
IMU, 49082617, 0.001218834, -0.0001704423, 0.0009874287, 0.199449, -0.003535267, -9.801246, 0, 0, 38.14302, 1, 1, 1000, 1000
RFND, 49112521, 0.2, 25, 0, 0
IMU, 49122574, -0.000697058, 0.0006941141, 0.0001344793, 0.2116799, -0.005793589, -9.816729, 0, 0, 38.14284, 1, 1, 1000, 1000
MAG, 49162545, 408, 518, 366, 0, 0, 0, 0, 0, 0, 1, 49162536
RFND, 49162574, 0.2, 25, 0, 0
BARO, 49162612, 0.7431642, 993.0747, 36.27, -0.1589466, 49162, 0, 35
CTUN, 49162625, 0, 0, 0, 0.2099907, 0.07707513, 0.07707513, 0.74, 0, 0.19, 0, 0, 0
ATT, 49162722, 0, 0.6, 0, 0.37, 116.93, 116.93, 0, 1
RATE, 49162728, -2.724166, 0.01612336, -0.006473323, -1.675215, -0.03950382, -0.003919464, 0.007596255, 0.00403476, -4.501321E-05, -340.366, 2.241707, 0
NKF1, 49162736, 0.6, 0.37, 116.93, -0.0128922, -0.002037549, -0.008404098, 0, 0, 0, -0.07707513, 0, 0, 0
NKF2, 49162736, -1, 0, 0, 0, 0, 0, 0, 0, 0, 0, 0, 0, 0
NKF3, 49162736, 0, 0, 0, -0.02, 0, 0, 0, 0, 0, 0, 0
NKF4, 49162736, 0, 0, 0, 0, 0, 5.791573E-06, 0, 0, 0, 19, 229, 0, 0
NKF5, 49162736, 0, 0, 0, 0, 0.2, 0.13, 0, 0.19, 0.5, 3.673459E-05, 0.004271169, 0.008555088
NKQ1, 49162736, 0.5229331, -0.008251546, 0.005929708, 0.8523132
AHR2, 49162780, 0.62, 0.24, 116.77, 0.74, 0, 0, 0.5241579, 0.001011356, 0.005762023, 0.8516011
MOTB, 49162787, 1, 1, 0, 1
RCIN, 49162792, 0, 0, 0, 0, 0, 0, 0, 0, 0, 0, 0, 0, 0, 0
RCOU, 49162797, 1101, 1101, 1101, 1101, 0, 0, 0, 0, 0, 0, 0, 0, 0, 0
VIBE, 49162806, 0.02031128, 0.02022913, 0.03162198, 0, 0, 0
CTRL, 49162813, 0.006420373, 0.0001641964, 0.003935672, 0.0001680123, 8.326625E-05
PRX, 49162844, 2, 0.62, 0, 0.51, 0, 3.6, 0, 2.49, 0, 0, 90, 0.51
IMU, 49162851, 0.0002059559, -0.0006012824, 0.0001335951, 0.2149745, -0.01823281, -9.837443, 0, 0, 38.14272, 1, 1, 1000, 1000
IMU, 49202751, 0.001312852, -0.0001407165, -0.0001536471, 0.195063, -0.01258702, -9.805239, 0, 0, 38.14342, 1, 1, 1000, 1000
RFND, 49212680, 0.2, 25, 0, 0
IMU, 49242663, -0.0005024403, -0.0003315815, -0.0002334681, 0.208308, -0.01505212, -9.831162, 0, 0, 38.14489, 1, 1, 1000, 1000
MAG, 49262533, 401, 522, 359, 0, 0, 0, 0, 0, 0, 1, 49262525
RFND, 49262562, 0.2, 25, 0, 0
BARO, 49262600, 0.7431642, 993.0747, 36.27, -0.1713092, 49262, 0, 35
CTUN, 49262612, 0, 0, 0, 0.2099907, 0.07719389, 0.07719389, 0.74, 0, 0.19, 0, 0, 0
ATT, 49262751, 0, 0.6, 0, 0.37, 116.93, 116.93, 0, 1
RATE, 49262758, -2.729546, -0.01486838, -0.006328085, -1.671188, -0.02733651, -0.00396288, 0.007258192, -0.006433103, 1.245183E-05, -341.0372, 1.725197, 0
NKF1, 49262764, 0.6, 0.37, 116.93, -0.01336022, -0.001621781, -0.008420671, 0, 0, 0, -0.07719389, 0, 0, 0
NKF2, 49262764, -1, 0, 0, 0, 0, 0, 0, 0, 0, 0, 0, 0, 0
NKF3, 49262764, 0, 0, 0, -0.02, 0, 0, 0, 0, 0, 0, 0
NKF4, 49262764, 0, 0, 0, 0, 0, 3.96506E-06, 0, 0, 0, 19, 229, 0, 0
NKF5, 49262764, 0, 0, 0, 0, 0.2, 0.13, 0, 0.19, 0.5, 3.551873E-05, 0.004178599, 0.008348154
NKQ1, 49262764, 0.522931, -0.008239193, 0.005935682, 0.8523146
AHR2, 49262805, 0.62, 0.24, 116.77, 0.74, 0, 0, 0.524153, 0.001011144, 0.005769345, 0.851604
MOTB, 49262812, 1, 1, 0, 1
RCIN, 49262816, 0, 0, 0, 0, 0, 0, 0, 0, 0, 0, 0, 0, 0, 0
RCOU, 49262822, 1101, 1101, 1101, 1101, 0, 0, 0, 0, 0, 0, 0, 0, 0, 0
VIBE, 49262830, 0.01984008, 0.01890737, 0.02974235, 0, 0, 0
CTRL, 49262837, 0.006434662, 0.0001645807, 0.003929912, 0.0001545785, 6.962136E-05
PRX, 49262942, 2, 0.62, 0, 0.51, 0, 3.6, 0, 2.51, 0, 0, 90, 0.51
IMU, 49282998, 3.332245E-05, 0.0004489676, 0.0006141465, 0.2158526, -0.002455336, -9.807079, 0, 0, 38.14655, 1, 1, 1000, 1000
RFND, 49312535, 0.2, 25, 0, 0
IMU, 49322777, 0.0005377693, 0.0001849296, -0.000293443, 0.1999252, -0.009889169, -9.823072, 0, 0, 38.14779, 1, 1, 1000, 1000
MAG, 49362487, 403, 520, 363, 0, 0, 0, 0, 0, 0, 1, 49362478
RFND, 49362514, 0.2, 25, 0, 0
BARO, 49362551, 0.6499155, 993.0849, 36.27, -0.01589468, 49362, 0, 35
CTUN, 49362564, 0, 0, 0, 0.2099907, 0.07733127, 0.07733127, 0.64, 0, 0.19, 0, 0, 0
ATT, 49362651, 0, 0.6, 0, 0.37, 116.92, 116.93, 0, 1
RATE, 49362658, -2.740242, 0.003339919, -0.006212829, -1.67738, -0.03248318, -0.003736867, 0.006582076, -0.03651658, 5.92375E-05, -359.4685, 0.8200645, 0
NKF1, 49362664, 0.6, 0.37, 116.93, -0.01451871, -0.001381858, -0.008875764, 0, 0, 0, -0.07733127, 0, 0, 0
NKF2, 49362664, -1, 0, 0, 0, 0, 0, 0, 0, 0, 0, 0, 0, 0
NKF3, 49362664, 0, 0, 0, -0.02, 0, 0, 0, 0, 0, 0, 0
NKF4, 49362664, 0, 0, 0, 0, 0, 2.772593E-06, 0, 0, 0, 19, 229, 0, 0
NKF5, 49362664, 0, 0, 0, 0, 0.2, 0.13, 0, 0.19, 0.5, 3.529453E-05, 0.004074563, 0.008169817
NKQ1, 49362664, 0.5229353, -0.008237819, 0.005958856, 0.8523119
AHR2, 49362708, 0.62, 0.25, 116.77, 0.64, 0, 0, 0.5241546, 0.001000076, 0.005794667, 0.8516029
MOTB, 49362715, 1, 1, 0, 1
RCIN, 49362719, 0, 0, 0, 0, 0, 0, 0, 0, 0, 0, 0, 0, 0, 0
RCOU, 49362725, 1101, 1101, 1101, 1101, 0, 0, 0, 0, 0, 0, 0, 0, 0, 0
VIBE, 49362733, 0.01916071, 0.01949643, 0.0285833, 0, 0, 0
CTRL, 49362740, 0.006456985, 0.0001735008, 0.003943247, 0.0001421128, 5.905067E-05
PRX, 49362771, 2, 0.62, 0, 0.5, 0, 3.6, 0, 2.5, 0, 0, 90, 0.5
IMU, 49362779, -1.706115E-05, -0.0004788523, -0.0005742392, 0.2097761, -0.004118338, -9.823351, 0, 0, 38.14894, 1, 1, 1000, 1000
IMU, 49402648, 3.328414E-05, -0.0007933206, 0.0001421622, 0.2116769, -0.008122418, -9.80071, 0, 0, 38.15077, 1, 1, 1000, 1000
RFND, 49413368, 0.2, 25, 0, 0
IMU, 49442518, -0.001075429, -2.577408E-06, -0.0006787858, 0.1983717, -0.01150205, -9.818427, 0, 0, 38.15186, 1, 1, 1000, 1000
MAG, 49462498, 401, 520, 363, 0, 0, 0, 0, 0, 0, 1, 49462489
RFND, 49462524, 0.2, 25, 0, 0
BARO, 49462561, 0.6499155, 993.0849, 36.27, -0.02560807, 49462, 0, 35
CTUN, 49462574, 0, 0, 0, 0.2099907, 0.07746281, 0.07746281, 0.64, 0, 0.19, 0, 0, 0
ATT, 49462663, 0, 0.6, 0, 0.37, 116.92, 116.93, 0, 1
RATE, 49462669, -2.738717, -0.0275655, -0.006455095, -1.675146, 0.04500695, -0.004212741, 0.00707384, -0.0004224866, 8.100575E-05, -328.8406, 2.08416, 0
NKF1, 49462676, 0.6, 0.37, 116.93, -0.01540958, -0.001349705, -0.008119521, 0, 0, 0, -0.07746281, 0, 0, 0
NKF2, 49462676, -1, 0, 0, 0, 0, 0, 0, 0, 0, 0, 0, 0, 0
NKF3, 49462676, 0, 0, 0, -0.02, 0, 0, 0, 0, 0, 0, 0
NKF4, 49462676, 0, 0, 0, 0, 0, 1.999359E-06, 0, 0, 0, 19, 229, 0, 0
NKF5, 49462676, 0, 0, 0, 0, 0.2, 0.13, 0, 0.19, 0.5, 3.521664E-05, 0.003942635, 0.007875529
NKQ1, 49462676, 0.5229383, -0.008236525, 0.005953794, 0.8523099
AHR2, 49462721, 0.62, 0.25, 116.77, 0.64, 0, 0, 0.5241553, 0.0009885757, 0.005791439, 0.8516025
MOTB, 49462729, 1, 1, 0, 1
RCIN, 49462733, 0, 0, 0, 0, 0, 0, 0, 0, 0, 0, 0, 0, 0, 0
RCOU, 49462738, 1101, 1101, 1101, 1101, 0, 0, 0, 0, 0, 0, 0, 0, 0, 0
VIBE, 49462747, 0.02032668, 0.01696002, 0.033094, 0, 0, 0
CTRL, 49462754, 0.006450955, 0.0001860511, 0.003932835, 0.0001648866, 5.640056E-05
PRX, 49462785, 2, 0.63, 0, 0.51, 0, 3.6, 0, 2.49, 0, 0, 90, 0.51
IMU, 49482747, -0.0002116722, 5.776488E-05, 0.0004867162, 0.1962598, -0.01322517, -9.821955, 0, 0, 38.15257, 1, 1, 1000, 1000
RFND, 49512532, 0.2, 25, 0, 0
IMU, 49522564, 1.023964E-05, 0.0003367378, 0.0007099792, 0.2016658, -0.000701695, -9.809614, 0, 0, 38.15429, 1, 1, 1000, 1000
MAG, 49562504, 404, 524, 360, 0, 0, 0, 0, 0, 0, 1, 49562495
RFND, 49562533, 0.2, 25, 0, 0
BARO, 49562570, 0.6612183, 993.0836, 36.27, -0.213695, 49562, 0, 35
CTUN, 49562582, 0, 0, 0, 0.2099907, 0.07746483, 0.07746483, 0.66, 0, 0.19, 0, 0, 0
ATT, 49562675, 0, 0.6, 0, 0.37, 116.93, 116.94, 0, 1
RATE, 49562682, -2.732672, -0.02557491, -0.006256765, -1.680274, 0.02396431, -0.004049504, 0.01000908, 0.01061862, -2.553494E-05, -306.1752, -0.0007629395, 0
NKF1, 49562689, 0.6, 0.37, 116.94, -0.0168815, -0.002026364, -0.007559882, 0, 0, 0, -0.07746483, 0, 0, 0
NKF2, 49562689, -1, 0, 0, 0, 0, 0, 0, 0, 0, 0, 0, 0, 0
NKF3, 49562689, 0, 0, 0, -0.02, 0, 0, 0, 0, 0, 0, 0
NKF4, 49562689, 0, 0, 0, 0, 0, 1.497427E-06, 0, 0, 0, 19, 229, 0, 0
NKF5, 49562689, 0, 0, 0, 0, 0.2, 0.13, 0, 0.19, 0.5, 3.536431E-05, 0.00380482, 0.007613608
NKQ1, 49562689, 0.52292, -0.008251525, 0.005948097, 0.8523211
AHR2, 49562733, 0.62, 0.25, 116.78, 0.66, 0, 0, 0.5241343, 0.0009582856, 0.005784146, 0.8516154
MOTB, 49562741, 1, 1, 0, 1
RCIN, 49562745, 0, 0, 0, 0, 0, 0, 0, 0, 0, 0, 0, 0, 0, 0
RCOU, 49562750, 1101, 1101, 1101, 1101, 0, 0, 0, 0, 0, 0, 0, 0, 0, 0
VIBE, 49562758, 0.01690072, 0.0188755, 0.03594292, 0, 0, 0
CTRL, 49562765, 0.006440157, 0.0001667627, 0.003944984, 0.0001447779, 5.045243E-05
PRX, 49562796, 2, 0.62, 0, 0.51, 0, 3.6, 0, 2.5, 0, 0, 90, 0.51
IMU, 49562804, -0.000521767, 0.0005064079, 0.0002484702, 0.1953672, 0.0007521821, -9.81546, 0, 0, 38.15545, 1, 1, 1000, 1000
IMU, 49602594, 0.0001261089, 0.0003616576, -0.0008531614, 0.2086652, -0.0146928, -9.822697, 0, 0, 38.15612, 1, 1, 1000, 1000
RFND, 49612967, 0.2, 25, 0, 0
IMU, 49642678, -0.0009380349, 0.001402381, 5.812156E-05, 0.2002864, -0.02067301, -9.820927, 0, 0, 38.15635, 1, 1, 1000, 1000
MAG, 49662664, 397, 518, 359, 0, 0, 0, 0, 0, 0, 1, 49662655
RFND, 49662694, 0.2, 25, 0, 0
BARO, 49662732, 0.6923013, 993.0801, 36.27, -0.2490165, 49662, 0, 35
CTUN, 49662745, 0, 0, 0, 0.2099907, 0.07757481, 0.07757481, 0.69, 0, 0.19, 0, 0, 0
ATT, 49663094, 0, 0.6, 0, 0.37, 116.93, 116.94, 0, 1
RATE, 49663102, -2.733962, -0.01675352, -0.006511264, -1.685238, 0.0288762, -0.00392455, 0.009271444, 0.001871338, 2.79709E-06, -312.9991, -1.07708, 0
NKF1, 49663110, 0.6, 0.37, 116.94, -0.01689796, -0.001363762, -0.007728372, 0, 0, 0, -0.07757481, 0, 0, 0
NKF2, 49663110, -1, 0, 0, 0, 0, 0, 0, 0, 0, 0, 0, 0, 0
NKF3, 49663110, 0, 0, 0, -0.02, 0, 0, 0, 0, 0, 0, 0
NKF4, 49663110, 0, 0, 0, 0, 0, 1.183258E-06, 0, 0, 0, 19, 229, 0, 0
NKF5, 49663110, 0, 0, 0, 0, 0.2, 0.13, 0, 0.19, 0.5, 3.549351E-05, 0.003659971, 0.00728454
NKQ1, 49663110, 0.5229198, -0.008258213, 0.005956898, 0.8523211
AHR2, 49663230, 0.62, 0.25, 116.78, 0.69, 0, 0, 0.5241318, 0.0009367931, 0.005791191, 0.851617
MOTB, 49663238, 1, 1, 0, 1
RCIN, 49663243, 0, 0, 0, 0, 0, 0, 0, 0, 0, 0, 0, 0, 0, 0
RCOU, 49663248, 1101, 1101, 1101, 1101, 0, 0, 0, 0, 0, 0, 0, 0, 0, 0
VIBE, 49663257, 0.01819785, 0.02089048, 0.03259591, 0, 0, 0
CTRL, 49663264, 0.006438353, 0.0001758229, 0.003962223, 0.0001453689, 4.293957E-05
PRX, 49663295, 2, 0.62, 0, 0.51, 0, 3.6, 0, 2.52, 0, 0, 90, 0.51
IMU, 49683510, 0.000743895, -0.0003579957, 0.0002403262, 0.1943937, -0.01248176, -9.804993, 0, 0, 38.15663, 1, 1, 1000, 1000
RFND, 49712624, 0.2, 25, 0, 0
IMU, 49722734, -0.001083646, -1.403408E-05, -0.000182725, 0.2180101, -0.01328577, -9.809491, 0, 0, 38.15816, 1, 1, 1000, 1000
MAG, 49762657, 403, 521, 362, 0, 0, 0, 0, 0, 0, 1, 49762648
RFND, 49762686, 0.2, 25, 0, 0
BARO, 49762726, 0.6131811, 993.0889, 36.27, -0.08653776, 49762, 0, 35
CTUN, 49762739, 0, 0, 0, 0.2099907, 0.07750224, 0.07750224, 0.61, 0, 0.19, 0, 0, 0
DU32, 49762779, 7, 50389208
ATT, 49763042, 0, 0.6, 0, 0.37, 116.93, 116.94, 0, 1
RATE, 49763050, -2.725415, -0.06322252, -0.00622444, -1.675548, -0.03162503, -0.003729303, 0.009056224, 0.0729131, -1.879786E-05, -298.6254, 0.3593445, 0
NKF1, 49763059, 0.6, 0.37, 116.94, -0.01812332, -0.001157044, -0.007373465, 0, 0, 0, -0.07750224, 0, 0, 0
NKF2, 49763059, -1, 0, 0, 0, 0, 0, 0, 0, 0, 0, 0, 0, 0
NKF3, 49763059, 0, 0, 0, -0.02, 0, 0, 0, 0, 0, 0, 0
NKF4, 49763059, 0, 0, 0, 0, 0, 1.009049E-06, 0, 0, 0, 19, 229, 0, 0
NKF5, 49763059, 0, 0, 0, 0, 0.2, 0.13, 0, 0.19, 0.5, 3.581965E-05, 0.003508526, 0.006988749
NKQ1, 49763059, 0.5229025, -0.008252699, 0.005933138, 0.8523318
AHR2, 49763107, 0.61, 0.25, 116.78, 0.61, 0, 0, 0.524112, 0.0009308211, 0.005765503, 0.8516294
MOTB, 49763115, 1, 1, 0, 1
RCIN, 49763120, 0, 0, 0, 0, 0, 0, 0, 0, 0, 0, 0, 0, 0, 0
RCOU, 49763125, 1101, 1101, 1101, 1101, 0, 0, 0, 0, 0, 0, 0, 0, 0, 0
VIBE, 49763133, 0.01823581, 0.02142762, 0.03173792, 0, 0, 0
CTRL, 49763215, 0.006422481, 0.0001822893, 0.003949586, 0.0001390679, 3.628626E-05
PRX, 49763252, 2, 0.62, 0, 0.5, 0, 3.6, 0, 2.5, 0, 0, 90, 0.5
IMU, 49763261, -0.001179009, -0.0004636017, 0.001335866, 0.2081414, -0.005178189, -9.81883, 0, 0, 38.15954, 1, 1, 1000, 1000
IMU, 49802821, -0.0004193714, -0.0003066188, -0.0003794465, 0.2079301, -0.006345663, -9.819621, 0, 0, 38.16037, 1, 1, 1000, 1000
RFND, 49812630, 0.2, 25, 0, 0
IMU, 49842987, 0.001197553, -0.0007826981, 0.0007326837, 0.2133643, 0.002466726, -9.829338, 0, 0, 38.16149, 1, 1, 1000, 1000
MAG, 49862831, 405, 522, 359, 0, 0, 0, 0, 0, 0, 1, 49862822
RFND, 49862860, 0.2, 25, 0, 0
BARO, 49862998, 0.6555669, 993.0842, 36.28, -0.007064415, 49862, 0, 35
CTUN, 49863014, 0, 0, 0, 0.2099907, 0.07757959, 0.07757959, 0.65, 0, 0.19, 0, 0, 0
ATT, 49863116, 0, 0.6, 0, 0.36, 116.93, 116.94, 0, 1
RATE, 49863122, -2.731835, 0.02645018, -0.00634286, -1.660312, -0.07305038, -0.003692889, 0.007657762, 0.03688355, 6.815323E-06, -322.3384, 1.199245, 0
NKF1, 49863130, 0.6, 0.36, 116.94, -0.01961329, -0.0009321221, -0.007958972, 0, 0, 0, -0.07757959, 0, 0, 0
NKF2, 49863130, -1, 0, 0, 0, 0, 0, 0, 0, 0, 0, 0, 0, 0
NKF3, 49863130, 0, 0, 0, -0.03, 0, 0, 0, 0, 0, 0, 0
NKF4, 49863130, 0, 0, 0, 0, 0, 9.053784E-07, 0, 0, 0, 19, 229, 0, 0
NKF5, 49863130, 0, 0, 0, 0, 0.2, 0.13, 0, 0.19, 0.5, 3.604103E-05, 0.003369631, 0.006728482
NKQ1, 49863130, 0.5229048, -0.008220117, 0.005927003, 0.8523308
AHR2, 49863247, 0.61, 0.25, 116.78, 0.65, 0, 0, 0.5241116, 0.000951956, 0.005757326, 0.8516297
MOTB, 49863254, 1, 1, 0, 1
RCIN, 49863259, 0, 0, 0, 0, 0, 0, 0, 0, 0, 0, 0, 0, 0, 0
RCOU, 49863264, 1101, 1101, 1101, 1101, 0, 0, 0, 0, 0, 0, 0, 0, 0, 0
VIBE, 49863272, 0.02086012, 0.01965347, 0.0329894, 0, 0, 0
CTRL, 49863280, 0.006435631, 0.0001817481, 0.003911688, 0.0001357426, 3.513233E-05
PRX, 49863311, 2, 0.62, 0, 0.5, 0, 3.6, 0, 2.5, 0, 0, 90, 0.5
IMU, 49882781, 0.000946151, -0.00111666, 0.0006419403, 0.1992438, 0.0009304258, -9.82229, 0, 0, 38.16174, 1, 1, 1000, 1000
RFND, 49912657, 0.2, 25, 0, 0
IMU, 49923042, 0.0008423129, -0.0006193694, 0.001097995, 0.2121449, -0.0130812, -9.817546, 0, 0, 38.16169, 1, 1, 1000, 1000
MAG, 49963352, 398, 519, 363, 0, 0, 0, 0, 0, 0, 1, 49963343
RFND, 49963383, 0.2, 25, 0, 0
BARO, 49963422, 0.7205585, 993.0771, 36.27, -0.04595472, 49963, 0, 35
CTUN, 49963436, 0, 0, 0, 0.2099907, 0.07756478, 0.07756478, 0.72, 0, 0.19, 0, 0, 0
ATT, 49963538, 0, 0.6, 0, 0.36, 116.93, 116.94, 0, 1
RATE, 49963544, -2.738202, -0.007944464, -0.006535271, -1.635342, -0.0978457, -0.003441377, 0.008579841, -0.04181682, 1.129793E-05, -335.7821, 0.7463455, 0
NKF1, 49963551, 0.6, 0.36, 116.94, -0.02088205, -0.0001746079, -0.008290917, 0, 0, 0, -0.07756478, 0, 0, 0
NKF2, 49963551, -1, 0, 0, 0, 0, 0, 0, 0, 0, 0, 0, 0, 0
NKF3, 49963551, 0, 0, 0, -0.03, 0, 0, 0, 0, 0, 0, 0
NKF4, 49963551, 0, 0, 0, 0, 0, 8.966908E-07, 0, 0, 0, 19, 229, 0, 0
NKF5, 49963551, 0, 0, 0, 0, 0.2, 0.13, 0, 0.19, 0.5, 3.624358E-05, 0.003213894, 0.006347657
NKQ1, 49963551, 0.5229002, -0.008170523, 0.005912965, 0.8523343
AHR2, 49963601, 0.61, 0.24, 116.78, 0.72, 0, 0, 0.5241042, 0.0009862079, 0.005742179, 0.8516343
MOTB, 49963608, 1, 1, 0, 1
RCIN, 49963612, 0, 0, 0, 0, 0, 0, 0, 0, 0, 0, 0, 0, 0, 0
RCOU, 49963617, 1101, 1101, 1101, 1101, 0, 0, 0, 0, 0, 0, 0, 0, 0, 0
VIBE, 49963627, 0.02033829, 0.01958946, 0.03121325, 0, 0, 0
CTRL, 49963634, 0.006451206, 0.000185937, 0.003862635, 0.0001389437, 3.417825E-05
PRX, 49963665, 2, 0.63, 0, 0.51, 0, 3.6, 0, 2.51, 0, 0, 90, 0.51
IMU, 49963673, -0.0002140721, -0.001619534, -0.0006666578, 0.2069222, -0.009103093, -9.822716, 0, 0, 38.16174, 1, 1, 1000, 1000
IMU, 50003323, -0.001338263, -0.0001344014, 0.0002247239, 0.2115148, -0.005291875, -9.804667, 0, 0, 38.16201, 1, 1, 1000, 1000
RFND, 50012613, 0.2, 25, 0, 0
IMU, 50043381, -0.0007064129, 6.565878E-05, 0.0001734177, 0.2131193, -0.002481001, -9.806337, 0, 0, 38.16218, 1, 1, 1000, 1000
MAG, 50063879, 401, 524, 359, 0, 0, 0, 0, 0, 0, 1, 50063870
RFND, 50063907, 0.2, 25, 0, 0
BARO, 50063947, 0.7177328, 993.0774, 36.28, 0.0377504, 50063, 0, 35
CTUN, 50063960, 0, 0, 0, 0.2099907, 0.0776381, 0.0776381, 0.71, 0, 0.19, 0, 0, 0
ATT, 50064062, 0, 0.6, 0, 0.36, 116.93, 116.94, 0, 1
RATE, 50064068, -2.723825, -0.03537986, -0.006353677, -1.632696, 0.0557714, -0.004363856, 0.006781694, 0.0314968, -5.589053E-06, -313.2305, 0.8060455, 0
NKF1, 50064076, 0.6, 0.36, 116.94, -0.02301135, 0.0002043992, -0.007734086, 0, 0, 0, -0.0776381, 0, 0, 0
NKF2, 50064076, -1, 0, 0, 0, 0, 0, 0, 0, 0, 0, 0, 0, 0
NKF3, 50064076, 0, 0, 0, -0.03, 0, 0, 0, 0, 0, 0, 0
NKF4, 50064076, 0, 0, 0, 0, 0, 9.072941E-07, 0, 0, 0, 19, 229, 0, 0
NKF5, 50064076, 0, 0, 0, 0, 0.2, 0.13, 0, 0.19, 0.5, 3.645935E-05, 0.003072078, 0.006070737
NKQ1, 50064076, 0.5228922, -0.008182545, 0.00588672, 0.8523393
AHR2, 50064120, 0.61, 0.24, 116.78, 0.71, 0, 0, 0.5240934, 0.0009588048, 0.005714879, 0.8516411
MOTB, 50064127, 1, 1, 0, 1
RCIN, 50064131, 0, 0, 0, 0, 0, 0, 0, 0, 0, 0, 0, 0, 0, 0
RCOU, 50064137, 1101, 1101, 1101, 1101, 0, 0, 0, 0, 0, 0, 0, 0, 0, 0
VIBE, 50064233, 0.02025493, 0.02164732, 0.03446885, 0, 0, 0
CTRL, 50064241, 0.006419856, 0.0001867751, 0.003833388, 0.0001510533, 3.328625E-05
PRX, 50064273, 2, 0.62, 0, 0.51, 0, 3.6, 0, 2.51, 0, 0, 90, 0.51
IMU, 50083028, 0.001215302, 0.0007027971, 4.444215E-05, 0.2048015, 0.003448231, -9.806502, 0, 0, 38.16246, 1, 1, 1000, 1000
RFND, 50112661, 0.2, 25, 0, 0
IMU, 50123138, 0.0003153874, 0.0003842465, 0.0006863564, 0.2034242, -0.005534198, -9.817265, 0, 0, 38.16348, 1, 1, 1000, 1000
MAG, 50162507, 403, 522, 362, 0, 0, 0, 0, 0, 0, 1, 50162498
RFND, 50162536, 0.2, 25, 0, 0
BARO, 50162574, 0.7318614, 993.0758, 36.28, 0.2207285, 50162, 0, 35
CTUN, 50162586, 0, 0, 0, 0.2099907, 0.07762115, 0.07762115, 0.73, 0, 0.19, 0, 0, 0
ATT, 50162679, 0, 0.6, 0, 0.35, 116.93, 116.94, 0, 1
RATE, 50162685, -2.742079, 0.02125722, -0.00671766, -1.616645, -0.1053804, -0.003490053, 0.007995857, -0.01924497, 1.994982E-05, -308.3873, -0.1710892, 0
NKF1, 50162693, 0.6, 0.35, 116.94, -0.02405745, 0.0006383284, -0.007614501, 0, 0, 0, -0.07762115, 0, 0, 0
NKF2, 50162693, -1, 0, 0, 0, 0, 0, 0, 0, 0, 0, 0, 0, 0
NKF3, 50162693, 0, 0, 0, -0.03, 0, 0, 0, 0, 0, 0, 0
NKF4, 50162693, 0, 0, 0, 0, 0, 9.71744E-07, 0, 0, 0, 19, 229, 0, 0
NKF5, 50162693, 0, 0, 0, 0, 0.2, 0.13, 0, 0.19, 0.5, 3.651084E-05, 0.002934333, 0.005724135
NKQ1, 50162693, 0.5228919, -0.00813628, 0.005900389, 0.8523397
AHR2, 50162736, 0.61, 0.24, 116.78, 0.73, 0, 0, 0.5240903, 0.000983636, 0.005725713, 0.851643
MOTB, 50162744, 1, 1, 0, 1
RCIN, 50162748, 0, 0, 0, 0, 0, 0, 0, 0, 0, 0, 0, 0, 0, 0
RCOU, 50162753, 1101, 1101, 1101, 1101, 0, 0, 0, 0, 0, 0, 0, 0, 0, 0
VIBE, 50162762, 0.01993409, 0.02073689, 0.03547122, 0, 0, 0
CTRL, 50162768, 0.006450403, 0.0001848205, 0.003813623, 0.0001640376, 2.87296E-05
PRX, 50162799, 2, 0.62, 0, 0.51, 0, 3.6, 0, 2.5, 0, 0, 90, 0.51
IMU, 50162807, 0.0002956033, -0.001751034, -0.0002726841, 0.2054177, -0.01146217, -9.813581, 0, 0, 38.16405, 1, 1, 1000, 1000
IMU, 50202582, -0.0006664232, 0.001020032, -0.0002726753, 0.2101437, -0.002103409, -9.830299, 0, 0, 38.16385, 1, 1, 1000, 1000
RFND, 50212650, 0.2, 25, 0, 0
IMU, 50242559, 0.0002690289, -0.0002684433, 8.482178E-05, 0.2084827, -0.0006362939, -9.813315, 0, 0, 38.16277, 1, 1, 1000, 1000
MAG, 50262599, 404, 524, 362, 0, 0, 0, 0, 0, 0, 1, 50262591
RFND, 50262628, 0.2, 25, 0, 0
BARO, 50262664, 0.6668698, 993.0831, 36.28, 0.2370539, 50262, 0, 35
CTUN, 50262677, 0, 0, 0, 0.2099907, 0.07760639, 0.07760639, 0.66, 0, 0.19, 0, 0, 0
ATT, 50262828, 0, 0.6, 0, 0.36, 116.93, 116.94, 0, 1
RATE, 50262836, -2.735344, 0.01207595, -0.00656503, -1.628001, 0.03968083, -0.004036806, 0.008088036, -0.110806, 0.0001293608, -311.1371, -0.1157761, 0
NKF1, 50262843, 0.6, 0.36, 116.94, -0.02588543, 0.0007770201, -0.007682397, 0, 0, 0, -0.07760639, 0, 0, 0
NKF2, 50262843, -1, 0, 0, 0, 0, 0, 0, 0, 0, 0, 0, 0, 0
NKF3, 50262843, 0, 0, 0, -0.04, 0, 0, 0, 0, 0, 0, 0
NKF4, 50262843, 0, 0, 0, 0, 0, 1.052379E-06, 0, 0, 0, 19, 229, 0, 0
NKF5, 50262843, 0, 0, 0, 0, 0.2, 0.13, 0, 0.19, 0.5, 3.66314E-05, 0.00279485, 0.005436373
NKQ1, 50262843, 0.5229228, -0.00815949, 0.005900279, 0.8523206
AHR2, 50263008, 0.61, 0.25, 116.78, 0.66, 0, 0, 0.5241182, 0.0009391877, 0.005722693, 0.8516257
MOTB, 50263016, 1, 1, 0, 1
RCIN, 50263021, 0, 0, 0, 0, 0, 0, 0, 0, 0, 0, 0, 0, 0, 0
RCOU, 50263027, 1101, 1101, 1101, 1101, 0, 0, 0, 0, 0, 0, 0, 0, 0, 0
VIBE, 50263035, 0.01839612, 0.01785762, 0.03279675, 0, 0, 0
CTRL, 50263042, 0.006441343, 0.0001715459, 0.003820712, 0.0001645424, 4.644779E-05
PRX, 50263073, 2, 0.62, 0, 0.51, 0, 3.6, 0, 2.5, 0, 0, 90, 0.51
IMU, 50282844, 0.0002678556, 0.0002070142, -0.0003571493, 0.2130068, 0.005018882, -9.812735, 0, 0, 38.16348, 1, 1, 1000, 1000
RFND, 50312515, 0.2, 25, 0, 0
IMU, 50322666, 0.0003848866, -0.0005739864, 0.0006746948, 0.1959173, -0.008366615, -9.803948, 0, 0, 38.16335, 1, 1, 1000, 1000
MAG, 50362472, 397, 522, 362, 0, 0, 0, 0, 0, 0, 1, 50362463
RFND, 50362500, 0.2, 25, 0, 0
BARO, 50362537, 0.6838241, 993.0811, 36.28, 0.05395406, 50362, 0, 35
CTUN, 50362551, 0, 0, 0, 0.2099907, 0.07762724, 0.07762724, 0.68, 0, 0.19, 0, 0, 0
ATT, 50362639, 0, 0.61, 0, 0.36, 116.93, 116.93, 0, 1
RATE, 50362645, -2.747107, 0.001697277, -0.006234914, -1.627668, -0.007555855, -0.003715847, 0.007934426, -0.04169584, 0.0001028689, -294.3516, -0.835228, 0
NKF1, 50362652, 0.61, 0.36, 116.93, -0.02750464, 0.001027961, -0.007267939, 0, 0, 0, -0.07762724, 0, 0, 0
NKF2, 50362652, -1, 0, 0, 0, 0, 0, 0, 0, 0, 0, 0, 0, 0
NKF3, 50362652, 0, 0, 0, -0.04, 0, 0, 0, 0, 0, 0, 0
NKF4, 50362652, 0, 0, 0, 0, 0, 1.159729E-06, 0, 0, 0, 19, 229, 0, 0
NKF5, 50362652, 0, 0, 0, 0, 0.2, 0.13, 0, 0.19, 0.5, 3.672851E-05, 0.002675243, 0.005144118
NKQ1, 50362652, 0.5229341, -0.008148595, 0.005918568, 0.8523136
AHR2, 50362697, 0.61, 0.25, 116.78, 0.68, 0, 0, 0.5241269, 0.0009280425, 0.005739333, 0.8516203
MOTB, 50362704, 1, 1, 0, 1
RCIN, 50362708, 0, 0, 0, 0, 0, 0, 0, 0, 0, 0, 0, 0, 0, 0
RCOU, 50362713, 1101, 1101, 1101, 1101, 0, 0, 0, 0, 0, 0, 0, 0, 0, 0
VIBE, 50362721, 0.01862111, 0.01864972, 0.03600247, 0, 0, 0
CTRL, 50362728, 0.006476741, 0.0001527865, 0.003827774, 0.0001655593, 6.708682E-05
PRX, 50362759, 2, 0.63, 0, 0.5, 0, 3.6, 0, 2.51, 0, 0, 90, 0.5
IMU, 50362767, -4.5779E-05, -4.365774E-05, -0.0006644886, 0.202595, 0.004427211, -9.807034, 0, 0, 38.16323, 1, 1, 1000, 1000
IMU, 50402770, 0.0006609659, -0.0001755309, 0.0002664507, 0.2147459, -0.01186641, -9.819083, 0, 0, 38.16199, 1, 1, 1000, 1000
RFND, 50412527, 0.2, 25, 0, 0
IMU, 50442557, 7.369759E-05, 0.000497454, -0.0008511021, 0.201225, 0.006211724, -9.812689, 0, 0, 38.16064, 1, 1, 1000, 1000
MAG, 50462645, 400, 523, 359, 0, 0, 0, 0, 0, 0, 1, 50462637
RFND, 50462677, 0.2, 25, 0, 0
BARO, 50462712, 0.7036042, 993.079, 36.28, -0.1108941, 50462, 0, 35
CTUN, 50462724, 0, 0, 0, 0.2099907, 0.07753069, 0.07753069, 0.7, 0, 0.19, 0, 0, 0
ATT, 50463318, 0, 0.61, 0, 0.36, 116.93, 116.93, 0, 1
RATE, 50463326, -2.760572, 0.05510898, -0.006767198, -1.636505, 0.0820509, -0.004107756, 0.01182261, -0.07161803, 7.253575E-05, -288.2194, -1.380825, 0
NKF1, 50463335, 0.61, 0.36, 116.93, -0.0289938, 0.001802693, -0.007116528, 0, 0, 0, -0.07753069, 0, 0, 0
NKF2, 50463335, -1, 0, 0, 0, 0, 0, 0, 0, 0, 0, 0, 0, 0
NKF3, 50463335, 0, 0, 0, -0.04, 0, 0, 0, 0, 0, 0, 0
NKF4, 50463335, 0, 0, 0, 0, 0, 1.302281E-06, 0, 0, 0, 19, 229, 0, 0
NKF5, 50463335, 0, 0, 0, 0, 0.2, 0.13, 0, 0.19, 0.5, 3.679019E-05, 0.002536172, 0.00484965
NKQ1, 50463335, 0.5229391, -0.00814877, 0.005950179, 0.8523104
AHR2, 50463386, 0.61, 0.25, 116.78, 0.7, 0, 0, 0.5241294, 0.000905938, 0.005769478, 0.8516187
MOTB, 50463394, 1, 1, 0, 1
RCIN, 50463398, 0, 0, 0, 0, 0, 0, 0, 0, 0, 0, 0, 0, 0, 0
RCOU, 50463404, 1101, 1101, 1101, 1101, 0, 0, 0, 0, 0, 0, 0, 0, 0, 0
VIBE, 50463412, 0.01970033, 0.01926768, 0.03319351, 0, 0, 0
CTRL, 50463419, 0.006493031, 0.0001683053, 0.003840344, 0.0001636282, 6.230183E-05
PRX, 50463452, 2, 0.62, 0, 0.51, 0, 3.6, 0, 2.51, 0, 0, 90, 0.51
IMU, 50482598, 0.0004227757, 0.0003104221, -0.0003895179, 0.2126742, -0.01350045, -9.81813, 0, 0, 38.15999, 1, 1, 1000, 1000
EV, 50494661, 57
RFND, 50512522, 0.2, 25, 0, 0
IMU, 50522605, -0.0001111639, -0.0001933826, 0.0001387358, 0.2033577, -0.004002554, -9.813329, 0, 0, 38.15965, 1, 1, 1000, 1000
MAG, 50562491, 403, 527, 359, 0, 0, 0, 0, 0, 0, 1, 50562483
RFND, 50562523, 0.2, 25, 0, 0
BARO, 50562558, 0.6866499, 993.0808, 36.28, -0.1033773, 50562, 0, 35
CTUN, 50562571, 0, 0, 0, 0.2099907, 0.07751332, 0.07751332, 0.68, 0, 0.19, 0, 0, 0
ATT, 50562659, 0, 0.61, 0, 0.36, 116.92, 116.93, 0, 1
RATE, 50562666, -2.770326, 0.04725047, -0.00665839, -1.639389, -0.003310348, -0.00391426, 0.008718354, -0.009688948, 2.19574E-05, -260.8191, -0.89674, 0
NKF1, 50562674, 0.61, 0.36, 116.93, -0.03035936, 0.00192538, -0.006439976, 0, 0, 0, -0.07751332, 0, 0, 0
NKF2, 50562674, -1, 0, 0, 0, 0, 0, 0, 0, 0, 0, 0, 0, 0
NKF3, 50562674, 0, 0, 0, -0.04, 0, 0, 0, 0, 0, 0, 0
NKF4, 50562674, 0, 0, 0, 0, 0, 1.433911E-06, 0, 0, 0, 19, 229, 0, 0
NKF5, 50562674, 0, 0, 0, 0, 0.2, 0.13, 0, 0.19, 0.5, 3.67731E-05, 0.002437979, 0.004606672
NKQ1, 50562674, 0.5229435, -0.008145098, 0.005969753, 0.8523076
AHR2, 50562718, 0.61, 0.26, 116.78, 0.68, 0, 0, 0.5241311, 0.000886253, 0.005790155, 0.8516176
MOTB, 50562724, 1, 1, 0, 1
RCIN, 50562728, 0, 0, 0, 0, 0, 0, 0, 0, 0, 0, 0, 0, 0, 0
RCOU, 50562733, 1116, 1116, 1116, 1116, 0, 0, 0, 0, 0, 0, 0, 0, 0, 0
VIBE, 50562742, 0.01954526, 0.02006827, 0.035292, 0, 0, 0
CTRL, 50562749, 0.006514027, 0.0001646412, 0.00385316, 0.0001491908, 7.187483E-05
PRX, 50562780, 2, 0.62, 0, 0.51, 0, 3.6, 0, 2.51, 0, 0, 90, 0.51
IMU, 50562788, 0.0007492758, 3.046155E-05, -0.0001058109, 0.2046127, 0.001188966, -9.806392, 0, 0, 38.15812, 1, 1, 1000, 1000
IMU, 50603414, -0.0005864901, 2.880869E-05, -0.0003199612, 0.2028683, -0.01046477, -9.818274, 0, 0, 38.15791, 1, 1, 1000, 1000
RFND, 50612633, 0.2, 25, 0, 0
IMU, 50642563, 0.0005720602, 0.001091055, 4.869034E-05, 0.2134632, 0.0006650513, -9.820149, 0, 0, 38.15765, 1, 1, 1000, 1000
MAG, 50662585, 403, 525, 359, 0, 0, 0, 0, 0, 0, 1, 50662577
RFND, 50662618, 0.2, 25, 0, 0
BARO, 50662655, 0.6555669, 993.0842, 36.28, -0.01857622, 50662, 0, 35
CTUN, 50662668, 0, 0, 0, 0.2099907, 0.07725898, 0.07725898, 0.65, 0, 0.19, 0, 0, 0
ATT, 50662768, 0, 0.61, 0, 0.36, 116.92, 116.93, 0, 1
RATE, 50662774, -2.772521, -0.03776683, -0.006354832, -1.638098, -0.115307, -0.002978852, 0.008764474, 0.03010565, 2.366594E-05, -261.5727, 0.5185127, 0
NKF1, 50662781, 0.61, 0.36, 116.93, -0.03176161, 0.002266396, -0.006458585, 0, 0, 0, -0.07725898, 0, 0, 0
NKF2, 50662781, -1, 0, 0, 0, 0, 0, 0, 0, 0, 0, 0, 0, 0
NKF3, 50662781, 0, 0, 0, -0.04, 0, 0, 0, 0, 0, 0, 0
NKF4, 50662781, 0, 0, 0, 0, 0, 1.62729E-06, 0, 0, 0, 19, 229, 0, 0
NKF5, 50662781, 0, 0, 0, 0, 0.2, 0.13, 0, 0.19, 0.5, 3.707992E-05, 0.002298854, 0.004305733
NKQ1, 50662781, 0.522939, -0.008141718, 0.005972954, 0.8523104
AHR2, 50662826, 0.61, 0.26, 116.78, 0.65, 0, 0, 0.5241237, 0.0008664168, 0.005794603, 0.851622
MOTB, 50662833, 1, 1, 0, 1
RCIN, 50662837, 0, 0, 0, 0, 0, 0, 0, 0, 0, 0, 0, 0, 0, 0
RCOU, 50662842, 1140, 1140, 1140, 1140, 0, 0, 0, 0, 0, 0, 0, 0, 0, 0
VIBE, 50662851, 0.02102476, 0.01850734, 0.03736944, 0, 0, 0
CTRL, 50662858, 0.00653418, 0.0001857631, 0.003871484, 0.0001994056, 6.599724E-05
PRX, 50662981, 2, 0.62, 0, 0.5, 0, 3.6, 0, 2.51, 0, 0, 90, 0.5
IMU, 50682686, -0.0008690825, -0.001150537, -0.0005430989, 0.207925, -0.004562362, -9.827564, 0, 0, 38.15676, 1, 1, 1000, 1000
RFND, 50712737, 0.2, 25, 0, 0
IMU, 50722703, 0.001239836, 0.0006237193, -0.0003214515, 0.2114325, -0.00321167, -9.821667, 0, 0, 38.15586, 1, 1, 1000, 1000
MAG, 50762611, 398, 525, 356, 0, 0, 0, 0, 0, 0, 1, 50762602
RFND, 50762644, 0.2, 25, 0, 0
BARO, 50762679, 0.5905754, 993.0912, 36.28, -0.05386526, 50762, 0, 35
CTUN, 50762692, 0, 0, 0, 0.2099907, 0.07724759, 0.07724759, 0.59, 0, 0.19, 0, 0, 0
DU32, 50762728, 7, 33611992
ATT, 50762859, 0, 0.62, 0, 0.36, 116.92, 116.93, 0, 1
RATE, 50762865, -2.790986, 0.07799519, -0.006817596, -1.635772, -0.06002461, -0.003471787, 0.008764591, 0.01406317, 7.70392E-05, -295.5177, 2.275848, 0
NKF1, 50762948, 0.62, 0.36, 116.93, -0.03323795, 0.00275824, -0.007296732, 0, 0, 0, -0.07724759, 0, 0, 0
NKF2, 50762948, -1, 0, 0, 0, 0, 0, 0, 0, 0, 0, 0, 0, 0
NKF3, 50762948, 0, 0, 0, -0.05, 0, 0, 0, 0, 0, 0, 0
NKF4, 50762948, 0, 0, 0, 0, 0, 1.78234E-06, 0, 0, 0, 19, 229, 0, 0
NKF5, 50762948, 0, 0, 0, 0, 0.2, 0.13, 0, 0.19, 0.5, 3.751346E-05, 0.002165102, 0.004052209
NKQ1, 50762948, 0.5229477, -0.008118681, 0.006001495, 0.852305
AHR2, 50762996, 0.62, 0.26, 116.78, 0.59, 0, 0, 0.5241297, 0.0008681448, 0.005821602, 0.8516181
MOTB, 50763003, 1, 1, 0, 1
RCIN, 50763009, 0, 0, 0, 0, 0, 0, 0, 0, 0, 0, 0, 0, 0, 0
RCOU, 50763014, 1164, 1164, 1164, 1164, 0, 0, 0, 0, 0, 0, 0, 0, 0, 0
VIBE, 50763023, 0.01921166, 0.01851149, 0.03213302, 0, 0, 0
CTRL, 50763029, 0.006566527, 0.0001946455, 0.003854684, 0.0002342827, 5.990756E-05
PRX, 50763060, 2, 0.62, 0, 0.51, 0, 3.6, 0, 2.51, 0, 0, 90, 0.51
IMU, 50763068, 0.001285942, -0.0009594125, 0.000308841, 0.2001537, -0.007215915, -9.838228, 0, 0, 38.15488, 1, 1, 1000, 1000
IMU, 50802698, 0.001858357, -0.0005772186, -0.0008557531, 0.1997589, -0.0003406706, -9.813526, 0, 0, 38.15344, 1, 1, 1000, 1000
RFND, 50812650, 0.2, 25, 0, 0
IMU, 50842605, -0.0001025723, -0.001218124, 0.002071182, 0.1912996, -0.0094221, -9.828751, 0, 0, 38.15229, 1, 1, 1000, 1000
MAG, 50862544, 394, 524, 361, 0, 0, 0, 0, 0, 0, 1, 50862536
RFND, 50862577, 0.2, 25, 0, 0
BARO, 50862612, 0.5934011, 993.0909, 36.28, -0.2145781, 50862, 0, 35
CTUN, 50862625, 0, 0, 0, 0.2099907, 0.0771126, 0.0771126, 0.59, 0, 0.19, 0, 0, 0
ATT, 50862722, 0, 0.62, 0, 0.36, 116.92, 116.93, 0, 1
RATE, 50862728, -2.794619, 0.01613535, -0.006475758, -1.627134, -0.0219349, -0.003935355, 0.008826071, -0.1118715, 8.765209E-05, -248.7302, 0.1725197, 0
NKF1, 50862735, 0.62, 0.36, 116.93, -0.03526491, 0.001980822, -0.006141486, 0, 0, 0, -0.0771126, 0, 0, 0
NKF2, 50862735, -1, 0, 0, 0, 0, 0, 0, 0, 0, 0, 0, 0, 0
NKF3, 50862735, 0, 0, 0, -0.05, 0, 0, 0, 0, 0, 0, 0
NKF4, 50862735, 0, 0, 0, 0, 0, 2.039908E-06, 0, 0, 0, 19, 229, 0, 0
NKF5, 50862735, 0, 0, 0, 0, 0.2, 0.13, 0, 0.19, 0.5, 3.730729E-05, 0.002080727, 0.003802509
NKQ1, 50862735, 0.5229366, -0.008097779, 0.005996473, 0.852312
AHR2, 50862779, 0.61, 0.26, 116.78, 0.59, 0, 0, 0.5241155, 0.0008679359, 0.005815298, 0.8516269
MOTB, 50862786, 1, 1, 0, 1
RCIN, 50862791, 0, 0, 0, 0, 0, 0, 0, 0, 0, 0, 0, 0, 0, 0
RCOU, 50862797, 1188, 1188, 1188, 1188, 0, 0, 0, 0, 0, 0, 0, 0, 0, 0
VIBE, 50862805, 0.06888153, 0.0861547, 0.1642952, 0, 0, 0
CTRL, 50862812, 0.006599537, 0.0002191407, 0.003815114, 0.0002086157, 5.791954E-05
PRX, 50862844, 2, 0.62, 0, 0.51, 0, 3.6, 0, 2.5, 0, 0, 90, 0.51
IMU, 50883275, -0.002353349, 0.001898165, 0.01396157, 0.153613, 0.02042304, -9.811034, 0, 0, 38.15095, 1, 1, 1000, 1000
RFND, 50912523, 0.2, 25, 0, 0
IMU, 50922971, -0.003542107, 0.003669888, 0.01118847, 0.1566446, -0.0540854, -9.783524, 0, 0, 38.15066, 1, 1, 1000, 1000
MAG, 50962846, 399, 524, 360, 0, 0, 0, 0, 0, 0, 1, 50962838
RFND, 50962972, 0.2, 25, 0, 0
BARO, 50963010, 0.4492894, 993.1069, 36.28, -0.3611623, 50962, 0, 35
CTUN, 50963024, 0, 0, 0, 0.2099907, 0.0770715, 0.0770715, 0.44, 0, 0.19, 0, 0, 0
ATT, 50963213, 0, 0.62, 0, 0.36, 116.94, 116.95, 0, 1
RATE, 50963219, -2.794732, 0.2449481, -0.008855866, -1.665419, 0.1577513, -0.005592506, 0.00916423, -0.2930131, -0.0001303407, -244.2197, 4.247856, 0
NKF1, 50963227, 0.62, 0.36, 116.95, -0.03688501, 0.001378607, -0.006030115, 0, 0, 0, -0.0770715, 0, 0, 0
NKF2, 50963227, -1, 0, 0, 0, 0, 0, 0, 0, 0, 0, 0, 0, 0
NKF3, 50963227, 0, 0, 0, -0.06, 0, 0, 0, 0, 0, 0, 0
NKF4, 50963227, 0, 0, 0, 0, 0, 2.256707E-06, 0, 0, 0, 19, 229, 0, 0
NKF5, 50963227, 0, 0, 0, 0, 0.2, 0.13, 0, 0.19, 0.5, 3.791372E-05, 0.001937523, 0.003510876
NKQ1, 50963227, 0.5228475, -0.008157106, 0.006034908, 0.8523658
AHR2, 50963276, 0.61, 0.27, 116.79, 0.44, 0, 0, 0.5240242, 0.0007898579, 0.005852938, 0.851683
MOTB, 50963284, 1, 1, 0, 1
RCIN, 50963288, 0, 0, 0, 0, 0, 0, 0, 0, 0, 0, 0, 0, 0, 0
RCOU, 50963294, 1212, 1212, 1212, 1212, 0, 0, 0, 0, 0, 0, 0, 0, 0, 0
VIBE, 50963303, 0.3860514, 0.3698506, 0.4908516, 0, 0, 0
CTRL, 50963310, 0.006547373, 0.0004364864, 0.003852304, 0.0003542118, 0.0002189801
PRX, 50963342, 2, 0.62, 0, 0.51, 0, 3.6, 0, 2.5, 0, 0, 90, 0.51
IMU, 50963350, 0.004199869, 0.002841475, -0.00505058, 0.1953604, -0.01678119, -9.858046, 0, 0, 38.14959, 1, 1, 1000, 1000
IMU, 51002710, -0.001773723, 0.0004458691, -0.007451273, 0.1893464, 0.02709284, -9.812481, 0, 0, 38.14857, 1, 1, 1000, 1000
RFND, 51012472, 0.2, 25, 0, 0
IMU, 51042742, -0.0004646414, 0.0008957193, 6.12271E-05, 0.1849795, -0.02917992, -9.810381, 0, 0, 38.14896, 1, 1, 1000, 1000
MAG, 51062637, 398, 525, 361, 0, 0, 0, 0, 0, 0, 1, 51062628
RFND, 51062670, 0.2, 25, 0, 0
BARO, 51062708, 0.4323351, 993.1089, 36.28, -0.4786063, 51062, 0, 35
CTUN, 51062722, 0, 0, 0, 0.2099907, 0.07695577, 0.07695577, 0.43, 0, 0.19, 0, 0, 0
ATT, 51062822, 0, 0.61, 0, 0.37, 116.93, 116.94, 0, 1
RATE, 51062829, -2.76936, -0.03828508, -0.006489649, -1.709543, 0.1884502, -0.004866058, 0.009179503, -0.1326266, 0.0002429198, -286.9594, 3.120041, 0
NKF1, 51062836, 0.61, 0.37, 116.94, -0.03684021, 0.00313092, -0.007085417, 0, 0, 0, -0.07695577, 0, 0, 0
NKF2, 51062836, -1, 0, 0, 0, 0, 0, 0, 0, 0, 0, 0, 0, 0
NKF3, 51062836, 0, 0, 0, -0.06, 0, 0, 0, 0, 0, 0, 0
NKF4, 51062836, 0, 0, 0, 0, 0, 2.539056E-06, 0, 0, 0, 19, 229, 0, 0
NKF5, 51062836, 0, 0, 0, 0, 0.2, 0.13, 0, 0.19, 0.5, 3.754268E-05, 0.001880905, 0.003346181
NKQ1, 51062836, 0.5229089, -0.008259255, 0.006039972, 0.8523271
AHR2, 51062956, 0.61, 0.28, 116.78, 0.43, 0, 0, 0.5240831, 0.0006692833, 0.005855979, 0.8516468
MOTB, 51062964, 1, 1, 0, 1
RCIN, 51062969, 0, 0, 0, 0, 0, 0, 0, 0, 0, 0, 0, 0, 0, 0
RCOU, 51062974, 1232, 1230, 1221, 1240, 0, 0, 0, 0, 0, 0, 0, 0, 0, 0
VIBE, 51062982, 0.4888407, 0.4542231, 0.6939889, 0, 0, 0
CTRL, 51062989, 0.006501238, 0.0005034714, 0.004001191, 0.0004556087, 0.0002417184
PRX, 51063020, 2, 0.62, 0, 0.5, 0, 0.8, 0, 2.51, 0, 0, 90, 0.5
IMU, 51083092, 0.001523822, 0.001216809, -0.005242877, 0.2150436, -0.0835636, -9.834856, 0, 0, 38.14922, 1, 1, 1000, 1000
RFND, 51112542, 0.2, 25, 0, 0
IMU, 51122781, -0.005174588, 0.01587489, 0.01001195, 0.3913904, 0.1406596, -9.716094, 0, 0, 38.14898, 1, 1, 1000, 1000
MAG, 51162619, 391, 524, 358, 0, 0, 0, 0, 0, 0, 1, 51162610
RFND, 51162653, 0.2, 25, 0, 0
BARO, 51162689, 0.4323351, 993.1089, 36.28, -0.5792725, 51162, 0, 35
CTUN, 51162702, 0, 0, 0, 0.2099907, 0.07682866, 0.07682866, 0.43, 0, 0.19, 0, 0, 0
ATT, 51162798, 0, 0.62, 0, 0.41, 116.87, 116.88, 0, 1
RATE, 51162805, -2.782254, 0.470688, -0.008512776, -1.894218, 0.247455, -0.008176862, 0.01011735, -2.015408, 0.0005301971, -300.3612, 8.52232, 0
NKF1, 51162813, 0.62, 0.41, 116.88, -0.03653104, 0.002719962, -0.007416327, 0, 0, 0, -0.07682866, 0, 0, 0
NKF2, 51162813, -1, 0, 0, 0, 0, 0, 0, 0, 0, 0, 0, 0, 0
NKF3, 51162813, 0, 0, 0, -0.06, 0, 0, 0, 0, 0, 0, 0
NKF4, 51162813, 0, 0, 0, 0, 0, 2.826847E-06, 0, 0, 0, 19, 229, 0, 0
NKF5, 51162813, 0, 0, 0, 0, 0.2, 0.13, 0, 0.19, 0.5, 3.834025E-05, 0.001729131, 0.003024988
NKQ1, 51162813, 0.5233537, -0.008500433, 0.006255239, 0.8520503
AHR2, 51162857, 0.61, 0.32, 116.72, 0.43, 0, 0, 0.524527, 0.0004120824, 0.00607605, 0.8513721
MOTB, 51162986, 1, 1, 0, 1
RCIN, 51162993, 0, 0, 0, 0, 0, 0, 0, 0, 0, 0, 0, 0, 0, 0
RCOU, 51162998, 1236, 1236, 1221, 1249, 0, 0, 0, 0, 0, 0, 0, 0, 0, 0
VIBE, 51163007, 0.4538077, 0.4006711, 0.7925252, 0, 0, 0
CTRL, 51163014, 0.00653166, 0.0007696277, 0.004392513, 0.001324592, 0.0007383543
PRX, 51163045, 2, 0.62, 0, 0.51, 0, 0.8, 0, 2.51, 0, 0, 90, 0.51
IMU, 51163053, 0.008139824, 0.004407082, -0.03511194, 0.2075801, -0.08792485, -9.900436, 0, 0, 38.14899, 1, 1, 1000, 1000
IMU, 51202783, 0.003243045, -0.005366781, -0.004996229, 0.1551565, -0.0154222, -9.797269, 0, 0, 38.14906, 1, 1, 1000, 1000
RFND, 51213086, 0.2, 25, 0, 0
IMU, 51242760, -0.00248993, 0.01347667, 0.04396559, 0.1537765, -0.08133642, -9.863971, 0, 0, 38.14911, 1, 1, 1000, 1000
MAG, 51262678, 395, 528, 361, 0, 0, 0, 0, 0, 0, 1, 51262670
RFND, 51262712, 0.2, 25, 0, 0
BARO, 51262749, 0.4464637, 993.1072, 36.28, -0.5148108, 51262, 0, 35
CTUN, 51262762, 0, 0, 0, 0.2099907, 0.07666916, 0.07666916, 0.44, 0, 0.19, 0, 0, 0
ATT, 51262971, 0, 0.6, 0, 0.42, 116.88, 116.89, 0, 1
RATE, 51262981, -2.712535, 0.2675738, -0.007964289, -1.94438, -0.1958226, -0.001242406, 0.01022455, -1.844601, -0.0005823708, -237.6252, -4.725933, 0
NKF1, 51262990, 0.6, 0.42, 116.89, -0.03984655, 0.001707892, -0.005867288, 0, 0, 0, -0.07666916, 0, 0, 0
NKF2, 51262990, -1, 0, 0, 0, 0, 0, 0, 0, 0, 0, 0, 0, 0
NKF3, 51262990, 0, 0, 0, -0.06, 0, 0, 0, 0, 0, 0, 0
NKF4, 51262990, 0, 0, 0, 0, 0, 3.130053E-06, 0, 0, 0, 19, 229, 0, 0
NKF5, 51262990, 0, 0, 0, 0, 0.2, 0.13, 0, 0.19, 0.5, 3.792722E-05, 0.001699769, 0.002935707
NKQ1, 51262990, 0.5232382, -0.008659615, 0.006188814, 0.85212
AHR2, 51263035, 0.6, 0.33, 116.74, 0.44, 0, 0, 0.524409, 0.0002362782, 0.006019664, 0.8514453
MOTB, 51263043, 1, 1, 0, 1
RCIN, 51263048, 0, 0, 0, 0, 0, 0, 0, 0, 0, 0, 0, 0, 0, 0
RCOU, 51263053, 1234, 1222, 1221, 1237, 0, 0, 0, 0, 0, 0, 0, 0, 0, 0
VIBE, 51263061, 0.3879132, 0.3975768, 0.7313543, 0, 0, 0
CTRL, 51263069, 0.006469795, 0.001226875, 0.004711498, 0.002002789, 0.0008971517
PRX, 51263100, 2, 0.62, 0, 0.51, 0, 3.6, 0, 2.51, 0, 0, 90, 0.51
IMU, 51282850, 0.005243697, -0.004787795, 0.02417831, 0.2435554, 0.01260196, -9.810949, 0, 0, 38.14918, 1, 1, 1000, 1000
RFND, 51312713, 0.2, 25, 0, 0
IMU, 51323376, 0.001348876, -0.002920218, 0.005242105, 0.2389174, 0.007181015, -9.810639, 0, 0, 38.15015, 1, 1, 1000, 1000
MAG, 51362646, 400, 522, 366, 0, 0, 0, 0, 0, 0, 1, 51362638
RFND, 51362679, 0.2, 25, 0, 0
BARO, 51362715, 0.4323351, 993.1089, 36.29, -0.259613, 51362, 0, 35
CTUN, 51362728, 0, 0, 0, 0.2099907, 0.07639252, 0.07639252, 0.43, 0, 0.19, 0, 0, 0
ATT, 51362826, 0, 0.6, 0, 0.42, 116.9, 116.91, 0, 1
RATE, 51362832, -2.731462, -0.6318119, -0.001675532, -1.909315, 0.3507302, -0.008716652, 0.01019382, 0.5404924, -0.0003295802, -250.1645, 0.6165504, 0
NKF1, 51362839, 0.6, 0.42, 116.91, -0.04184718, 0.005383368, -0.0061769, 0, 0, 0, -0.07639252, 0, 0, 0
NKF2, 51362839, -1, 0, 0, 0, 0, 0, 0, 0, 0, 0, 0, 0, 0
NKF3, 51362839, 0, 0, 0, -0.07, 0, 0, 0, 0, 0, 0, 0
NKF4, 51362839, 0, 0, 0, 0, 0, 3.493835E-06, 0, 0, 0, 19, 229, 0, 0
NKF5, 51362839, 0, 0, 0, 0, 0.2, 0.13, 0, 0.19, 0.5, 3.887647E-05, 0.001538239, 0.002557774
NKQ1, 51362839, 0.5230975, -0.008643332, 0.006180957, 0.8522066
AHR2, 51362987, 0.6, 0.33, 116.76, 0.43, 0, 0, 0.5242651, 0.0002594456, 0.006018353, 0.8515338
MOTB, 51362996, 1, 1, 0, 1
RCIN, 51363001, 0, 0, 0, 0, 0, 0, 0, 0, 0, 0, 0, 0, 0, 0
RCOU, 51363006, 1223, 1235, 1221, 1239, 0, 0, 0, 0, 0, 0, 0, 0, 0, 0
VIBE, 51363015, 0.4044801, 0.4057849, 0.7824368, 0, 0, 0
CTRL, 51363022, 0.006547018, 0.001486418, 0.00455664, 0.002064166, 0.0007773938
PRX, 51363053, 2, 0.62, 0, 0.51, 0, 3.6, 0, 2.5, 0, 0, 90, 0.51
IMU, 51363061, -0.01110235, 0.006209523, 0.009497026, 0.2774504, -0.02600806, -9.820003, 0, 0, 38.15012, 1, 1, 1000, 1000
IMU, 51405483, 0.001186616, -0.002134333, -0.01367099, 0.3308401, -0.06274618, -9.800743, 0, 0, 38.15023, 1, 1, 1000, 1000
RFND, 51414777, 0.2, 25, 0, 0
IMU, 51444805, 0.002351564, -0.004187359, -0.01030249, 0.167001, 0.03962699, -9.79348, 0, 0, 38.1514, 1, 1, 1000, 1000
MAG, 51464818, 398, 527, 361, 0, 0, 0, 0, 0, 0, 1, 51464809
RFND, 51464852, 0.2, 25, 0, 0
BARO, 51464945, 0.4012522, 993.1124, 36.29, -0.05896402, 51464, 0, 35
CTUN, 51464961, 0, 0, 0, 0.2099907, 0.07624891, 0.07624891, 0.4, 0, 0.19, 0, 0, 0
ATT, 51465455, 0, 0.61, 0, 0.41, 116.9, 116.91, 0, 1
RATE, 51465463, -2.787458, 0.5587664, -0.01039961, -1.848213, -0.5323315, -0.002553859, 0.009932843, -0.03598734, -0.0001584133, -152.449, -0.01993179, 0
NKF1, 51465471, 0.61, 0.41, 116.91, -0.04279746, 0.002792418, -0.003764174, 0, 0, 0, -0.07624891, 0, 0, 0
NKF2, 51465471, -1, 0, 0, 0, 0, 0, 0, 0, 0, 0, 0, 0, 0
NKF3, 51465471, 0, 0, 0, -0.07, 0, 0, 0, 0, 0, 0, 0
NKF4, 51465471, 0, 0, 0, 0, 0, 3.817277E-06, 0, 0, 0, 19, 229, 0, 0
NKF5, 51465471, 0, 0, 0, 0, 0.2, 0.13, 0, 0.19, 0.5, 3.829337E-05, 0.001539169, 0.002533148
NKQ1, 51465471, 0.5231074, -0.008470986, 0.006211942, 0.8522021
AHR2, 51465519, 0.61, 0.32, 116.76, 0.4, 0, 0, 0.5242708, 0.0004396125, 0.006054458, 0.85153
MOTB, 51465528, 1, 1, 0, 1
RCIN, 51465532, 0, 0, 0, 0, 0, 0, 0, 0, 0, 0, 0, 0, 0, 0
RCOU, 51465538, 1238, 1225, 1221, 1243, 0, 0, 0, 0, 0, 0, 0, 0, 0, 0
VIBE, 51465546, 0.3848363, 0.4353323, 0.6949307, 0, 0, 0
CTRL, 51465553, 0.00655001, 0.001863506, 0.004578839, 0.002401957, 0.0006456644
PRX, 51465584, 2, 0.63, 0, 0.51, 0, 3.6, 0, 2.51, 0, 0, 90, 0.51
IMU, 51484945, -0.01569424, 0.01305274, 0.005217893, 0.3102042, 0.01720545, -9.856291, 0, 0, 38.15007, 1, 1, 1000, 1000
RFND, 51514623, 0.2, 25, 0, 0
IMU, 51524775, -0.00324796, -4.398113E-05, 0.004570636, 0.2923354, -0.01006824, -9.85643, 0, 0, 38.14659, 1, 1, 1000, 1000
MAG, 51564741, 398, 522, 365, 0, 0, 0, 0, 0, 0, 1, 51564732
RFND, 51564775, 0.2, 25, 0, 0
BARO, 51564811, 0.3899493, 993.1136, 36.28, -0.0571425, 51564, 0, 35
CTUN, 51564825, 0, 0, 0, 0.2099907, 0.07578055, 0.07578055, 0.38, 0, 0.19, 0, 0, 0
ATT, 51564951, 0, 0.61, 0, 0.41, 116.9, 116.91, 0, 1
RATE, 51564959, -2.782557, 0.4080997, -0.01173091, -1.876794, -0.1835929, -0.0008576948, 0.01019412, -0.2471403, 0.0002626125, -71.43148, 3.47929, 0
NKF1, 51564966, 0.61, 0.41, 116.91, -0.04379684, 0.003763298, -0.00176374, 0, 0, 0, -0.07578055, 0, 0, 0
NKF2, 51564966, -1, 0, 0, 0, 0, 0, 0, 0, 0, 0, 0, 0, 0
NKF3, 51564966, 0, 0, 0, -0.07, 0, 0, 0, 0, 0, 0, 0
NKF4, 51564966, 0, 0, 0, 0, 0, 4.272323E-06, 0, 0, 0, 19, 229, 0, 0
NKF5, 51564966, 0, 0, 0, 0, 0.2, 0.13, 0, 0.19, 0.5, 3.950512E-05, 0.001368772, 0.002135766
NKQ1, 51564966, 0.5231282, -0.008517729, 0.006233688, 0.8521886
AHR2, 51565012, 0.61, 0.32, 116.75, 0.38, 0, 0, 0.5242891, 0.0003603759, 0.006058711, 0.8515188
MOTB, 51565019, 1, 1, 0, 1
RCIN, 51565024, 0, 0, 0, 0, 0, 0, 0, 0, 0, 0, 0, 0, 0, 0
RCOU, 51565029, 1241, 1223, 1221, 1242, 0, 0, 0, 0, 0, 0, 0, 0, 0, 0
VIBE, 51565037, 0.4356471, 0.4407353, 0.6473807, 0, 0, 0
CTRL, 51565045, 0.006513149, 0.002231894, 0.004639749, 0.002341226, 0.0005354464
PRX, 51565076, 2, 0.62, 0, 0.5, 0, 3.6, 0, 2.51, 0, 0, 90, 0.5
IMU, 51565083, 0.007047956, -0.003116611, -0.004249914, 0.07967042, -0.05345118, -9.852725, 0, 0, 38.14132, 1, 1, 1000, 1000
IMU, 51605529, 0.004928304, 0.001673779, 0.006986084, 0.3323969, 0.07113753, -9.724218, 0, 0, 38.13536, 1, 1, 1000, 1000
RFND, 51614644, 0.2, 25, 0, 0
IMU, 51644603, -0.005933515, -0.006218664, 0.0007327809, 0.3055158, 0.04468055, -9.684052, 0, 0, 38.12858, 1, 1, 1000, 1000
