FMT, 128, 89, FMT, BBnNZ, Type,Length,Name,Format,Columns
FMT, 129, 31, PARM, QNf, TimeUS,Name,Value
FMT, 130, 46, GPS, QBIHBcLLefffB, TimeUS,Status,GMS,GWk,NSats,HDop,Lat,Lng,Alt,Spd,GCrs,VZ,U
FMT, 131, 46, GPS2, QBIHBcLLefffB, TimeUS,Status,GMS,GWk,NSats,HDop,Lat,Lng,Alt,Spd,GCrs,VZ,U
FMT, 132, 46, GPSB, QBIHBcLLefffB, TimeUS,Status,GMS,GWk,NSats,HDop,Lat,Lng,Alt,Spd,GCrs,VZ,U
FMT, 193, 24, GPA, QCCCCBI, TimeUS,VDop,HAcc,VAcc,SAcc,VV,SMS
FMT, 194, 24, GPA2, QCCCCBI, TimeUS,VDop,HAcc,VAcc,SAcc,VV,SMS
FMT, 195, 24, GPAB, QCCCCBI, TimeUS,VDop,HAcc,VAcc,SAcc,VV,SMS
FMT, 133, 53, IMU, QffffffIIfBBHH, TimeUS,GyrX,GyrY,GyrZ,AccX,AccY,AccZ,EG,EA,T,GH,AH,GHz,AHz
FMT, 134, 75, MSG, QZ, TimeUS,Message
FMT, 135, 39, RCIN, QHHHHHHHHHHHHHH, TimeUS,C1,C2,C3,C4,C5,C6,C7,C8,C9,C10,C11,C12,C13,C14
FMT, 136, 39, RCOU, QHHHHHHHHHHHHHH, TimeUS,C1,C2,C3,C4,C5,C6,C7,C8,C9,C10,C11,C12,C13,C14
FMT, 137, 15, RSSI, Qf, TimeUS,RXRSSI
FMT, 139, 37, BARO, QffcfIff, TimeUS,Alt,Press,Temp,CRt,SMS,Offset,GndTemp
FMT, 140, 22, POWR, QffHB, TimeUS,Vcc,VServo,Flags,Safety
FMT, 143, 45, CMD, QHHHfffffff, TimeUS,CTot,CNum,CId,Prm1,Prm2,Prm3,Prm4,Lat,Lng,Alt
FMT, 144, 20, RAD, QBBBBBHH, TimeUS,RSSI,RemRSSI,TxBuf,Noise,RemNoise,RxErrors,Fixed
FMT, 146, 43, CAM, QIHLLeeeccC, TimeUS,GPSTime,GPSWeek,Lat,Lng,Alt,RelAlt,GPSAlt,Roll,Pitch,Yaw
FMT, 232, 43, TRIG, QIHLLeeeccC, TimeUS,GPSTime,GPSWeek,Lat,Lng,Alt,RelAlt,GPSAlt,Roll,Pitch,Yaw
FMT, 162, 30, ARSP, QffcffB, TimeUS,Airspeed,DiffPress,Temp,RawPress,Offset,U
FMT, 164, 45, CURR, QfffcHHHHHHHHHH, TimeUS,Volt,Curr,CurrTot,Temp,V1,V2,V3,V4,V5,V6,V7,V8,V9,V10
FMT, 165, 45, CUR2, QfffcHHHHHHHHHH, TimeUS,Volt,Curr,CurrTot,Temp,V1,V2,V3,V4,V5,V6,V7,V8,V9,V10
FMT, 163, 27, ATT, QccccCCCC, TimeUS,DesRoll,Roll,DesPitch,Pitch,DesYaw,Yaw,ErrRP,ErrYaw
FMT, 166, 34, MAG, QhhhhhhhhhBI, TimeUS,MagX,MagY,MagZ,OfsX,OfsY,OfsZ,MOfsX,MOfsY,MOfsZ,Health,S
FMT, 169, 14, MODE, QMBB, TimeUS,Mode,ModeNum,Rsn
FMT, 196, 17, RFND, QCBCB, TimeUS,Dist1,Orient1,Dist2,Orient2
FMT, 223, 33, DMS, IIIIIBBBBBBBBBB, TimeMS,N,Dp,RT,RS,Er,Fa,Fmn,Fmx,Pa,Pmn,Pmx,Sa,Smn,Smx
FMT, 240, 41, BCN, QBBfffffff, TimeUS,Health,Cnt,D0,D1,D2,D3,PosX,PosY,PosZ
FMT, 138, 53, IMU2, QffffffIIfBBHH, TimeUS,GyrX,GyrY,GyrZ,AccX,AccY,AccZ,EG,EA,T,GH,AH,GHz,AHz
FMT, 147, 53, IMU3, QffffffIIfBBHH, TimeUS,GyrX,GyrY,GyrZ,AccX,AccY,AccZ,EG,EA,T,GH,AH,GHz,AHz
FMT, 141, 45, AHR2, QccCfLLffff, TimeUS,Roll,Pitch,Yaw,Alt,Lat,Lng,Q1,Q2,Q3,Q4
FMT, 180, 31, POS, QLLfff, TimeUS,Lat,Lng,Alt,RelHomeAlt,RelOriginAlt
FMT, 142, 45, SIM, QccCfLLffff, TimeUS,Roll,Pitch,Yaw,Alt,Lat,Lng,Q1,Q2,Q3,Q4
FMT, 198, 51, NKF1, QccCfffffffccc, TimeUS,Roll,Pitch,Yaw,VN,VE,VD,dPD,PN,PE,PD,GX,GY,GZ
FMT, 199, 35, NKF2, QbccccchhhhhhB, TimeUS,AZbias,GSX,GSY,GSZ,VWN,VWE,MN,ME,MD,MX,MY,MZ,MI
FMT, 200, 33, NKF3, Qcccccchhhcc, TimeUS,IVN,IVE,IVD,IPN,IPE,IPD,IMX,IMY,IMZ,IYAW,IVT
FMT, 201, 35, NKF4, QcccccfbbHBHHb, TimeUS,SV,SP,SH,SM,SVT,errRP,OFN,OFE,FS,TS,SS,GPS,PI
FMT, 202, 40, NKF5, QBhhhcccCCfff, TimeUS,NI,FIX,FIY,AFI,HAGL,offset,RI,rng,Herr,eAng,eVel,ePos
FMT, 203, 51, NKF6, QccCfffffffccc, TimeUS,Roll,Pitch,Yaw,VN,VE,VD,dPD,PN,PE,PD,GX,GY,GZ
FMT, 204, 35, NKF7, QbccccchhhhhhB, TimeUS,AZbias,GSX,GSY,GSZ,VWN,VWE,MN,ME,MD,MX,MY,MZ,MI
FMT, 205, 33, NKF8, Qcccccchhhcc, TimeUS,IVN,IVE,IVD,IPN,IPE,IPD,IMX,IMY,IMZ,IYAW,IVT
FMT, 206, 35, NKF9, QcccccfbbHBHHb, TimeUS,SV,SP,SH,SM,SVT,errRP,OFN,OFE,FS,TS,SS,GPS,PI
FMT, 207, 36, NKF0, QBccCCcccccccc, TimeUS,ID,rng,innov,SIV,TR,BPN,BPE,BPD,OFH,OFL,OFN,OFE,OFD
FMT, 208, 27, NKQ1, Qffff, TimeUS,Q1,Q2,Q3,Q4
FMT, 209, 27, NKQ2, Qffff, TimeUS,Q1,Q2,Q3,Q4
FMT, 210, 51, XKF1, QccCfffffffccc, TimeUS,Roll,Pitch,Yaw,VN,VE,VD,dPD,PN,PE,PD,GX,GY,GZ
FMT, 211, 34, XKF2, QccccchhhhhhB, TimeUS,AX,AY,AZ,VWN,VWE,MN,ME,MD,MX,MY,MZ,MI
FMT, 212, 33, XKF3, Qcccccchhhcc, TimeUS,IVN,IVE,IVD,IPN,IPE,IPD,IMX,IMY,IMZ,IYAW,IVT
FMT, 213, 35, XKF4, QcccccfbbHBHHb, TimeUS,SV,SP,SH,SM,SVT,errRP,OFN,OFE,FS,TS,SS,GPS,PI
FMT, 214, 40, XKF5, QBhhhcccCCfff, TimeUS,NI,FIX,FIY,AFI,HAGL,offset,RI,rng,Herr,eAng,eVel,ePos
FMT, 215, 51, XKF6, QccCfffffffccc, TimeUS,Roll,Pitch,Yaw,VN,VE,VD,dPD,PN,PE,PD,GX,GY,GZ
FMT, 216, 34, XKF7, QccccchhhhhhB, TimeUS,AX,AY,AZ,VWN,VWE,MN,ME,MD,MX,MY,MZ,MI
FMT, 217, 33, XKF8, Qcccccchhhcc, TimeUS,IVN,IVE,IVD,IPN,IPE,IPD,IMX,IMY,IMZ,IYAW,IVT
FMT, 218, 35, XKF9, QcccccfbbHBHHb, TimeUS,SV,SP,SH,SM,SVT,errRP,OFN,OFE,FS,TS,SS,GPS,PI
FMT, 219, 36, XKF0, QBccCCcccccccc, TimeUS,ID,rng,innov,SIV,TR,BPN,BPE,BPD,OFH,OFL,OFN,OFE,OFD
FMT, 220, 27, XKQ1, Qffff, TimeUS,Q1,Q2,Q3,Q4
FMT, 221, 27, XKQ2, Qffff, TimeUS,Q1,Q2,Q3,Q4
FMT, 222, 35, XKFD, Qffffff, TimeUS,IX,IY,IZ,IVX,IVY,IVZ
FMT, 148, 34, TERR, QBLLHffHH, TimeUS,Status,Lat,Lng,Spacing,TerrH,CHeight,Pending,Loaded
FMT, 149, 18, UBX1, QBHBBH, TimeUS,Instance,noisePerMS,jamInd,aPower,agcCnt
FMT, 150, 16, UBX2, QBbBbB, TimeUS,Instance,ofsI,magI,ofsQ,magQ
FMT, 151, 18, UBY1, QBHBBH, TimeUS,Instance,noisePerMS,jamInd,aPower,agcCnt
FMT, 152, 16, UBY2, QBbBbB, TimeUS,Instance,ofsI,magI,ofsQ,magQ
FMT, 170, 42, GRAW, QIHBBddfBbB, TimeUS,WkMS,Week,numSV,sv,cpMes,prMes,doMes,mesQI,cno,lli
FMT, 171, 24, GRXH, QdHbBB, TimeUS,rcvTime,week,leapS,numMeas,recStat
FMT, 172, 41, GRXS, QddfBBBHBBBBB, TimeUS,prMes,cpMes,doMes,gnss,sv,freq,lock,cno,prD,cpD,doD,trk
FMT, 173, 63, SBFE, QIHBBdddfffff, TimeUS,TOW,WN,Mode,Err,Lat,Lng,Height,Undul,Vn,Ve,Vu,COG
FMT, 153, 19, ESC1, Qcccc, TimeUS,RPM,Volt,Curr,Temp
FMT, 154, 19, ESC2, Qcccc, TimeUS,RPM,Volt,Curr,Temp
FMT, 155, 19, ESC3, Qcccc, TimeUS,RPM,Volt,Curr,Temp
FMT, 156, 19, ESC4, Qcccc, TimeUS,RPM,Volt,Curr,Temp
FMT, 157, 19, ESC5, Qcccc, TimeUS,RPM,Volt,Curr,Temp
FMT, 158, 19, ESC6, Qcccc, TimeUS,RPM,Volt,Curr,Temp
FMT, 159, 19, ESC7, Qcccc, TimeUS,RPM,Volt,Curr,Temp
FMT, 160, 19, ESC8, Qcccc, TimeUS,RPM,Volt,Curr,Temp
FMT, 167, 34, MAG2, QhhhhhhhhhBI, TimeUS,MagX,MagY,MagZ,OfsX,OfsY,OfsZ,MOfsX,MOfsY,MOfsZ,Health,S
FMT, 168, 34, MAG3, QhhhhhhhhhBI, TimeUS,MagX,MagY,MagZ,OfsX,OfsY,OfsZ,MOfsX,MOfsY,MOfsZ,Health,S
FMT, 174, 31, ACC1, QQfff, TimeUS,SampleUS,AccX,AccY,AccZ
FMT, 175, 31, ACC2, QQfff, TimeUS,SampleUS,AccX,AccY,AccZ
FMT, 176, 31, ACC3, QQfff, TimeUS,SampleUS,AccX,AccY,AccZ
FMT, 177, 31, GYR1, QQfff, TimeUS,SampleUS,GyrX,GyrY,GyrZ
FMT, 178, 31, GYR2, QQfff, TimeUS,SampleUS,GyrX,GyrY,GyrZ
FMT, 179, 31, GYR3, QQfff, TimeUS,SampleUS,GyrX,GyrY,GyrZ
FMT, 181, 35, PIDR, Qffffff, TimeUS,Des,P,I,D,FF,AFF
FMT, 182, 35, PIDP, Qffffff, TimeUS,Des,P,I,D,FF,AFF
FMT, 183, 35, PIDY, Qffffff, TimeUS,Des,P,I,D,FF,AFF
FMT, 184, 35, PIDA, Qffffff, TimeUS,Des,P,I,D,FF,AFF
FMT, 185, 35, PIDS, Qffffff, TimeUS,Des,P,I,D,FF,AFF
FMT, 186, 35, PIDL, Qffffff, TimeUS,Des,P,I,D,FF,AFF
FMT, 161, 37, BAR2, QffcfIff, TimeUS,Alt,Press,Temp,CRt,SMS,Offset,GndTemp
FMT, 197, 37, BAR3, QffcfIff, TimeUS,Alt,Press,Temp,CRt,SMS,Offset,GndTemp
FMT, 187, 35, VIBE, QfffIII, TimeUS,VibeX,VibeY,VibeZ,Clip0,Clip1,Clip2
FMT, 188, 47, IMT, Qfffffffff, TimeUS,DelT,DelvT,DelaT,DelAX,DelAY,DelAZ,DelVX,DelVY,DelVZ
FMT, 189, 47, IMT2, Qfffffffff, TimeUS,DelT,DelvT,DelaT,DelAX,DelAY,DelAZ,DelVX,DelVY,DelVZ
FMT, 190, 47, IMT3, Qfffffffff, TimeUS,DelT,DelvT,DelaT,DelAX,DelAY,DelAZ,DelVX,DelVY,DelVZ
FMT, 191, 24, ORGN, QBLLe, TimeUS,Type,Lat,Lng,Alt
FMT, 192, 19, RPM, Qff, TimeUS,rpm1,rpm2
FMT, 233, 47, GMB1, Iffffffffff, TimeMS,dt,dax,day,daz,dvx,dvy,dvz,jx,jy,jz
FMT, 234, 44, GMB2, IBfffffffff, TimeMS,es,ex,ey,ez,rx,ry,rz,tx,ty,tz
FMT, 235, 13, GMB3, Ihhh, TimeMS,rl_torque_cmd,el_torque_cmd,az_torque_cmd
FMT, 236, 59, RATE, Qffffffffffff, TimeUS,RDes,R,ROut,PDes,P,POut,YDes,Y,YOut,ADes,A,AOut
FMT, 237, 23, RALY, QBBLLh, TimeUS,Tot,Seq,Lat,Lng,Alt
FMT, 238, 43, VISO, Qffffffff, TimeUS,dt,AngDX,AngDY,AngDZ,PosDX,PosDY,PosDZ,conf
FMT, 224, 23, SBPH, QIII, TimeUS,CrcError,LastInject,IARhyp
FMT, 229, 80, SBR1, QHHBZ, TimeUS,msg_type,sender_id,msg_len,d1
FMT, 230, 205, SBR2, QHZZZ, TimeUS,msg_type,d2,d3,d4
FMT, 25, 41, ATUN, QBBfffffff, TimeUS,Axis,TuneStep,Targ,Min,Max,RP,RD,SP,ddt
FMT, 26, 19, ATDE, Qff, TimeUS,Angle,Rate
FMT, 31, 22, PTUN, QBfHHH, TimeUS,Param,TunVal,CtrlIn,TunLo,TunHi
FMT, 12, 28, OF, QBffff, TimeUS,Qual,flowX,flowY,bodyX,bodyY
FMT, 5, 51, NTUN, Qffffffffff, TimeUS,DPosX,DPosY,PosX,PosY,DVelX,DVelY,VelX,VelY,DAccX,DAccY
FMT, 4, 51, CTUN, Qffffffeccfhh, TimeUS,ThI,ABst,ThO,ThH,DAlt,Alt,BAlt,DSAlt,SAlt,TAlt,DCRt,CRt
FMT, 6, 32, PM, QHHIhBHII, TimeUS,NLon,NLoop,MaxT,PMT,I2CErr,INSErr,LogDrop,Mem
FMT, 30, 27, MOTB, Qffff, TimeUS,LiftMax,BatVolt,BatRes,ThLimit
FMT, 13, 12, EV, QB, TimeUS,Id
FMT, 20, 14, D16, QBh, TimeUS,Id,Value
FMT, 21, 14, DU16, QBH, TimeUS,Id,Value
FMT, 22, 16, D32, QBi, TimeUS,Id,Value
FMT, 23, 16, DU32, QBI, TimeUS,Id,Value
FMT, 24, 16, DFLT, QBf, TimeUS,Id,Value
FMT, 19, 13, ERR, QBB, TimeUS,Subsys,ECode
FMT, 32, 19, HELI, Qff, TimeUS,DRRPM,ERRPM
FMT, 33, 29, PL, QBBffff, TimeUS,Heal,TAcq,pX,pY,vX,vY
FMT, 34, 36, GUID, QBffffff, TimeUS,Type,pX,pY,pZ,vX,vY,vZ
FMT, 35, 32, THRO, QBffffbbbb, TimeUS,Stage,Vel,VelZ,Acc,AccEfZ,Throw,AttOk,HgtOk,PosOk
FMT, 36, 56, PRX, QBfffffffffff, TimeUS,Health,D0,D45,D90,D135,D180,D225,D270,D315,DUp,CAn,CDis
MODE, 17410414, 100, 100, 2
FMT, 254, 47, NKT1, QIffffffff, TimeUS,Cnt,IMUMin,IMUMax,EKFMin,EKFMax,AngMin,AngMax,VelMin,VelM
FMT, 253, 31, CTRL, Qfffff, TimeUS,RMSRollP,RMSRollD,RMSPitchP,RMSPitchD,RMSYaw
IMU, 17473592, 0.001008, 0.0002433837, -0.0009494754, 0.2347147, -0.05128038, -9.793748, 0, 0, 37.23318, 1, 1, 1000, 1000
IMU, 17556553, 0.0002237772, -0.0002660654, 0.0003498867, 0.2234817, -0.04151795, -9.800177, 0, 0, 37.23326, 1, 1, 1000, 1000
MSG, 17604655, APM:Copter V3.5.7 (38483450)
MSG, 17604660, New mission
MSG, 17604671, Frame: QUAD
MODE, 17604676, Autonomous, 100, 2
MAG, 17619424, 418, 496, 269, 0, 0, 0, 0, 0, 0, 1, 17619416
RFND, 17619459, 0.2, 25, 0, 0
BARO, 17619496, 0.1469374, 992.8533, 35.48, 0.09703093, 17619, 0, 35
CTUN, 17619510, 0, 0, 0, 0.2301447, 0.07014536, 0.07014536, 0.14, 0, 0.19, 0, 0, 0
ATT, 17621685, 0, 0.82, 0, 0.55, 0.02, 0.03, 0, 1
RATE, 17621696, -3.694745, -0.03998439, -0.008429818, -2.485198, -0.000631123, -0.005752507, 0.01664426, 0.02158132, -1.939686E-05, -86.64754, -1.130772, 0
NKF1, 17621704, 0.82, 0.55, 0.03, -0.001157347, -0.006403824, -0.002139445, 0, 0, 0, -0.07014966, -0.01, 0, 0
NKF2, 17621704, 0, 0, 0, 0, 0, 0, 0, 0, 0, 0, 0, 0, 0
NKF3, 17621704, 0, 0, 0, 0, 0, 0, 0, 0, 0, 0, 0
NKF4, 17621704, 0, 0, 0, 0, 0, 1.642232E-05, 0, 0, 0, 19, 229, 0, 0
NKF5, 17621704, 0, 0, 0, 0, 0.2, 0.13, 0, 0.19, 0.5, 1.200773E-05, 0.0003355582, 0.0005568278
NKQ1, 17621704, 0.9999281, 0.002616467, 0.01170309, 0.0002635145
AHR2, 17621747, 0.83, 0.54, 0.02, 0.14, 0, 0, 0.9999624, 0.007262538, 0.004720482, 0.0002210556
MOTB, 17621755, 1, 1, 0, 1
RCIN, 17621759, 0, 0, 0, 0, 0, 0, 0, 0, 0, 0, 0, 0, 0, 0
RCOU, 17621765, 1101, 1101, 1101, 1101, 0, 0, 0, 0, 0, 0, 0, 0, 0, 0
VIBE, 17621773, 0.01949194, 0.01983589, 0.03217641, 0, 0, 0
CTRL, 17621779, 0.00870225, 0.0001999001, 0.005852327, 0.0001468636, 7.366986E-05
PRX, 17621812, 2, 0.63, 0, 0.61, 0, 3.6, 0, 2.43, 0, 0, 90, 0.61
IMU, 17639302, -0.00243055, -0.001047111, -0.0001246556, 0.2305713, -0.05521824, -9.793281, 0, 0, 37.23409, 1, 1, 1000, 1000
RFND, 17669351, 0.2, 25, 0, 0
IMU, 17679503, 0.0005437249, 0.0005835557, 0.001228356, 0.2278882, -0.05673428, -9.779028, 0, 0, 37.2351, 1, 1, 1000, 1000
MAG, 17719365, 421, 506, 276, 0, 0, 0, 0, 0, 0, 1, 17719357
RFND, 17719399, 0.2, 25, 0, 0
BARO, 17719436, 0.09607446, 992.8588, 35.48, 0.1351624, 17719, 0, 35
CTUN, 17719449, 0, 0, 0, 0.2301447, 0.0700686, 0.0700686, 0.09, 0, 0.19, 0, 0, 0
IMU, 17719523, -5.278009E-05, 0.0009289249, -0.0004260004, 0.2334819, -0.04898134, -9.786024, 0, 0, 37.2363, 1, 1, 1000, 1000
ATT, 17721743, 0, 0.81, 0, 0.55, 0.02, 0.03, 0, 1
RATE, 17721755, -3.688504, -0.01310116, -0.008345493, -2.49445, 0.07199085, -0.006201239, 0.01680865, -0.02285782, -1.854391E-05, -72.82842, -0.7322311, 0
NKF1, 17721762, 0.81, 0.55, 0.03, -0.001579846, -0.006467381, -0.001798233, 0, 0, 0, -0.07007219, -0.01, 0, 0
NKF2, 17721762, 0, 0, 0, 0, 0, 0, 0, 0, 0, 0, 0, 0, 0
NKF3, 17721762, 0, 0, 0, 0, 0, 0, 0, 0, 0, 0, 0
NKF4, 17721762, 0, 0, 0, 0, 0, 1.057778E-05, 0, 0, 0, 19, 229, 0, 0
NKF5, 17721762, 0, 0, 0, 0, 0.2, 0.13, 0, 0.19, 0.5, 9.390458E-06, 0.0003421491, 0.0004787227
NKQ1, 17721762, 0.9999279, 0.00260469, 0.01171963, 0.000279979
AHR2, 17721806, 0.83, 0.54, 0.03, 0.09, 0, 0, 0.9999625, 0.007249367, 0.004730805, 0.0002376784
MOTB, 17721814, 1, 1, 0, 1
RCIN, 17721819, 0, 0, 0, 0, 0, 0, 0, 0, 0, 0, 0, 0, 0, 0
RCOU, 17721824, 1101, 1101, 1101, 1101, 0, 0, 0, 0, 0, 0, 0, 0, 0, 0
VIBE, 17721833, 0.0201433, 0.02359313, 0.03353246, 0, 0, 0
CTRL, 17721839, 0.008694221, 0.0002006195, 0.005859909, 0.000145357, 6.238418E-05
PRX, 17721871, 2, 0.63, 0, 0.61, 0, 3.6, 0, 2.44, 0, 0, 90, 0.61
IMU, 17759606, -0.001409047, -0.0006602696, 0.0005409703, 0.2401744, -0.0592223, -9.802807, 0, 0, 37.23703, 1, 1, 1000, 1000
RFND, 17769275, 0.2, 25, 0, 0
IMU, 17799783, -0.0004554866, -0.000379099, 0.0002480003, 0.2218424, -0.0544828, -9.785559, 0, 0, 37.23724, 1, 1, 1000, 1000
MAG, 17819759, 418, 501, 271, 0, 0, 0, 0, 0, 0, 1, 17819751
RFND, 17819794, 0.2, 25, 0, 0
BARO, 17819833, 0.03108292, 992.8658, 35.48, 0.1245023, 17819, 0, 35
CTUN, 17819846, 0, 0, 0, 0.2301447, 0.06984116, 0.06984116, 0.03, 0, 0.19, 0, 0, 0
ATT, 17821972, 0, 0.81, 0, 0.55, 0.02, 0.03, 0, 1
RATE, 17821982, -3.66982, -0.09209309, -0.008074522, -2.491808, 0.0296411, -0.006112462, 0.01753416, 0.09194402, -4.427546E-05, -56.40004, 0.6835938, 0
NKF1, 17821989, 0.81, 0.55, 0.03, -0.001560433, -0.006918849, -0.001392594, 0, 0, 0, -0.06984407, -0.01, 0, 0
NKF2, 17821989, 0, 0, 0, 0, 0, 0, 0, 0, 0, 0, 0, 0, 0
NKF3, 17821989, 0, 0, 0, 0, 0, 0, 0, 0, 0, 0, 0
NKF4, 17821989, 0, 0, 0, 0, 0, 7.016197E-06, 0, 0, 0, 19, 229, 0, 0
NKF5, 17821989, 0, 0, 0, 0, 0.2, 0.13, 0, 0.19, 0.5, 1.88582E-05, 0.0003771117, 0.000544111
NKQ1, 17821989, 0.999928, 0.002566218, 0.01171792, 0.000309688
AHR2, 17822034, 0.82, 0.54, 0.03, 0.03, 0, 0, 0.9999629, 0.007203739, 0.004724849, 0.0002677382
MOTB, 17822041, 1, 1, 0, 1
RCIN, 17822046, 0, 0, 0, 0, 0, 0, 0, 0, 0, 0, 0, 0, 0, 0
RCOU, 17822051, 1101, 1101, 1101, 1101, 0, 0, 0, 0, 0, 0, 0, 0, 0, 0
VIBE, 17822060, 0.02127217, 0.02206593, 0.03587491, 0, 0, 0
CTRL, 17822067, 0.008655531, 0.0001934007, 0.005862944, 0.000143569, 5.172556E-05
PRX, 17822099, 2, 0.63, 0, 0.61, 0, 3.6, 0, 2.45, 0, 0, 90, 0.61
IMU, 17839347, -0.001003459, 0.000639897, 0.0007128117, 0.2172573, -0.04698851, -9.775828, 0, 0, 37.23727, 1, 1, 1000, 1000
RFND, 17869455, 0.2, 25, 0, 0
IMU, 17879559, -0.0006675264, -0.0005268417, -0.000409672, 0.2281598, -0.05445058, -9.804986, 0, 0, 37.23661, 1, 1, 1000, 1000
MAG, 17919182, 419, 494, 267, 0, 0, 0, 0, 0, 0, 1, 17919174
RFND, 17919302, 0.2, 25, 0, 0
BARO, 17919343, 0.09607446, 992.8588, 35.48, -0.07023073, 17919, 0, 35
CTUN, 17919357, 0, 0, 0, 0.2301447, 0.06961624, 0.06961624, 0.09, 0, 0.19, 0, 0, 0
DU32, 17919398, 7, 50389208
IMU, 17919555, -0.0008798986, -0.0003802106, 0.0002076698, 0.2234748, -0.05188905, -9.792941, 0, 0, 37.23602, 1, 1, 1000, 1000
ATT, 17921727, 0, 0.81, 0, 0.55, 0.02, 0.03, 0, 1
RATE, 17921736, -3.654021, -0.03106738, -0.008660687, -2.484783, -0.01765529, -0.005865798, 0.01853032, 0.01000762, 4.634713E-05, -40.50973, -0.4001617, 0
NKF1, 17921743, 0.81, 0.55, 0.03, -0.002029347, -0.007037957, -0.00100024, 0, 0, 0, -0.06961723, -0.01, 0, 0
NKF2, 17921743, 0, 0, 0, 0, 0, 0, 0, 0, 0, 0, 0, 0, 0
NKF3, 17921743, 0, 0, 0, 0, 0, 0, 0, 0, 0, 0, 0
NKF4, 17921743, 0, 0, 0, 0, 0, 4.702639E-06, 0, 0, 0, 19, 229, 0, 0
NKF5, 17921743, 0, 0, 0, 0, 0.2, 0.13, 0, 0.19, 0.5, 2.681046E-05, 0.0004236383, 0.0006634081
NKQ1, 17921743, 0.9999284, 0.002537064, 0.01170191, 0.0003009088
AHR2, 17921787, 0.82, 0.53, 0.03, 0.09, 0, 0, 0.9999632, 0.007165887, 0.004705184, 0.0002592775
MOTB, 17921794, 1, 1, 0, 1
RCIN, 17921798, 0, 0, 0, 0, 0, 0, 0, 0, 0, 0, 0, 0, 0, 0
RCOU, 17921804, 1101, 1101, 1101, 1101, 0, 0, 0, 0, 0, 0, 0, 0, 0, 0
VIBE, 17921813, 0.01870972, 0.02045852, 0.02860254, 0, 0, 0
CTRL, 17921820, 0.008612975, 0.0001716135, 0.005854958, 0.0001390066, 4.953369E-05
PRX, 17921851, 2, 0.62, 0, 0.61, 0, 3.6, 0, 2.45, 0, 0, 90, 0.61
IMU, 17959375, 0.0001478836, 0.0004877827, 0.0009107476, 0.2302639, -0.0495241, -9.796093, 0, 0, 37.2359, 1, 1, 1000, 1000
RFND, 17969612, 0.2, 25, 0, 0
IMU, 17999604, 0.0001693125, -0.0008525182, 0.0005867201, 0.2349022, -0.05563884, -9.787975, 0, 0, 37.23634, 1, 1, 1000, 1000
MAG, 18019294, 412, 497, 267, 0, 0, 0, 0, 0, 0, 1, 18019286
RFND, 18019329, 0.2, 25, 0, 0
BARO, 18019367, 0.1271574, 992.8553, 35.48, -0.1878675, 18019, 0, 35
CTUN, 18019381, 0, 0, 0, 0.2301447, 0.06939725, 0.06939725, 0.12, 0, 0.19, 0, 0, 0
ATT, 18021928, 0, 0.81, 0, 0.55, 0.02, 0.03, 0, 1
RATE, 18021936, -3.655126, -0.01342367, -0.008539511, -2.479964, -0.05748422, -0.005708866, 0.01699292, 0.001120605, 2.969519E-05, -35.38947, 0.1835823, 0
NKF1, 18021944, 0.81, 0.55, 0.03, -0.001933092, -0.007413954, -0.0008738141, 0, 0, 0, -0.06939812, -0.01, 0, 0
NKF2, 18021944, 0, 0, 0, 0, 0, 0, 0, 0, 0, 0, 0, 0, 0
NKF3, 18021944, 0, 0, 0, 0, 0, 0, 0, 0, 0, 0, 0
NKF4, 18021944, 0, 0, 0, 0, 0, 3.197993E-06, 0, 0, 0, 19, 229, 0, 0
NKF5, 18021944, 0, 0, 0, 0, 0.2, 0.13, 0, 0.19, 0.5, 3.266189E-05, 0.0004608075, 0.0006651903
NKQ1, 18021944, 0.9999284, 0.002539483, 0.01169249, 0.0003101793
AHR2, 18021988, 0.82, 0.53, 0.03, 0.12, 0, 0, 0.9999633, 0.007162761, 0.004692086, 0.0002686199
MOTB, 18021995, 1, 1, 0, 1
RCIN, 18022000, 0, 0, 0, 0, 0, 0, 0, 0, 0, 0, 0, 0, 0, 0
RCOU, 18022004, 1101, 1101, 1101, 1101, 0, 0, 0, 0, 0, 0, 0, 0, 0, 0
VIBE, 18022013, 0.01961213, 0.01856039, 0.03073335, 0, 0, 0
CTRL, 18022019, 0.008619931, 0.0001537573, 0.005845671, 0.000160689, 4.904531E-05
PRX, 18022049, 2, 0.63, 0, 0.61, 0, 3.6, 0, 2.47, 0, 0, 90, 0.61
IMU, 18040540, 6.469364E-05, -0.0005690333, 0.0007589477, 0.2298956, -0.05338153, -9.809526, 0, 0, 37.23563, 1, 1, 1000, 1000
RFND, 18070629, 0.2, 25, 0, 0
IMU, 18080100, 0.0004389973, 0.0006075489, -0.0005889876, 0.2136116, -0.04437091, -9.796598, 0, 0, 37.23549, 1, 1, 1000, 1000
MAG, 18120070, 424, 499, 269, 0, 0, 0, 0, 0, 0, 1, 18120062
RFND, 18120106, 0.2, 25, 0, 0
BARO, 18120262, 0.1243317, 992.8557, 35.48, -0.02210649, 18120, 0, 35
CTUN, 18120277, 0, 0, 0, 0.2301447, 0.06919394, 0.06919394, 0.12, 0, 0.19, 0, 0, 0
IMU, 18120532, -1.794742E-05, 0.0008082929, -0.0005690739, 0.235843, -0.05033166, -9.814496, 0, 0, 37.23598, 1, 1, 1000, 1000
ATT, 18123039, 0, 0.81, 0, 0.55, 0.02, 0.03, 0, 1
RATE, 18123050, -3.654743, -0.007174069, -0.008461216, -2.482125, 0.04308954, -0.006022318, 0.01793392, -0.05156153, 8.43989E-05, -58.02939, 1.753521, 0
NKF1, 18123057, 0.81, 0.55, 0.03, -0.00198478, -0.007445173, -0.001432824, 0, 0, 0, -0.06919818, -0.01, 0, 0
NKF2, 18123057, 0, 0, 0, 0, 0, 0, 0, 0, 0, 0, 0, 0, 0
NKF3, 18123057, 0, 0, 0, 0, 0, 0, 0, 0, 0, 0, 0
NKF4, 18123057, 0, 0, 0, 0, 0, 2.210083E-06, 0, 0, 0, 19, 229, 0, 0
NKF5, 18123057, 0, 0, 0, 0, 0.2, 0.13, 0, 0.19, 0.5, 3.615674E-05, 0.0004723388, 0.0007199218
NKQ1, 18123057, 0.9999284, 0.002539744, 0.01169512, 0.0002980213
AHR2, 18123100, 0.82, 0.53, 0.03, 0.12, 0, 0, 0.9999633, 0.007158626, 0.004690916, 0.0002564889
MOTB, 18123108, 1, 1, 0, 1
RCIN, 18123112, 0, 0, 0, 0, 0, 0, 0, 0, 0, 0, 0, 0, 0, 0
RCOU, 18123118, 1101, 1101, 1101, 1101, 0, 0, 0, 0, 0, 0, 0, 0, 0, 0
VIBE, 18123127, 0.01922765, 0.02116196, 0.03109642, 0, 0, 0
CTRL, 18123133, 0.008622663, 0.0001453603, 0.005846136, 0.0001434881, 4.908326E-05
PRX, 18123166, 2, 0.62, 0, 0.61, 0, 3.6, 0, 2.46, 0, 0, 90, 0.61
IMU, 18160310, -0.0007401701, 0.0002762105, -0.001508296, 0.2278975, -0.05070197, -9.804045, 0, 0, 37.2369, 1, 1, 1000, 1000
RFND, 18170038, 0.2, 25, 0, 0
IMU, 18200401, -0.0003977586, 0.0002480697, 7.249245E-05, 0.2273561, -0.05287257, -9.786434, 0, 0, 37.23858, 1, 1, 1000, 1000
MAG, 18220567, 417, 505, 269, 0, 0, 0, 0, 0, 0, 1, 18220558
RFND, 18220603, 0.2, 25, 0, 0
BARO, 18220640, 0.141286, 992.8539, 35.48, 0.1835866, 18220, 0, 35
CTUN, 18220653, 0, 0, 0, 0.2301447, 0.0690582, 0.0690582, 0.14, 0, 0.19, 0, 0, 0
ATT, 18222675, 0, 0.8, 0, 0.55, 0.02, 0.03, 0, 1
RATE, 18222684, -3.637848, -0.04680429, -0.008387652, -2.479789, 0.0007782163, -0.006030019, 0.01577675, 0.03277149, 8.445464E-05, -50.94875, 0.8303642, 0
NKF1, 18222691, 0.8, 0.55, 0.03, -0.002163189, -0.008310704, -0.001257994, 0, 0, 0, -0.06906071, -0.01, 0, 0
NKF2, 18222691, 0, 0, 0, 0, 0, 0, 0, 0, 0, 0, 0, 0, 0
NKF3, 18222691, 0, 0, 0, 0, 0, 0, 0, 0, 0, 0, 0
NKF4, 18222691, 0, 0, 0, 0, 0, 1.569679E-06, 0, 0, 0, 19, 229, 0, 0
NKF5, 18222691, 0, 0, 0, 0, 0.2, 0.13, 0, 0.19, 0.5, 3.801732E-05, 0.0004994928, 0.0007499741
NKQ1, 18222691, 0.9999285, 0.00250536, 0.01169289, 0.0002992889
AHR2, 18222733, 0.81, 0.53, 0.03, 0.14, 0, 0, 0.9999636, 0.007119198, 0.004685766, 0.0002580216
MOTB, 18222741, 1, 1, 0, 1
RCIN, 18222745, 0, 0, 0, 0, 0, 0, 0, 0, 0, 0, 0, 0, 0, 0
RCOU, 18222751, 1101, 1101, 1101, 1101, 0, 0, 0, 0, 0, 0, 0, 0, 0, 0
VIBE, 18222759, 0.01874422, 0.02320782, 0.03463519, 0, 0, 0
CTRL, 18222766, 0.008588118, 0.0001424044, 0.005844028, 0.0001569082, 7.377294E-05
PRX, 18222799, 2, 0.63, 0, 0.61, 0, 3.6, 0, 2.44, 0, 0, 90, 0.61
IMU, 18240178, -0.0007254196, -3.418001E-05, 0.0003551611, 0.2302859, -0.0605467, -9.796476, 0, 0, 37.24065, 1, 1, 1000, 1000
RFND, 18270931, 0.2, 25, 0, 0
IMU, 18280878, 3.880967E-05, 0.0005152383, -0.0006023491, 0.2347025, -0.05730462, -9.782276, 0, 0, 37.24211, 1, 1, 1000, 1000
MAG, 18320377, 414, 501, 266, 0, 0, 0, 0, 0, 0, 1, 18320369
RFND, 18320545, 0.2, 25, 0, 0
BARO, 18320584, 0.09324875, 992.8591, 35.48, 0.1804609, 18320, 0, 35
CTUN, 18320598, 0, 0, 0, 0.2301447, 0.06884384, 0.06884384, 0.09, 0, 0.19, 0, 0, 0
IMU, 18320770, -0.001024817, -0.0006168119, -0.000440753, 0.2203923, -0.06043861, -9.800103, 0, 0, 37.24346, 1, 1, 1000, 1000
ATT, 18322662, 0, 0.8, 0, 0.55, 0.02, 0.03, 0, 1
RATE, 18322673, -3.628761, -0.05256074, -0.008234396, -2.480312, -0.0509487, -0.005493728, 0.01725052, -0.03481283, 4.523448E-05, -17.38154, 0.5583763, 0
NKF1, 18322680, 0.8, 0.55, 0.03, -0.002060674, -0.009320521, -0.0004291739, 0, 0, 0, -0.06884516, -0.01, 0, 0
NKF2, 18322680, 0, 0, 0, 0, 0, 0, 0, 0, 0, 0, 0, 0, 0
NKF3, 18322680, 0, 0, 0, 0, 0, 0, 0, 0, 0, 0, 0
NKF4, 18322680, 0, 0, 0, 0, 0, 1.160079E-06, 0, 0, 0, 19, 229, 0, 0
NKF5, 18322680, 0, 0, 0, 0, 0.2, 0.13, 0, 0.19, 0.5, 3.859363E-05, 0.000486233, 0.0007484005
NKQ1, 18322680, 0.9999285, 0.002490196, 0.01169281, 0.0002935879
AHR2, 18322724, 0.81, 0.53, 0.03, 0.09, 0, 0, 0.9999638, 0.007098878, 0.004683177, 0.0002524387
MOTB, 18322731, 1, 1, 0, 1
RCIN, 18322736, 0, 0, 0, 0, 0, 0, 0, 0, 0, 0, 0, 0, 0, 0
RCOU, 18322741, 1101, 1101, 1101, 1101, 0, 0, 0, 0, 0, 0, 0, 0, 0, 0
VIBE, 18322750, 0.01947353, 0.02033563, 0.0304478, 0, 0, 0
CTRL, 18322757, 0.008567386, 0.000135245, 0.005855034, 0.000141315, 6.997264E-05
PRX, 18322789, 2, 0.63, 0, 0.61, 0, 3.6, 0, 2.44, 0, 0, 90, 0.61
IMU, 18360365, -0.0004572893, 0.0001738928, 0.0003845587, 0.238886, -0.06416206, -9.788354, 0, 0, 37.24569, 1, 1, 1000, 1000
RFND, 18370170, 0.2, 25, 0, 0
IMU, 18400966, 0.0001588502, 0.0009587202, -3.041485E-05, 0.2367328, -0.05691467, -9.770884, 0, 0, 37.24807, 1, 1, 1000, 1000
MAG, 18420520, 416, 498, 270, 0, 0, 0, 0, 0, 0, 1, 18420422
RFND, 18420556, 0.2, 25, 0, 0
BARO, 18420594, 0.1667175, 992.851, 35.48, 0.06075804, 18420, 0, 35
CTUN, 18420608, 0, 0, 0, 0.2301447, 0.0686295, 0.0686295, 0.16, 0, 0.19, 0, 0, 0
ATT, 18423090, 0, 0.8, 0, 0.55, 0.02, 0.03, 0, 1
RATE, 18423102, -3.626539, 0.01537629, -0.008740432, -2.49312, 0.007615172, -0.005670059, 0.01749294, -0.09832721, 9.481081E-05, 26.50744, -1.719189, 0
NKF1, 18423109, 0.8, 0.55, 0.03, -0.001656588, -0.01005849, 0.0006545048, 0, 0, 0, -0.06862886, -0.01, 0, 0
NKF2, 18423109, 0, 0, 0, 0, 0, 0, 0, 0, 0, 0, 0, 0, 0
NKF3, 18423109, 0, 0, 0, 0, 0, 0, 0, 0, 0, 0, 0
NKF4, 18423109, 0, 0, 0, 0, 0, 9.032314E-07, 0, 0, 0, 19, 229, 0, 0
NKF5, 18423109, 0, 0, 0, 0, 0.2, 0.13, 0, 0.19, 0.5, 3.812611E-05, 0.0004689546, 0.0007494884
NKQ1, 18423109, 0.9999282, 0.002486537, 0.01171546, 0.0002854684
AHR2, 18423152, 0.81, 0.53, 0.03, 0.16, 0, 0, 0.9999637, 0.007096683, 0.00470484, 0.0002442762
MOTB, 18423159, 1, 1, 0, 1
RCIN, 18423164, 0, 0, 0, 0, 0, 0, 0, 0, 0, 0, 0, 0, 0, 0
RCOU, 18423169, 1101, 1101, 1101, 1101, 0, 0, 0, 0, 0, 0, 0, 0, 0, 0
VIBE, 18423178, 0.01871943, 0.0204167, 0.03294658, 0, 0, 0
CTRL, 18423184, 0.008552887, 0.0001524829, 0.005871749, 0.0001517184, 6.209286E-05
PRX, 18423302, 2, 0.63, 0, 0.61, 0, 3.6, 0, 2.45, 0, 0, 90, 0.61
IMU, 18440518, 0.0003338055, 0.0009360478, -0.00117229, 0.2315375, -0.05365853, -9.798927, 0, 0, 37.25007, 1, 1, 1000, 1000
RFND, 18470345, 0.2, 25, 0, 0
IMU, 18480790, 0.0001369731, -0.0001427622, 8.748527E-05, 0.2355161, -0.05232655, -9.807202, 0, 0, 37.25116, 1, 1, 1000, 1000
MAG, 18520107, 415, 495, 270, 0, 0, 0, 0, 0, 0, 1, 18520099
RFND, 18520165, 0.2, 25, 0, 0
BARO, 18520278, 0.2288833, 992.8442, 35.48, 0.04219343, 18520, 0, 35
CTUN, 18520293, 0, 0, 0, 0.2301447, 0.06835362, 0.06835362, 0.22, 0, 0.19, 0, 0, 0
IMU, 18520555, -0.0007150475, -0.0001922348, -0.001211306, 0.2325177, -0.04574829, -9.799089, 0, 0, 37.25279, 1, 1, 1000, 1000
ATT, 18523368, 0, 0.8, 0, 0.55, 0.02, 0.03, 0, 1
RATE, 18523377, -3.623195, -0.02954498, -0.008334884, -2.499566, -0.01165566, -0.005838272, 0.0189977, -0.07777797, 9.84334E-05, 9.957781, 0.2615929, 0
NKF1, 18523385, 0.8, 0.55, 0.03, -0.001291241, -0.01011549, 0.0002458711, 0, 0, 0, -0.06833113, -0.01, 0, 0
NKF2, 18523385, 0, 0, 0, 0, 0, 0, 0, 0, 0, 0, 0, 0, 0
NKF3, 18523385, 0, 0, 0, 0, 0, 0, 0, 0, 0, 0, 0
NKF4, 18523385, 0, 0, 0, 0, 0, 7.703048E-07, 0, 0, 0, 19, 229, 0, 0
NKF5, 18523385, 0, 0, 0, 0, 0.2, 0.13, 0, 0.19, 0.5, 3.794912E-05, 0.0004776868, 0.0007532082
NKQ1, 18523385, 0.9999282, 0.002479773, 0.01172841, 0.0002675737
AHR2, 18523431, 0.81, 0.54, 0.02, 0.22, 0, 0, 0.9999637, 0.007094048, 0.004717387, 0.0002264134
MOTB, 18523438, 1, 1, 0, 1
RCIN, 18523443, 0, 0, 0, 0, 0, 0, 0, 0, 0, 0, 0, 0, 0, 0
RCOU, 18523448, 1101, 1101, 1101, 1101, 0, 0, 0, 0, 0, 0, 0, 0, 0, 0
VIBE, 18523457, 0.01944421, 0.01868578, 0.03488759, 0, 0, 0
CTRL, 18523463, 0.008554212, 0.0001438791, 0.00588899, 0.0001553628, 8.49474E-05
PRX, 18523492, 2, 0.63, 0, 0.61, 0, 3.6, 0, 2.44, 0, 0, 90, 0.61
IMU, 18560551, -5.297353E-05, -0.001157884, -0.0001774529, 0.2266136, -0.06468748, -9.804429, 0, 0, 37.25454, 1, 1, 1000, 1000
RFND, 18570039, 0.2, 25, 0, 0
IMU, 18601651, 0.0008467974, 0.001103378, -0.0004099535, 0.2401806, -0.05061178, -9.802259, 0, 0, 37.25584, 1, 1, 1000, 1000
MAG, 18620103, 418, 497, 272, 0, 0, 0, 0, 0, 0, 1, 18620095
RFND, 18620134, 0.2, 25, 0, 0
BARO, 18620174, 0.2147547, 992.8458, 35.48, 0.1977548, 18620, 0, 35
CTUN, 18620186, 0, 0, 0, 0.2301447, 0.0681467, 0.0681467, 0.21, 0, 0.19, 0, 0, 0
ATT, 18623605, 0, 0.8, 0, 0.55, 0.02, 0.03, 0, 1
RATE, 18623618, -3.624512, -0.00351563, -0.008353324, -2.499241, 0.0250853, -0.0059836, 0.01702514, -0.00656483, 8.866467E-05, -11.05521, 0.2714157, 0
NKF1, 18623625, 0.8, 0.55, 0.03, -0.001239529, -0.01090128, -0.0002729681, 0, 0, 0, -0.0681221, -0.01, 0, 0
NKF2, 18623625, 0, 0, 0, 0, 0, 0, 0, 0, 0, 0, 0, 0, 0
NKF3, 18623625, 0, 0, 0, 0, -0.01, 0, 0, 0, 0, 0, 0
NKF4, 18623625, 0, 0, 0, 0, 0, 7.075275E-07, 0, 0, 0, 19, 229, 0, 0
NKF5, 18623625, 0, 0, 0, 0, 0.2, 0.13, 0, 0.19, 0.5, 3.692156E-05, 0.0004469408, 0.0007105154
NKQ1, 18623625, 0.9999281, 0.002481545, 0.01173014, 0.0002710901
AHR2, 18623668, 0.81, 0.54, 0.03, 0.21, 0, 0, 0.9999636, 0.007095057, 0.004719551, 0.0002299263
MOTB, 18623675, 1, 1, 0, 1
RCIN, 18623679, 0, 0, 0, 0, 0, 0, 0, 0, 0, 0, 0, 0, 0, 0
RCOU, 18623685, 1101, 1101, 1101, 1101, 0, 0, 0, 0, 0, 0, 0, 0, 0, 0
VIBE, 18623694, 0.02081398, 0.02103764, 0.03602532, 0, 0, 0
CTRL, 18623701, 0.008556215, 0.0001361693, 0.005884824, 0.0001627382, 8.533408E-05
PRX, 18623733, 2, 0.63, 0, 0.61, 0, 3.6, 0, 2.46, 0, 0, 90, 0.61
IMU, 18640160, 0.0003891542, 0.0005579097, 0.0002082935, 0.236976, -0.04737802, -9.790955, 0, 0, 37.25602, 1, 1, 1000, 1000
RFND, 18670064, 0.2, 25, 0, 0
IMU, 18680101, -0.001130257, -0.0008407084, -0.0004763394, 0.2295114, -0.06025505, -9.79781, 0, 0, 37.25604, 1, 1, 1000, 1000
MAG, 18721664, 417, 501, 271, 0, 0, 0, 0, 0, 0, 1, 18721656
RFND, 18721695, 0.2, 25, 0, 0
BARO, 18721733, 0.1667175, 992.851, 35.48, 0.3169884, 18721, 0, 35
CTUN, 18721746, 0, 0, 0, 0.2301447, 0.0679304, 0.0679304, 0.16, 0, 0.19, 0, 0, 0
IMU, 18721916, -0.000342307, 0.0002548506, 0.0006188529, 0.2361975, -0.06334098, -9.803568, 0, 0, 37.25608, 1, 1, 1000, 1000
ATT, 18724615, 0, 0.8, 0, 0.55, 0.02, 0.03, 0, 1
RATE, 18724627, -3.622102, 0.01336074, -0.008671876, -2.493208, 0.01076782, -0.005941366, 0.01802697, 0.01793784, -1.553456E-05, -5.445452, 0.7338524, 0
NKF1, 18724635, 0.8, 0.55, 0.03, -0.001326833, -0.01163624, -0.0001344556, 0, 0, 0, -0.06791336, -0.01, 0, 0
NKF2, 18724635, 0, 0, 0, 0, 0, 0, 0, 0, 0, 0, 0, 0, 0
NKF3, 18724635, 0, 0, 0, 0, -0.01, 0, 0, 0, 0, 0, 0
NKF4, 18724635, 0, 0, 0, 0, 0, 7.05122E-07, 0, 0, 0, 19, 229, 0, 0
NKF5, 18724635, 0, 0, 0, 0, 0.2, 0.13, 0, 0.19, 0.5, 3.658297E-05, 0.000458104, 0.0007378883
NKQ1, 18724635, 0.9999282, 0.002476148, 0.0117191, 0.0002876881
AHR2, 18724678, 0.81, 0.53, 0.03, 0.16, 0, 0, 0.9999638, 0.007086463, 0.004709324, 0.000246615
MOTB, 18724686, 1, 1, 0, 1
RCIN, 18724691, 0, 0, 0, 0, 0, 0, 0, 0, 0, 0, 0, 0, 0, 0
RCOU, 18724696, 1101, 1101, 1101, 1101, 0, 0, 0, 0, 0, 0, 0, 0, 0, 0
VIBE, 18724705, 0.02024504, 0.01814751, 0.03608352, 0, 0, 0
CTRL, 18724712, 0.00853853, 0.0001430388, 0.005876154, 0.0001493531, 7.675487E-05
PRX, 18724744, 2, 0.63, 0, 0.61, 0, 3.6, 0, 2.45, 0, 0, 90, 0.61
IMU, 18760101, -0.0006616322, -0.000913671, -0.0009798142, 0.2348304, -0.06162849, -9.800816, 0, 0, 37.25608, 1, 1, 1000, 1000
RFND, 18770058, 0.2, 25, 0, 0
IMU, 18800271, -0.000690031, -0.0003685761, -0.0001082714, 0.229097, -0.05279472, -9.794899, 0, 0, 37.25602, 1, 1, 1000, 1000
MAG, 18820072, 415, 498, 264, 0, 0, 0, 0, 0, 0, 1, 18820063
RFND, 18820103, 0.2, 25, 0, 0
BARO, 18820143, -0.03390864, 992.8733, 35.49, 0.1119167, 18820, 0, 35
CTUN, 18820155, 0, 0, 0, 0.2301447, 0.06770416, 0.06770416, -0.03, 0, 0.19, 0, 0, 0
ATT, 18822845, 0, 0.8, 0, 0.55, 0.02, 0.03, 0, 1
RATE, 18822857, -3.61602, -0.01004585, -0.008451429, -2.48772, -0.02569457, -0.005804728, 0.01740569, -0.04146875, 9.695301E-05, 29.68211, -1.791477, 0
NKF1, 18822865, 0.8, 0.55, 0.03, -0.001124622, -0.01284224, 0.0007328916, 0, 0, 0, -0.06768408, -0.01, 0, 0
NKF2, 18822865, 0, 0, 0, 0, 0, 0, 0, 0, 0, 0, 0, 0, 0
NKF3, 18822865, 0, 0, 0, 0, -0.01, 0, 0, 0, 0, 0, 0
NKF4, 18822865, 0, 0, 0, 0, 0, 7.556762E-07, 0, 0, 0, 19, 229, 0, 0
NKF5, 18822865, 0, 0, 0, 0, 0.2, 0.13, 0, 0.19, 0.5, 3.534621E-05, 0.0004237868, 0.0006784599
NKQ1, 18822865, 0.9999284, 0.002465547, 0.01170665, 0.0002642478
AHR2, 18822909, 0.81, 0.53, 0.02, -0.03, 0, 0, 0.9999639, 0.00707526, 0.004696719, 0.0002233297
MOTB, 18822916, 1, 1, 0, 1
RCIN, 18822921, 0, 0, 0, 0, 0, 0, 0, 0, 0, 0, 0, 0, 0, 0
RCOU, 18822927, 1101, 1101, 1101, 1101, 0, 0, 0, 0, 0, 0, 0, 0, 0, 0
VIBE, 18822935, 0.01932364, 0.01812242, 0.03375981, 0, 0, 0
CTRL, 18822942, 0.008537831, 0.0001505227, 0.005864927, 0.0001682215, 7.694449E-05
PRX, 18822974, 2, 0.62, 0, 0.61, 0, 3.6, 0, 2.45, 0, 0, 90, 0.61
IMU, 18840187, -4.381214E-05, 0.0002941409, 0.0004330149, 0.2312349, -0.05827979, -9.793999, 0, 0, 37.25606, 1, 1, 1000, 1000
RFND, 18871005, 0.2, 25, 0, 0
IMU, 18880130, 0.0003446324, -0.0003221938, 0.0007105538, 0.2226281, -0.06065845, -9.796196, 0, 0, 37.25594, 1, 1, 1000, 1000
MAG, 18920361, 417, 498, 266, 0, 0, 0, 0, 0, 0, 1, 18920353
RFND, 18920392, 0.2, 25, 0, 0
BARO, 18920519, -0.03390864, 992.873, 35.48, -0.3871701, 18920, 0, 35
CTUN, 18920536, 0, 0, 0, 0.2301447, 0.06744979, 0.06744979, -0.03, 0, 0.19, 0, 0, 0
DU32, 18920576, 7, 50389208
IMU, 18920767, -0.0005007802, 0.0004729049, -0.0003082564, 0.2364196, -0.05847752, -9.79455, 0, 0, 37.25608, 1, 1, 1000, 1000
ATT, 18922890, 0, 0.8, 0, 0.55, 0.02, 0.03, 0, 1
RATE, 18922902, -3.61599, -0.01072545, -0.008572911, -2.494129, 0.03043776, -0.005879369, 0.01877898, -0.01700473, 5.052316E-05, 39.71414, 0.03328323, 0
NKF1, 18922910, 0.8, 0.55, 0.03, -0.001282749, -0.01399665, 0.0009805959, 0, 0, 0, -0.0674352, -0.01, 0, 0
NKF2, 18922910, 0, 0, 0, 0, 0, 0, 0, 0, 0, 0, 0, 0, 0
NKF3, 18922910, 0, 0, 0, 0, -0.01, 0, 0, 0, 0, 0, 0
NKF4, 18922910, 0, 0, 0, 0, 0, 8.186479E-07, 0, 0, 0, 19, 229, 0, 0
NKF5, 18922910, 0, 0, 0, 0, 0.2, 0.13, 0, 0.19, 0.5, 3.516006E-05, 0.0004384752, 0.0007226164
NKQ1, 18922910, 0.9999284, 0.002464073, 0.01171921, 0.0002765494
AHR2, 18922955, 0.81, 0.53, 0.03, -0.03, 0, 0, 0.9999639, 0.007074368, 0.00470881, 0.0002356218
MOTB, 18922963, 1, 1, 0, 1
RCIN, 18922968, 0, 0, 0, 0, 0, 0, 0, 0, 0, 0, 0, 0, 0, 0
RCOU, 18922973, 1101, 1101, 1101, 1101, 0, 0, 0, 0, 0, 0, 0, 0, 0, 0
VIBE, 18922982, 0.02114745, 0.0186235, 0.03197176, 0, 0, 0
CTRL, 18923037, 0.008531877, 0.0001488264, 0.005873419, 0.000167242, 7.077902E-05
PRX, 18923070, 2, 0.62, 0, 0.61, 0, 0.68, 0, 2.45, 0, 0, 90, 0.61
IMU, 18960765, 0.0003776205, 0.000883341, 0.0009995085, 0.2330715, -0.04804272, -9.795325, 0, 0, 37.25608, 1, 1, 1000, 1000
RFND, 18970131, 0.2, 25, 0, 0
IMU, 19001056, 0.000172876, -0.0007513471, -0.001492381, 0.2322794, -0.05621325, -9.817451, 0, 0, 37.25583, 1, 1, 1000, 1000
MAG, 19020081, 416, 501, 272, 0, 0, 0, 0, 0, 0, 1, 19020073
RFND, 19020111, 0.2, 25, 0, 0
BARO, 19020148, 0.0141286, 992.8678, 35.48, -0.7647104, 19020, 0, 35
CTUN, 19020162, 0, 0, 0, 0.2301447, 0.0672239, 0.0672239, 0.01, 0, 0.19, 0, 0, 0
ATT, 19023050, 0, 0.8, 0, 0.55, 0.02, 0.03, 0, 1
RATE, 19023058, -3.623024, -0.00608984, -0.008285751, -2.488684, -0.02779053, -0.005914014, 0.01710909, 0.05767887, 3.878229E-05, -3.631377, 1.366043, 0
NKF1, 19023067, 0.8, 0.55, 0.03, -0.001037705, -0.01447508, -8.966363E-05, 0, 0, 0, -0.06720954, -0.01, 0, 0
NKF2, 19023067, 0, 0, 0, 0, 0, 0, 0, 0, 0, 0, 0, 0, 0
NKF3, 19023067, 0, 0, 0, 0, -0.01, 0, 0, 0, 0, 0, 0
NKF4, 19023067, 0, 0, 0, 0, 0, 9.490667E-07, 0, 0, 0, 19, 229, 0, 0
NKF5, 19023067, 0, 0, 0, 0, 0.2, 0.13, 0, 0.19, 0.5, 3.385416E-05, 0.0003993618, 0.0006491259
NKQ1, 19023067, 0.9999283, 0.002477365, 0.01171154, 0.0002889948
AHR2, 19023110, 0.81, 0.53, 0.03, 0.01, 0, 0, 0.9999638, 0.007089432, 0.004698472, 0.0002480756
MOTB, 19023117, 1, 1, 0, 1
RCIN, 19023122, 0, 0, 0, 0, 0, 0, 0, 0, 0, 0, 0, 0, 0, 0
RCOU, 19023127, 1101, 1101, 1101, 1101, 0, 0, 0, 0, 0, 0, 0, 0, 0, 0
VIBE, 19023135, 0.01921895, 0.01762304, 0.03216467, 0, 0, 0
CTRL, 19023141, 0.008550117, 0.0001559602, 0.005866864, 0.0001548407, 6.504709E-05
PRX, 19023171, 2, 0.62, 0, 0.61, 0, 0.68, 0, 2.42, 0, 0, 90, 0.61
IMU, 19040978, -0.0003756884, 0.001003501, 0.0001368379, 0.23949, -0.05847493, -9.80027, 0, 0, 37.25594, 1, 1, 1000, 1000
RFND, 19070821, 0.2, 25, 0, 0
IMU, 19080937, -0.00103, -0.0003696529, 0.0008919697, 0.231566, -0.0516398, -9.798826, 0, 0, 37.25597, 1, 1, 1000, 1000
MAG, 19121798, 414, 496, 273, 0, 0, 0, 0, 0, 0, 1, 19121789
RFND, 19121827, 0.2, 25, 0, 0
BARO, 19121864, 0.1667175, 992.851, 35.48, -0.5852306, 19121, 0, 35
CTUN, 19121878, 0, 0, 0, 0.2301447, 0.06713975, 0.06713975, 0.16, 0, 0.19, 0, 0, 0
IMU, 19121956, -0.001020452, -0.0002552347, 0.0003297017, 0.2361806, -0.05019084, -9.799923, 0, 0, 37.25602, 1, 1, 1000, 1000
ATT, 19124127, 0, 0.8, 0, 0.55, 0.02, 0.03, 0, 1
RATE, 19124137, -3.615391, -0.04769065, -0.00809726, -2.493408, -0.01538157, -0.005596178, 0.01824499, 0.01377572, 6.365128E-05, -27.83832, 0.5930901, 0
NKF1, 19124144, 0.8, 0.55, 0.03, -0.0006795749, -0.01509575, -0.0006873658, 0, 0, 0, -0.06712502, -0.01, 0, 0
NKF2, 19124144, 0, 0, 0, 0, 0, 0, 0, 0, 0, 0, 0, 0, 0
NKF3, 19124144, 0, 0, 0, 0, -0.01, 0, 0, 0, 0, 0, 0
NKF4, 19124144, 0, 0, 0, 0, 0, 1.054639E-06, 0, 0, 0, 19, 229, 0, 0
NKF5, 19124144, 0, 0, 0, 0, 0.2, 0.13, 0, 0.19, 0.5, 3.24632E-05, 0.000352811, 0.0005626822
NKQ1, 19124144, 0.9999284, 0.002463466, 0.01171949, 0.0002823335
AHR2, 19124186, 0.81, 0.53, 0.03, 0.16, 0, 0, 0.9999639, 0.007078149, 0.004702583, 0.000241549
MOTB, 19124299, 1, 1, 0, 1
RCIN, 19124305, 0, 0, 0, 0, 0, 0, 0, 0, 0, 0, 0, 0, 0, 0
RCOU, 19124311, 1101, 1101, 1101, 1101, 0, 0, 0, 0, 0, 0, 0, 0, 0, 0
VIBE, 19124320, 0.02108235, 0.01824726, 0.03410092, 0, 0, 0
CTRL, 19124326, 0.008536202, 0.0001886148, 0.005879044, 0.0001968481, 6.004232E-05
PRX, 19124358, 2, 0.62, 0, 0.61, 0, 3.6, 0, 2.45, 0, 0, 90, 0.61
IMU, 19160951, 0.0004468392, 7.106458E-05, -0.0002821549, 0.2401602, -0.04961287, -9.807017, 0, 0, 37.256, 1, 1, 1000, 1000
RFND, 19170894, 0.2, 25, 0, 0
IMU, 19201388, -0.000912882, -0.00146149, -0.0002488124, 0.2430506, -0.04992114, -9.792693, 0, 0, 37.25602, 1, 1, 1000, 1000
MAG, 19220887, 412, 503, 267, 0, 0, 0, 0, 0, 0, 1, 19220879
RFND, 19220918, 0.2, 25, 0, 0
BARO, 19220957, 0.2288833, 992.8441, 35.48, 0.07947336, 19220, 0, 35
CTUN, 19220969, 0, 0, 0, 0.2301447, 0.06705984, 0.06705984, 0.22, 0, 0.19, 0, 0, 0
ATT, 19224017, 0, 0.8, 0, 0.55, 0.02, 0.03, 0, 1
RATE, 19224028, -3.606673, 0.004781711, -0.008843895, -2.483754, -0.04674883, -0.005675346, 0.01702632, -0.01753377, 2.745237E-05, -12.9672, -0.9699821, 0
NKF1, 19224038, 0.8, 0.55, 0.03, 0.0005951152, -0.01527263, -0.0003201777, 0, 0, 0, -0.06705068, -0.01, 0, 0
NKF2, 19224038, 0, 0, 0, 0, 0, 0, 0, 0, 0, 0, 0, 0, 0
NKF3, 19224038, 0, 0, 0, 0, -0.01, 0, 0, 0, 0, 0, 0
NKF4, 19224038, 0, 0, 0, 0, 0, 1.259316E-06, 0, 0, 0, 19, 229, 0, 0
NKF5, 19224038, 0, 0, 0, 0, 0.2, 0.13, 0, 0.19, 0.5, 3.267383E-05, 0.0003761964, 0.0006283159
NKQ1, 19224038, 0.9999286, 0.002446895, 0.01169988, 0.0002949962
AHR2, 19224085, 0.8, 0.53, 0.03, 0.22, 0, 0, 0.9999641, 0.007061319, 0.004683636, 0.0002544482
MOTB, 19224093, 1, 1, 0, 1
RCIN, 19224098, 0, 0, 0, 0, 0, 0, 0, 0, 0, 0, 0, 0, 0, 0
RCOU, 19224103, 1101, 1101, 1101, 1101, 0, 0, 0, 0, 0, 0, 0, 0, 0, 0
VIBE, 19224112, 0.01884634, 0.02131591, 0.03028063, 0, 0, 0
CTRL, 19224119, 0.008507396, 0.000184268, 0.005858184, 0.0001821177, 5.248261E-05
PRX, 19224151, 2, 0.63, 0, 0.61, 0, 3.6, 0, 2.46, 0, 0, 90, 0.61
IMU, 19240957, 0.0001270559, -0.0004639385, -0.0003859054, 0.2413039, -0.05211035, -9.786197, 0, 0, 37.25599, 1, 1, 1000, 1000
RFND, 19270889, 0.2, 25, 0, 0
IMU, 19280961, -0.002316474, -6.062675E-05, -0.001075685, 0.2284515, -0.06086615, -9.818718, 0, 0, 37.25604, 1, 1, 1000, 1000
MAG, 19320882, 411, 499, 271, 0, 0, 0, 0, 0, 0, 1, 19320874
RFND, 19320913, 0.2, 25, 0, 0
BARO, 19320951, 0.1808461, 992.8492, 35.48, 0.6448312, 19320, 0, 35
CTUN, 19320964, 0, 0, 0, 0.2301447, 0.0669736, 0.0669736, 0.18, 0, 0.19, 0, 0, 0
IMU, 19321135, -0.0003972543, -0.0007500812, -0.0005855297, 0.2313048, -0.0612296, -9.789197, 0, 0, 37.25608, 1, 1, 1000, 1000
ATT, 19323726, 0, 0.79, 0, 0.55, 0.02, 0.03, 0, 1
RATE, 19323738, -3.591419, -0.01004807, -0.008503687, -2.478713, -0.05384403, -0.005417068, 0.01775214, -0.03368832, 0.0001293471, 1.983244, -0.9387016, 0
NKF1, 19323745, 0.79, 0.55, 0.03, 0.001076604, -0.01600141, 4.896898E-05, 0, 0, 0, -0.06696316, -0.01, 0, 0
NKF2, 19323745, 0, 0, 0, 0, 0, 0, 0, 0, 0, 0, 0, 0, 0
NKF3, 19323745, 0, 0, 0, 0, -0.01, 0, 0, 0, 0, 0, 0
NKF4, 19323745, 0, 0, 0, 0, 0, 1.462996E-06, 0, 0, 0, 19, 229, 0, 0
NKF5, 19323745, 0, 0, 0, 0, 0.2, 0.13, 0, 0.19, 0.5, 3.111073E-05, 0.0003371901, 0.000557104
NKQ1, 19323745, 0.9999288, 0.002416724, 0.01168875, 0.0002662967
AHR2, 19323788, 0.8, 0.53, 0.02, 0.18, 0, 0, 0.9999644, 0.007029182, 0.004675414, 0.000226018
MOTB, 19323795, 1, 1, 0, 1
RCIN, 19323800, 0, 0, 0, 0, 0, 0, 0, 0, 0, 0, 0, 0, 0, 0
RCOU, 19323805, 1101, 1101, 1101, 1101, 0, 0, 0, 0, 0, 0, 0, 0, 0, 0
VIBE, 19323814, 0.01976864, 0.01865112, 0.03386059, 0, 0, 0
CTRL, 19323821, 0.00847658, 0.0001932417, 0.005848884, 0.000192165, 7.300265E-05
PRX, 19323852, 2, 0.62, 0, 0.61, 0, 0.67, 0, 2.44, 0, 0, 90, 0.61
IMU, 19360954, -0.001305194, 0.0004925081, -0.001132168, 0.2264837, -0.05512648, -9.784023, 0, 0, 37.2559, 1, 1, 1000, 1000
RFND, 19370876, 0.2, 25, 0, 0
IMU, 19400937, -0.000857594, -0.0004023862, 3.869929E-05, 0.2354133, -0.04413195, -9.80823, 0, 0, 37.25459, 1, 1, 1000, 1000
EV, 19413161, 57
MAG, 19420906, 413, 498, 271, 0, 0, 0, 0, 0, 0, 1, 19420897
RFND, 19420937, 0.2, 25, 0, 0
BARO, 19420975, 0.211929, 992.8459, 35.48, 0.6808218, 19420, 0, 35
CTUN, 19420987, 0, 0, 0, 0.2301447, 0.0669072, 0.0669072, 0.21, 0, 0.19, 0, 0, 0
ATT, 19423898, 0, 0.79, 0, 0.54, 0.02, 0.03, 0, 1
RATE, 19423908, -3.578691, -0.02113037, -0.008375637, -2.466703, -0.05519555, -0.00565578, 0.01711787, 0.009065279, 0.0001102204, -15.68407, 0.1503944, 0
NKF1, 19423915, 0.79, 0.54, 0.03, 0.00113148, -0.01652864, -0.0003872611, 0, 0, 0, -0.06690278, -0.01, 0, 0
NKF2, 19423915, 0, 0, 0, 0, 0, 0, 0, 0, 0, 0, 0, 0, 0
NKF3, 19423915, 0, 0, 0, 0, -0.01, 0, 0, 0, 0, 0, 0
NKF4, 19423915, 0, 0, 0, 0, 0, 1.681218E-06, 0, 0, 0, 19, 229, 0, 0
NKF5, 19423915, 0, 0, 0, 0, 0.2, 0.13, 0, 0.19, 0.5, 3.169259E-05, 0.0003597617, 0.0006201895
NKQ1, 19423915, 0.999929, 0.002392038, 0.01166693, 0.0002442576
AHR2, 19423955, 0.8, 0.53, 0.02, 0.21, 0, 0, 0.9999646, 0.007002055, 0.004657148, 0.0002042573
MOTB, 19423963, 1, 1, 0, 1
RCIN, 19423968, 0, 0, 0, 0, 0, 0, 0, 0, 0, 0, 0, 0, 0, 0
RCOU, 19423973, 1102, 1102, 1102, 1102, 0, 0, 0, 0, 0, 0, 0, 0, 0, 0
VIBE, 19423982, 0.01839264, 0.01748254, 0.03434356, 0, 0, 0
CTRL, 19423989, 0.008451877, 0.0001785405, 0.005819532, 0.000189809, 0.0001078846
PRX, 19424021, 2, 0.63, 0, 0.61, 0, 0.67, 0, 2.46, 0, 0, 90, 0.61
IMU, 19441501, -0.0004743725, 9.620826E-05, -0.0005714385, 0.2232872, -0.05609785, -9.79925, 0, 0, 37.25298, 1, 1, 1000, 1000
RFND, 19471019, 0.2, 25, 0, 0
IMU, 19480994, -5.790853E-05, 0.0006087486, -0.0001709242, 0.2244174, -0.04171044, -9.796066, 0, 0, 37.25195, 1, 1, 1000, 1000
MAG, 19520891, 416, 505, 267, 0, 0, 0, 0, 0, 0, 1, 19520883
RFND, 19520922, 0.2, 25, 0, 0
BARO, 19520961, 0.1667175, 992.851, 35.48, 0.332133, 19520, 0, 35
CTUN, 19520973, 0, 0, 0, 0.2301447, 0.06684903, 0.06684903, 0.16, 0, 0.19, 0, 0, 0
IMU, 19521113, -0.0006468248, 0.0002662949, -0.0004284962, 0.2324331, -0.05964512, -9.802231, 0, 0, 37.25022, 1, 1, 1000, 1000
ATT, 19525278, 0, 0.79, 0, 0.55, 0.01, 0.02, 0, 1
RATE, 19525286, -3.58323, -0.0008308351, -0.008554554, -2.480966, 0.04225653, -0.006193335, 0.01723267, 0.00244237, 0.0001340287, -5.356164, 0.5125046, 0
NKF1, 19525294, 0.79, 0.55, 0.02, 0.0008831197, -0.01695978, -0.000132251, 0, 0, 0, -0.06684275, -0.01, 0, 0
NKF2, 19525294, 0, 0, 0, 0, 0, 0, 0, 0, 0, 0, 0, 0, 0
NKF3, 19525294, 0, 0, 0, 0, -0.02, 0, 0, 0, 0, 0, 0
NKF4, 19525294, 0, 0, 0, 0, 0, 1.958211E-06, 0, 0, 0, 19, 229, 0, 0
NKF5, 19525294, 0, 0, 0, 0, 0.2, 0.13, 0, 0.19, 0.5, 2.966999E-05, 0.0003160429, 0.000535587
NKQ1, 19525294, 0.9999287, 0.002401358, 0.01169446, 0.0002224177
AHR2, 19525339, 0.8, 0.53, 0.02, 0.16, 0, 0, 0.9999644, 0.007008768, 0.004688724, 0.0001822453
MOTB, 19525346, 1, 1, 0, 1
RCIN, 19525351, 0, 0, 0, 0, 0, 0, 0, 0, 0, 0, 0, 0, 0, 0
RCOU, 19525356, 1126, 1126, 1126, 1126, 0, 0, 0, 0, 0, 0, 0, 0, 0, 0
VIBE, 19525364, 0.02001856, 0.01805262, 0.03370822, 0, 0, 0
CTRL, 19525369, 0.008451744, 0.0001835322, 0.005839865, 0.0001828445, 0.0001130546
PRX, 19525400, 2, 0.62, 0, 0.61, 0, 3.6, 0, 2.44, 0, 0, 90, 0.61
IMU, 19561812, 9.100999E-05, -0.0005482045, 0.0003814604, 0.2233301, -0.06166642, -9.806957, 0, 0, 37.24777, 1, 1, 1000, 1000
RFND, 19571638, 0.2, 25, 0, 0
IMU, 19601676, -7.501696E-05, -0.0009629996, 0.0006591754, 0.2215811, -0.05392148, -9.793712, 0, 0, 37.24553, 1, 1, 1000, 1000
MAG, 19621708, 419, 497, 275, 0, 0, 0, 0, 0, 0, 1, 19621700
RFND, 19621739, 0.2, 25, 0, 0
BARO, 19621778, 0.1667175, 992.851, 35.48, 0.02111356, 19621, 0, 35
CTUN, 19621791, 0, 0, 0, 0.2301447, 0.06679357, 0.06679357, 0.16, 0, 0.19, 0, 0, 0
ATT, 19624383, 0, 0.79, 0, 0.54, 0.01, 0.02, 0, 1
RATE, 19624394, -3.589437, 0.0140244, -0.008565917, -2.471977, 0.009514278, -0.005923229, 0.01719804, -0.01060453, 3.540659E-05, 10.07331, -0.2663612, 0
NKF1, 19624401, 0.79, 0.54, 0.02, 0.0006845093, -0.01801968, 0.0002487237, 0, 0, 0, -0.06678912, -0.01, 0, 0
NKF2, 19624401, 0, 0, 0, 0, 0, 0, 0, 0, 0, 0, 0, 0, 0
NKF3, 19624401, 0, 0, 0, 0, -0.02, 0, 0, 0, 0, 0, 0
NKF4, 19624401, 0, 0, 0, 0, 0, 2.213025E-06, 0, 0, 0, 19, 229, 0, 0
NKF5, 19624401, 0, 0, 0, 0, 0.2, 0.13, 0, 0.19, 0.5, 3.066409E-05, 0.0003362644, 0.0005911138
NKQ1, 19624401, 0.9999289, 0.002413328, 0.01167654, 0.0002300099
AHR2, 19624511, 0.8, 0.53, 0.02, 0.16, 0, 0, 0.9999645, 0.007019133, 0.004670332, 0.0001898883
MOTB, 19624519, 1, 1, 0, 1
RCIN, 19624524, 0, 0, 0, 0, 0, 0, 0, 0, 0, 0, 0, 0, 0, 0
RCOU, 19624530, 1150, 1150, 1150, 1150, 0, 0, 0, 0, 0, 0, 0, 0, 0, 0
VIBE, 19624538, 0.0193367, 0.01850029, 0.03117346, 0, 0, 0
CTRL, 19624546, 0.008471694, 0.0001712946, 0.005825662, 0.0001809902, 0.0001067059
PRX, 19624577, 2, 0.63, 0, 0.61, 0, 0.66, 0, 2.45, 0, 0, 90, 0.61
IMU, 19641731, 8.233165E-05, -0.0005424526, -0.0005029759, 0.226745, -0.05708134, -9.779929, 0, 0, 37.24328, 1, 1, 1000, 1000
RFND, 19671706, 0.2, 25, 0, 0
IMU, 19681723, -0.0008546558, 0.0005470553, -0.0008200919, 0.2352807, -0.05315724, -9.815531, 0, 0, 37.2408, 1, 1, 1000, 1000
MAG, 19721716, 417, 500, 268, 0, 0, 0, 0, 0, 0, 1, 19721707
RFND, 19721748, 0.2, 25, 0, 0
BARO, 19721787, 0.1525889, 992.8527, 35.48, -0.1040046, 19721, 0, 35
CTUN, 19721800, 0, 0, 0, 0.2301447, 0.06671503, 0.06671503, 0.15, 0, 0.19, 0, 0, 0
IMU, 19721877, 0.0007726708, 2.544584E-07, -0.001565532, 0.2339357, -0.05106382, -9.78434, 0, 0, 37.23871, 1, 1, 1000, 1000
ATT, 19724612, 0, 0.79, 0, 0.54, 0.01, 0.02, 0, 1
RATE, 19724624, -3.59429, 0.06290621, -0.008637765, -2.476153, 0.0176127, -0.005987874, 0.01724516, -0.1643782, 0.0001636711, 10.02909, -0.7653236, 0
NKF1, 19724631, 0.79, 0.54, 0.02, 0.001020873, -0.01858947, 0.0002476319, 0, 0, 0, -0.06670873, -0.01, 0, 0
NKF2, 19724631, 0, 0, 0, 0, 0, 0, 0, 0, 0, 0, 0, 0, 0
NKF3, 19724631, 0, 0, 0, 0, -0.02, 0, 0, 0, 0, 0, 0
NKF4, 19724631, 0, 0, 0, 0, 0, 2.580749E-06, 0, 0, 0, 19, 229, 0, 0
NKF5, 19724631, 0, 0, 0, 0, 0.2, 0.13, 0, 0.19, 0.5, 2.810597E-05, 0.0002927383, 0.0005138405
NKQ1, 19724631, 0.9999288, 0.002426763, 0.01168072, 0.000176147
AHR2, 19724675, 0.8, 0.53, 0.01, 0.15, 0, 0, 0.9999644, 0.00703102, 0.004671059, 0.0001359985
MOTB, 19724683, 1, 1, 0, 1
RCIN, 19724688, 0, 0, 0, 0, 0, 0, 0, 0, 0, 0, 0, 0, 0, 0
RCOU, 19724693, 1174, 1174, 1174, 1174, 0, 0, 0, 0, 0, 0, 0, 0, 0, 0
VIBE, 19724702, 0.02854628, 0.02569084, 0.03626837, 0, 0, 0
CTRL, 19724709, 0.008477578, 0.0001830265, 0.005827506, 0.0001563986, 0.0001078933
PRX, 19724742, 2, 0.63, 0, 0.61, 0, 0.66, 0, 2.44, 0, 0, 90, 0.61
IMU, 19762306, -5.393299E-05, -0.0006855582, 0.0002180109, 0.2450154, -0.05711038, -9.791417, 0, 0, 37.23708, 1, 1, 1000, 1000
RFND, 19772384, 0.2, 25, 0, 0
IMU, 19801732, -0.001481168, 0.0002471796, 0.002172233, 0.2178749, -0.09066925, -9.816452, 0, 0, 37.23666, 1, 1, 1000, 1000
MAG, 19821633, 416, 501, 269, 0, 0, 0, 0, 0, 0, 1, 19821625
RFND, 19821665, 0.2, 25, 0, 0
BARO, 19821705, 0.05651439, 992.8631, 35.49, -0.1593006, 19821, 0, 35
CTUN, 19821781, 0, 0, 0, 0.2301447, 0.06662211, 0.06662211, 0.05, 0, 0.19, 0, 0, 0
ATT, 19824797, 0, 0.79, 0, 0.55, 0.02, 0.03, 0, 1
RATE, 19824808, -3.594003, -0.05928329, -0.00809809, -2.474971, -0.01073585, -0.005787403, 0.01725711, 0.2759554, -1.610457E-05, 31.15261, 0.1732826, 0
NKF1, 19824816, 0.79, 0.55, 0.03, 0.001178536, -0.01928429, 0.0007692002, 0, 0, 0, -0.06661237, -0.01, 0, 0
NKF2, 19824816, 0, 0, 0, 0, 0, 0, 0, 0, 0, 0, 0, 0, 0
NKF3, 19824816, 0, 0, 0, 0, -0.02, 0, 0, 0, 0, 0, 0
NKF4, 19824816, 0, 0, 0, 0, 0, 2.869282E-06, 0, 0, 0, 19, 229, 0, 0
NKF5, 19824816, 0, 0, 0, 0, 0.2, 0.13, 0, 0.19, 0.5, 2.535456E-05, 0.0002621079, 0.0004882454
NKQ1, 19824816, 0.9999288, 0.002416138, 0.01169054, 0.0003201875
AHR2, 19824861, 0.8, 0.53, 0.03, 0.05, 0, 0, 0.9999644, 0.00702264, 0.00468104, 0.000280133
MOTB, 19824869, 1, 1, 0, 1
RCIN, 19824873, 0, 0, 0, 0, 0, 0, 0, 0, 0, 0, 0, 0, 0, 0
RCOU, 19824879, 1198, 1198, 1198, 1198, 0, 0, 0, 0, 0, 0, 0, 0, 0, 0
VIBE, 19824888, 0.1343785, 0.1624044, 0.1371656, 0, 0, 0
CTRL, 19824895, 0.00846837, 0.0002473919, 0.005840728, 0.0001633642, 0.0001234378
PRX, 19824927, 2, 0.63, 0, 0.61, 0, 3.6, 0, 2.46, 0, 0, 90, 0.61
IMU, 19841694, -0.0001166584, -0.000230276, 0.005109435, 0.2362624, -0.04595152, -9.789824, 0, 0, 37.23677, 1, 1, 1000, 1000
RFND, 19871636, 0.2, 25, 0, 0
IMU, 19881691, -0.002027608, 0.0001134079, 0.00994725, 0.2440018, -0.1063787, -9.791692, 0, 0, 37.23647, 1, 1, 1000, 1000
MAG, 19921692, 409, 500, 266, 0, 0, 0, 0, 0, 0, 1, 19921684
RFND, 19921723, 0.2, 25, 0, 0
BARO, 19921817, 0.06781727, 992.8618, 35.49, -0.2510126, 19921, 0, 35
CTUN, 19921833, 0, 0, 0, 0.2301447, 0.06652456, 0.06652456, 0.06, 0, 0.19, 0, 0, 0
DU32, 19921874, 7, 33611992
IMU, 19921971, -0.001106223, 0.002366516, -0.004475625, 0.2339547, -0.06577505, -9.7742, 0, 0, 37.23611, 1, 1, 1000, 1000
ATT, 19924386, 0, 0.79, 0, 0.55, 0.02, 0.03, 0, 1
RATE, 19924394, -3.581385, 0.101148, -0.009745293, -2.488415, 0.1555787, -0.006937663, 0.01727353, 0.009093462, 0.0001405434, 66.12376, -1.174164, 0
NKF1, 19924402, 0.79, 0.55, 0.03, 0.001789796, -0.01886722, 0.001632685, 0, 0, 0, -0.066515, -0.01, 0, 0
NKF2, 19924402, 0, 0, 0, 0, 0, 0, 0, 0, 0, 0, 0, 0, 0
NKF3, 19924402, 0, 0, 0, 0, -0.02, 0, 0, 0, 0, 0, 0
NKF4, 19924402, 0, 0, 0, 0, 0, 3.331515E-06, 0, 0, 0, 19, 229, 0, 0
NKF5, 19924402, 0, 0, 0, 0, 0.2, 0.13, 0, 0.19, 0.5, 2.663389E-05, 0.0002718635, 0.000496309
NKQ1, 19924402, 0.9999285, 0.002396775, 0.01170883, 0.0002561009
AHR2, 19924518, 0.8, 0.53, 0.02, 0.06, 0, 0, 0.9999644, 0.007005251, 0.004700215, 0.0002161762
MOTB, 19924833, 1, 1, 0, 1
RCIN, 19924845, 0, 0, 0, 0, 0, 0, 0, 0, 0, 0, 0, 0, 0, 0
RCOU, 19924851, 1238, 1233, 1221, 1249, 0, 0, 0, 0, 0, 0, 0, 0, 0, 0
VIBE, 19924860, 0.2877673, 0.3117735, 0.4105162, 0, 0, 0
CTRL, 19924866, 0.008442408, 0.0003602433, 0.005832104, 0.0003132338, 0.0001670825
PRX, 19924900, 2, 0.63, 0, 0.61, 0, 0.69, 0, 2.49, 0, 0, 90, 0.61
IMU, 19961814, -0.004481826, -0.002072127, -0.005682861, 0.2746166, -0.05827916, -9.819819, 0, 0, 37.23617, 1, 1, 1000, 1000
RFND, 19971804, 0.2, 25, 0, 0
IMU, 20001772, 0.001941614, 0.000871285, -0.004901716, 0.2321801, -0.05061501, -9.779028, 0, 0, 37.23616, 1, 1, 1000, 1000
MAG, 20021883, 412, 499, 271, 0, 0, 0, 0, 0, 0, 1, 20021874
RFND, 20021915, 0.2, 25, 0, 0
BARO, 20021955, 0.1017259, 992.8582, 35.49, -0.3298904, 20021, 0, 35
CTUN, 20021969, 0, 0, 0, 0.2301447, 0.06643079, 0.06643079, 0.1, 0, 0.19, 0, 0, 0
ATT, 20024934, 0, 0.79, 0, 0.55, 0.02, 0.03, 0, 1
RATE, 20024943, -3.576835, 0.07769781, -0.008500609, -2.502885, 0.08092616, -0.007116191, 0.01735109, -0.03451875, 0.0003299113, -10.13844, -1.707268, 0
NKF1, 20024951, 0.79, 0.55, 0.03, 0.0004827673, -0.01935296, -0.000250332, 0, 0, 0, -0.06642516, -0.01, 0, 0
NKF2, 20024951, 0, 0, 0, 0, 0, 0, 0, 0, 0, 0, 0, 0, 0
NKF3, 20024951, 0, 0, 0, 0, -0.02, 0, 0, 0, 0, 0, 0
NKF4, 20024951, 0, 0, 0, 0, 0, 3.72987E-06, 0, 0, 0, 19, 229, 0, 0
NKF5, 20024951, 0, 0, 0, 0, 0.2, 0.13, 0, 0.19, 0.5, 2.287405E-05, 0.0002648241, 0.000543225
NKQ1, 20024951, 0.9999283, 0.002388929, 0.01173588, 0.0002618032
AHR2, 20024994, 0.8, 0.54, 0.02, 0.09999999, 0, 0, 0.9999643, 0.006994726, 0.004739857, 0.0002217838
MOTB, 20025001, 1, 1, 0, 1
RCIN, 20025005, 0, 0, 0, 0, 0, 0, 0, 0, 0, 0, 0, 0, 0, 0
RCOU, 20025011, 1236, 1234, 1221, 1247, 0, 0, 0, 0, 0, 0, 0, 0, 0, 0
VIBE, 20025019, 0.4178187, 0.5266663, 0.7102891, 0, 0, 0
CTRL, 20025024, 0.008434301, 0.0004242992, 0.005856684, 0.0004593897, 0.0001653513
PRX, 20025054, 2, 0.63, 0, 0.61, 0, 0.69, 0, 2.44, 0, 0, 90, 0.61
IMU, 20041694, -0.0001566293, 0.0036342, 0.02033954, 0.218918, -0.0549106, -9.804698, 0, 0, 37.23619, 1, 1, 1000, 1000
RFND, 20071626, 0.2, 25, 0, 0
IMU, 20082441, 0.001142292, 0.005430553, 0.009523897, 0.09073895, -0.03236763, -9.734104, 0, 0, 37.23619, 1, 1, 1000, 1000
MAG, 20121764, 413, 499, 265, 0, 0, 0, 0, 0, 0, 1, 20121756
RFND, 20121795, 0.2, 25, 0, 0
BARO, 20121883, 0.1186802, 992.8563, 35.49, -0.2286817, 20121, 0, 35
CTUN, 20121898, 0, 0, 0, 0.2301447, 0.06637804, 0.06637804, 0.11, 0, 0.19, 0, 0, 0
IMU, 20121974, -0.001976341, 0.0012698, -0.01102066, 0.3153692, -0.01977106, -9.849534, 0, 0, 37.23614, 1, 1, 1000, 1000
ATT, 20124539, 0, 0.78, 0, 0.56, 0.01, 0.02, 0, 1
RATE, 20124550, -3.543994, -0.06963576, -0.008940196, -2.558525, 0.2513261, -0.008035196, 0.01753832, -0.8107657, -0.0004902761, 7.637483, 4.400921, 0
NKF1, 20124558, 0.78, 0.56, 0.02, 0.002192438, -0.01971641, 0.0001885798, 0, 0, 0, -0.06637885, -0.01, 0, 0
NKF2, 20124558, 0, 0, 0, 0, 0, 0, 0, 0, 0, 0, 0, 0, 0
NKF3, 20124558, 0, 0, 0, 0, -0.02, 0, 0, 0, 0, 0, 0
NKF4, 20124558, 0, 0, 0, 0, 0, 4.241772E-06, 0, 0, 0, 19, 229, 0, 0
NKF5, 20124558, 0, 0, 0, 0, 0.2, 0.13, 0, 0.19, 0.5, 2.466092E-05, 0.0002563147, 0.0004829007
NKQ1, 20124558, 0.9999274, 0.002340422, 0.01182281, 0.0002190263
AHR2, 20124601, 0.79, 0.55, 0.02, 0.11, 0, 0, 0.9999642, 0.006939527, 0.004845833, 0.0001788716
MOTB, 20124608, 1, 1, 0, 1
RCIN, 20124613, 0, 0, 0, 0, 0, 0, 0, 0, 0, 0, 0, 0, 0, 0
RCOU, 20124618, 1235, 1234, 1221, 1249, 0, 0, 0, 0, 0, 0, 0, 0, 0, 0
VIBE, 20124627, 0.4174594, 0.3640037, 0.6379794, 0, 0, 0
CTRL, 20124634, 0.008392561, 0.000498555, 0.005947005, 0.0006940562, 0.0004825278
PRX, 20124666, 2, 0.62, 0, 0.61, 0, 0.67, 0, 2.44, 0, 0, 90, 0.61
IMU, 20162474, -0.002265131, -0.009266879, -0.01903571, 0.2225455, -0.1091605, -9.812593, 0, 0, 37.23714, 1, 1, 1000, 1000
RFND, 20171763, 0.2, 25, 0, 0
IMU, 20201754, -0.001125857, 0.004757587, 0.002703672, 0.2620875, -0.06594619, -9.823537, 0, 0, 37.23888, 1, 1, 1000, 1000
MAG, 20221661, 413, 496, 272, 0, 0, 0, 0, 0, 0, 1, 20221653
RFND, 20221697, 0.2, 25, 0, 0
BARO, 20221734, 0.1949746, 992.8479, 35.49, 0.03708758, 20221, 0, 35
CTUN, 20221747, 0, 0, 0, 0.2301447, 0.06646304, 0.06646304, 0.19, 0, 0.19, 0, 0, 0
ATT, 20224598, 0, 0.79, 0, 0.56, 359.98, 0, 0, 1
RATE, 20224609, -3.56431, 0.1859446, -0.01023921, -2.575222, -0.02678854, -0.005864851, 0.01774376, -1.105429, 0.0008345569, 1.220808, -2.997684, 0
NKF1, 20224617, 0.79, 0.56, 359.99, 0.001835201, -0.02105042, 3.01434E-05, 0, 0, 0, -0.06646144, -0.01, 0, 0
NKF2, 20224617, 0, 0, 0, 0, 0, 0, 0, 0, 0, 0, 0, 0, 0
NKF3, 20224617, 0, 0, 0, 0, -0.03, 0, 0, 0, 0, 0, 0
NKF4, 20224617, 0, 0, 0, 0, 0, 4.751565E-06, 0, 0, 0, 19, 229, 0, 0
NKF5, 20224617, 0, 0, 0, 0, 0.2, 0.13, 0, 0.19, 0.5, 2.016023E-05, 0.0002798537, 0.0006490251
NKQ1, 20224617, 0.999927, 0.002389565, 0.01184696, -5.938211E-05
AHR2, 20224660, 0.79, 0.55, 359.99, 0.19, 0, 0, 0.9999638, 0.006976906, 0.004869554, -9.993154E-05
MOTB, 20224667, 1, 1, 0, 1
RCIN, 20224672, 0, 0, 0, 0, 0, 0, 0, 0, 0, 0, 0, 0, 0, 0
RCOU, 20224677, 1240, 1232, 1221, 1248, 0, 0, 0, 0, 0, 0, 0, 0, 0, 0
VIBE, 20224686, 0.4368082, 0.3905222, 0.686429, 0, 0, 0
CTRL, 20224693, 0.00842781, 0.0007401722, 0.006031435, 0.0009955901, 0.0004906149
PRX, 20224724, 2, 0.63, 0, 0.61, 0, 0.67, 0, 2.44, 0, 0, 90, 0.61
IMU, 20241768, -4.619593E-06, 0.003641518, 0.0102272, 0.2619035, -0.005184529, -9.751121, 0, 0, 37.2399, 1, 1, 1000, 1000
RFND, 20271797, 0.2, 25, 0, 0
IMU, 20281767, 0.004534802, 0.002840201, 0.01560307, 0.2065531, -0.0905711, -9.783175, 0, 0, 37.24088, 1, 1, 1000, 1000
MAG, 20321778, 413, 501, 275, 0, 0, 0, 0, 0, 0, 1, 20321770
RFND, 20321810, 0.2, 25, 0, 0
BARO, 20321849, 0.03390864, 992.8655, 35.49, 0.2154611, 20321, 0, 35
CTUN, 20321862, 0, 0, 0, 0.2301447, 0.06650981, 0.06650981, 0.03, 0, 0.19, 0, 0, 0
IMU, 20321940, -0.0009899377, 0.002955052, 0.02206311, 0.1745055, -0.08448201, -9.759783, 0, 0, 37.24207, 1, 1, 1000, 1000
ATT, 20324567, 0, 0.79, 0, 0.57, 0.01, 0.02, 0, 1
RATE, 20324580, -3.588941, 0.06454627, -0.01011696, -2.568744, 0.1729, -0.007286333, 0.01793075, 1.292983, -0.0002383278, -63.06263, -0.1895905, 0
NKF1, 20324588, 0.79, 0.57, 0.02, 0.001521304, -0.019937, -0.001557102, 0, 0, 0, -0.06651147, -0.01, 0, 0
NKF2, 20324588, 0, 0, 0, 0, 0, 0, 0, 0, 0, 0, 0, 0, 0
NKF3, 20324588, 0, 0, 0, 0, -0.03, 0, 0, 0, 0, 0, 0
NKF4, 20324588, 0, 0, 0, 0, 0, 5.298182E-06, 0, 0, 0, 19, 229, 0, 0
NKF5, 20324588, 0, 0, 0, 0, 0.2, 0.13, 0, 0.19, 0.5, 2.243821E-05, 0.0002475968, 0.0005133827
NKQ1, 20324588, 0.9999264, 0.002387159, 0.0118992, 0.0002196672
AHR2, 20324633, 0.79, 0.56, 0.02, 0.03, 0, 0, 0.9999637, 0.006964265, 0.004912519, 0.0001790046
MOTB, 20324640, 1, 1, 0, 1
RCIN, 20324645, 0, 0, 0, 0, 0, 0, 0, 0, 0, 0, 0, 0, 0, 0
RCOU, 20324651, 1238, 1233, 1221, 1250, 0, 0, 0, 0, 0, 0, 0, 0, 0, 0
VIBE, 20324660, 0.4292558, 0.376396, 0.8576796, 0, 0, 0
CTRL, 20324667, 0.008416981, 0.0009913562, 0.006075841, 0.0009346536, 0.000480752
PRX, 20324699, 2, 0.63, 0, 0.61, 0, 3.6, 0, 2.45, 0, 0, 90, 0.61
IMU, 20361707, 0.00466967, -0.003976487, 0.006181542, 0.1125044, -0.05395047, -9.764919, 0, 0, 37.24406, 1, 1, 1000, 1000
RFND, 20371890, 0.2, 25, 0, 0
IMU, 20401754, -0.00643708, 0.002083855, -0.007751463, 0.1795385, -0.04115739, -9.768631, 0, 0, 37.24601, 1, 1, 1000, 1000
MAG, 20421616, 414, 497, 271, 0, 0, 0, 0, 0, 0, 1, 20421607
RFND, 20421646, 0.2, 25, 0, 0
BARO, 20421685, 0.03390864, 992.8655, 35.49, 0.09625106, 20421, 0, 35
CTUN, 20421761, 0, 0, 0, 0.2301447, 0.06658521, 0.06658521, 0.03, 0, 0.19, 0, 0, 0
ATT, 20424407, 0, 0.8, 0, 0.55, 0, 0.01, 0, 1
RATE, 20424418, -3.62449, 0.6295938, -0.01106621, -2.519812, -0.3322212, -0.00293259, 0.01769658, -0.07953234, -8.770226E-05, -14.61154, 0.06542206, 0
NKF1, 20424520, 0.8, 0.55, 0.01, 0.001274495, -0.01990452, -0.0003607787, 0, 0, 0, -0.06658606, -0.01, 0, 0
NKF2, 20424520, 0, 0, 0, 0, 0, 0, 0, 0, 0, 0, 0, 0, 0
NKF3, 20424520, 0, 0, 0, 0, -0.03, 0, 0, 0, 0, 0, 0
NKF4, 20424520, 0, 0, 0, 0, 0, 5.959535E-06, 0, 0, 0, 19, 229, 0, 0
NKF5, 20424520, 0, 0, 0, 0, 0.2, 0.13, 0, 0.19, 0.5, 1.720721E-05, 0.0002881848, 0.0007170707
NKQ1, 20424520, 0.9999277, 0.002483655, 0.01176677, 0.0001017689
AHR2, 20424568, 0.8, 0.54, 0.01, 0.03, 0, 0, 0.9999638, 0.007041377, 0.004774972, 6.111305E-05
MOTB, 20424687, 1, 1, 0, 1
RCIN, 20424693, 0, 0, 0, 0, 0, 0, 0, 0, 0, 0, 0, 0, 0, 0
RCOU, 20424699, 1240, 1226, 1221, 1244, 0, 0, 0, 0, 0, 0, 0, 0, 0, 0
VIBE, 20424708, 0.3816029, 0.3489236, 0.7492828, 0, 0, 0
CTRL, 20424715, 0.008538913, 0.001482622, 0.006028482, 0.0009037504, 0.0004172919
PRX, 20424748, 2, 0.62, 0, 0.61, 0, 3.6, 0, 2.42, 0, 0, 90, 0.61
IMU, 20441700, -0.009718596, -0.008423486, -0.003983187, 0.1659792, -0.1050239, -9.757524, 0, 0, 37.24774, 1, 1, 1000, 1000
RFND, 20471558, 0.2, 25, 0, 0
IMU, 20481835, 0.01242832, -0.01700756, -0.005644396, -0.0127101, -0.1346955, -9.696386, 0, 0, 37.24965, 1, 1, 1000, 1000
MAG, 20521653, 417, 497, 275, 0, 0, 0, 0, 0, 0, 1, 20521644
RFND, 20521685, 0.2, 25, 0, 0
BARO, 20521723, 0, 992.8692, 35.5, -0.2384201, 20521, 0, 35
CTUN, 20521737, 0, 0, 0, 0.2301447, 0.0666161, 0.0666161, 0, 0, 0.19, 0, 0, 0
IMU, 20521812, 0.003320492, 0.003521204, -0.00185055, 0.01065163, -0.04731577, -9.718355, 0, 0, 37.25137, 1, 1, 1000, 1000
ATT, 20525068, 0, 0.8, 0, 0.55, 0, 0.01, 0, 1
RATE, 20525077, -3.603021, 0.4047807, -0.01402585, -2.514408, 0.08191026, -0.004545724, 0.0175667, 0.128307, 0.0003123554, 58.78049, -11.7487, 0
NKF1, 20525085, 0.8, 0.55, 0.01, -0.0006639482, -0.02266613, 0.00145137, 0, 0, 0, -0.06661103, -0.01, 0, 0
NKF2, 20525085, 0, 0, 0, 0, 0, 0, 0, 0, 0, 0, 0, 0, 0
NKF3, 20525085, 0, 0, 0, 0, -0.03, 0, 0, 0, 0, 0, 0
NKF4, 20525085, 0, 0, 0, 0, 0, 6.511469E-06, 0, 0, 0, 19, 229, 0, 0
NKF5, 20525085, 0, 0, 0, 0, 0.2, 0.13, 0, 0.19, 0.5, 1.157943E-05, 0.0004300146, 0.001119883
NKQ1, 20525085, 0.9999279, 0.002438584, 0.01176221, 9.528064E-05
AHR2, 20525127, 0.79, 0.54, 0.01, 0, 0, 0, 0.9999643, 0.006973952, 0.004769926, 5.495846E-05
MOTB, 20525135, 1, 1, 0, 1
RCIN, 20525139, 0, 0, 0, 0, 0, 0, 0, 0, 0, 0, 0, 0, 0, 0
RCOU, 20525145, 1245, 1229, 1221, 1252, 0, 0, 0, 0, 0, 0, 0, 0, 0, 0
VIBE, 20525153, 0.4272799, 0.3557304, 0.7205713, 0, 0, 0
CTRL, 20525159, 0.00845774, 0.001978761, 0.006026612, 0.001903259, 0.0003812538
PRX, 20525188, 2, 0.62, 0, 0.61, 0, 3.6, 0, 2.45, 0, 0, 90, 0.61
IMU, 20562107, -0.004760299, -0.003939381, -0.001679045, 0.1803041, -0.05934367, -9.753824, 0, 0, 37.25156, 1, 1, 1000, 1000
RFND, 20571945, 0.2, 25, 0, 0
