FMT, 128, 89, FMT, BBnNZ, Type,Length,Name,Format,Columns
FMT, 129, 31, PARM, QNf, TimeUS,Name,Value
FMT, 130, 46, GPS, QBIHBcLLefffB, TimeUS,Status,GMS,GWk,NSats,HDop,Lat,Lng,Alt,Spd,GCrs,VZ,U
FMT, 131, 46, GPS2, QBIHBcLLefffB, TimeUS,Status,GMS,GWk,NSats,HDop,Lat,Lng,Alt,Spd,GCrs,VZ,U
FMT, 132, 46, GPSB, QBIHBcLLefffB, TimeUS,Status,GMS,GWk,NSats,HDop,Lat,Lng,Alt,Spd,GCrs,VZ,U
FMT, 193, 24, GPA, QCCCCBI, TimeUS,VDop,HAcc,VAcc,SAcc,VV,SMS
FMT, 194, 24, GPA2, QCCCCBI, TimeUS,VDop,HAcc,VAcc,SAcc,VV,SMS
FMT, 195, 24, GPAB, QCCCCBI, TimeUS,VDop,HAcc,VAcc,SAcc,VV,SMS
FMT, 133, 53, IMU, QffffffIIfBBHH, TimeUS,GyrX,GyrY,GyrZ,AccX,AccY,AccZ,EG,EA,T,GH,AH,GHz,AHz
FMT, 134, 75, MSG, QZ, TimeUS,Message
FMT, 135, 39, RCIN, QHHHHHHHHHHHHHH, TimeUS,C1,C2,C3,C4,C5,C6,C7,C8,C9,C10,C11,C12,C13,C14
FMT, 136, 39, RCOU, QHHHHHHHHHHHHHH, TimeUS,C1,C2,C3,C4,C5,C6,C7,C8,C9,C10,C11,C12,C13,C14
FMT, 137, 15, RSSI, Qf, TimeUS,RXRSSI
FMT, 139, 37, BARO, QffcfIff, TimeUS,Alt,Press,Temp,CRt,SMS,Offset,GndTemp
FMT, 140, 22, POWR, QffHB, TimeUS,Vcc,VServo,Flags,Safety
FMT, 143, 45, CMD, QHHHfffffff, TimeUS,CTot,CNum,CId,Prm1,Prm2,Prm3,Prm4,Lat,Lng,Alt
FMT, 144, 20, RAD, QBBBBBHH, TimeUS,RSSI,RemRSSI,TxBuf,Noise,RemNoise,RxErrors,Fixed
FMT, 146, 43, CAM, QIHLLeeeccC, TimeUS,GPSTime,GPSWeek,Lat,Lng,Alt,RelAlt,GPSAlt,Roll,Pitch,Yaw
FMT, 232, 43, TRIG, QIHLLeeeccC, TimeUS,GPSTime,GPSWeek,Lat,Lng,Alt,RelAlt,GPSAlt,Roll,Pitch,Yaw
FMT, 162, 30, ARSP, QffcffB, TimeUS,Airspeed,DiffPress,Temp,RawPress,Offset,U
FMT, 164, 45, CURR, QfffcHHHHHHHHHH, TimeUS,Volt,Curr,CurrTot,Temp,V1,V2,V3,V4,V5,V6,V7,V8,V9,V10
FMT, 165, 45, CUR2, QfffcHHHHHHHHHH, TimeUS,Volt,Curr,CurrTot,Temp,V1,V2,V3,V4,V5,V6,V7,V8,V9,V10
FMT, 163, 27, ATT, QccccCCCC, TimeUS,DesRoll,Roll,DesPitch,Pitch,DesYaw,Yaw,ErrRP,ErrYaw
FMT, 166, 34, MAG, QhhhhhhhhhBI, TimeUS,MagX,MagY,MagZ,OfsX,OfsY,OfsZ,MOfsX,MOfsY,MOfsZ,Health,S
FMT, 169, 14, MODE, QMBB, TimeUS,Mode,ModeNum,Rsn
FMT, 196, 17, RFND, QCBCB, TimeUS,Dist1,Orient1,Dist2,Orient2
FMT, 223, 33, DMS, IIIIIBBBBBBBBBB, TimeMS,N,Dp,RT,RS,Er,Fa,Fmn,Fmx,Pa,Pmn,Pmx,Sa,Smn,Smx
FMT, 240, 41, BCN, QBBfffffff, TimeUS,Health,Cnt,D0,D1,D2,D3,PosX,PosY,PosZ
FMT, 138, 53, IMU2, QffffffIIfBBHH, TimeUS,GyrX,GyrY,GyrZ,AccX,AccY,AccZ,EG,EA,T,GH,AH,GHz,AHz
FMT, 147, 53, IMU3, QffffffIIfBBHH, TimeUS,GyrX,GyrY,GyrZ,AccX,AccY,AccZ,EG,EA,T,GH,AH,GHz,AHz
FMT, 141, 45, AHR2, QccCfLLffff, TimeUS,Roll,Pitch,Yaw,Alt,Lat,Lng,Q1,Q2,Q3,Q4
FMT, 180, 31, POS, QLLfff, TimeUS,Lat,Lng,Alt,RelHomeAlt,RelOriginAlt
FMT, 142, 45, SIM, QccCfLLffff, TimeUS,Roll,Pitch,Yaw,Alt,Lat,Lng,Q1,Q2,Q3,Q4
FMT, 198, 51, NKF1, QccCfffffffccc, TimeUS,Roll,Pitch,Yaw,VN,VE,VD,dPD,PN,PE,PD,GX,GY,GZ
FMT, 199, 35, NKF2, QbccccchhhhhhB, TimeUS,AZbias,GSX,GSY,GSZ,VWN,VWE,MN,ME,MD,MX,MY,MZ,MI
FMT, 200, 33, NKF3, Qcccccchhhcc, TimeUS,IVN,IVE,IVD,IPN,IPE,IPD,IMX,IMY,IMZ,IYAW,IVT
FMT, 201, 35, NKF4, QcccccfbbHBHHb, TimeUS,SV,SP,SH,SM,SVT,errRP,OFN,OFE,FS,TS,SS,GPS,PI
FMT, 202, 40, NKF5, QBhhhcccCCfff, TimeUS,NI,FIX,FIY,AFI,HAGL,offset,RI,rng,Herr,eAng,eVel,ePos
FMT, 203, 51, NKF6, QccCfffffffccc, TimeUS,Roll,Pitch,Yaw,VN,VE,VD,dPD,PN,PE,PD,GX,GY,GZ
FMT, 204, 35, NKF7, QbccccchhhhhhB, TimeUS,AZbias,GSX,GSY,GSZ,VWN,VWE,MN,ME,MD,MX,MY,MZ,MI
FMT, 205, 33, NKF8, Qcccccchhhcc, TimeUS,IVN,IVE,IVD,IPN,IPE,IPD,IMX,IMY,IMZ,IYAW,IVT
FMT, 206, 35, NKF9, QcccccfbbHBHHb, TimeUS,SV,SP,SH,SM,SVT,errRP,OFN,OFE,FS,TS,SS,GPS,PI
FMT, 207, 36, NKF0, QBccCCcccccccc, TimeUS,ID,rng,innov,SIV,TR,BPN,BPE,BPD,OFH,OFL,OFN,OFE,OFD
FMT, 208, 27, NKQ1, Qffff, TimeUS,Q1,Q2,Q3,Q4
FMT, 209, 27, NKQ2, Qffff, TimeUS,Q1,Q2,Q3,Q4
FMT, 210, 51, XKF1, QccCfffffffccc, TimeUS,Roll,Pitch,Yaw,VN,VE,VD,dPD,PN,PE,PD,GX,GY,GZ
FMT, 211, 34, XKF2, QccccchhhhhhB, TimeUS,AX,AY,AZ,VWN,VWE,MN,ME,MD,MX,MY,MZ,MI
FMT, 212, 33, XKF3, Qcccccchhhcc, TimeUS,IVN,IVE,IVD,IPN,IPE,IPD,IMX,IMY,IMZ,IYAW,IVT
FMT, 213, 35, XKF4, QcccccfbbHBHHb, TimeUS,SV,SP,SH,SM,SVT,errRP,OFN,OFE,FS,TS,SS,GPS,PI
FMT, 214, 40, XKF5, QBhhhcccCCfff, TimeUS,NI,FIX,FIY,AFI,HAGL,offset,RI,rng,Herr,eAng,eVel,ePos
FMT, 215, 51, XKF6, QccCfffffffccc, TimeUS,Roll,Pitch,Yaw,VN,VE,VD,dPD,PN,PE,PD,GX,GY,GZ
FMT, 216, 34, XKF7, QccccchhhhhhB, TimeUS,AX,AY,AZ,VWN,VWE,MN,ME,MD,MX,MY,MZ,MI
FMT, 217, 33, XKF8, Qcccccchhhcc, TimeUS,IVN,IVE,IVD,IPN,IPE,IPD,IMX,IMY,IMZ,IYAW,IVT
FMT, 218, 35, XKF9, QcccccfbbHBHHb, TimeUS,SV,SP,SH,SM,SVT,errRP,OFN,OFE,FS,TS,SS,GPS,PI
FMT, 219, 36, XKF0, QBccCCcccccccc, TimeUS,ID,rng,innov,SIV,TR,BPN,BPE,BPD,OFH,OFL,OFN,OFE,OFD
FMT, 220, 27, XKQ1, Qffff, TimeUS,Q1,Q2,Q3,Q4
FMT, 221, 27, XKQ2, Qffff, TimeUS,Q1,Q2,Q3,Q4
FMT, 222, 35, XKFD, Qffffff, TimeUS,IX,IY,IZ,IVX,IVY,IVZ
FMT, 148, 34, TERR, QBLLHffHH, TimeUS,Status,Lat,Lng,Spacing,TerrH,CHeight,Pending,Loaded
FMT, 149, 18, UBX1, QBHBBH, TimeUS,Instance,noisePerMS,jamInd,aPower,agcCnt
FMT, 150, 16, UBX2, QBbBbB, TimeUS,Instance,ofsI,magI,ofsQ,magQ
FMT, 151, 18, UBY1, QBHBBH, TimeUS,Instance,noisePerMS,jamInd,aPower,agcCnt
FMT, 152, 16, UBY2, QBbBbB, TimeUS,Instance,ofsI,magI,ofsQ,magQ
FMT, 170, 42, GRAW, QIHBBddfBbB, TimeUS,WkMS,Week,numSV,sv,cpMes,prMes,doMes,mesQI,cno,lli
FMT, 171, 24, GRXH, QdHbBB, TimeUS,rcvTime,week,leapS,numMeas,recStat
FMT, 172, 41, GRXS, QddfBBBHBBBBB, TimeUS,prMes,cpMes,doMes,gnss,sv,freq,lock,cno,prD,cpD,doD,trk
FMT, 173, 63, SBFE, QIHBBdddfffff, TimeUS,TOW,WN,Mode,Err,Lat,Lng,Height,Undul,Vn,Ve,Vu,COG
FMT, 153, 19, ESC1, Qcccc, TimeUS,RPM,Volt,Curr,Temp
FMT, 154, 19, ESC2, Qcccc, TimeUS,RPM,Volt,Curr,Temp
FMT, 155, 19, ESC3, Qcccc, TimeUS,RPM,Volt,Curr,Temp
FMT, 156, 19, ESC4, Qcccc, TimeUS,RPM,Volt,Curr,Temp
FMT, 157, 19, ESC5, Qcccc, TimeUS,RPM,Volt,Curr,Temp
FMT, 158, 19, ESC6, Qcccc, TimeUS,RPM,Volt,Curr,Temp
FMT, 159, 19, ESC7, Qcccc, TimeUS,RPM,Volt,Curr,Temp
FMT, 160, 19, ESC8, Qcccc, TimeUS,RPM,Volt,Curr,Temp
FMT, 167, 34, MAG2, QhhhhhhhhhBI, TimeUS,MagX,MagY,MagZ,OfsX,OfsY,OfsZ,MOfsX,MOfsY,MOfsZ,Health,S
FMT, 168, 34, MAG3, QhhhhhhhhhBI, TimeUS,MagX,MagY,MagZ,OfsX,OfsY,OfsZ,MOfsX,MOfsY,MOfsZ,Health,S
FMT, 174, 31, ACC1, QQfff, TimeUS,SampleUS,AccX,AccY,AccZ
FMT, 175, 31, ACC2, QQfff, TimeUS,SampleUS,AccX,AccY,AccZ
FMT, 176, 31, ACC3, QQfff, TimeUS,SampleUS,AccX,AccY,AccZ
FMT, 177, 31, GYR1, QQfff, TimeUS,SampleUS,GyrX,GyrY,GyrZ
FMT, 178, 31, GYR2, QQfff, TimeUS,SampleUS,GyrX,GyrY,GyrZ
FMT, 179, 31, GYR3, QQfff, TimeUS,SampleUS,GyrX,GyrY,GyrZ
FMT, 181, 35, PIDR, Qffffff, TimeUS,Des,P,I,D,FF,AFF
FMT, 182, 35, PIDP, Qffffff, TimeUS,Des,P,I,D,FF,AFF
FMT, 183, 35, PIDY, Qffffff, TimeUS,Des,P,I,D,FF,AFF
FMT, 184, 35, PIDA, Qffffff, TimeUS,Des,P,I,D,FF,AFF
FMT, 185, 35, PIDS, Qffffff, TimeUS,Des,P,I,D,FF,AFF
FMT, 186, 35, PIDL, Qffffff, TimeUS,Des,P,I,D,FF,AFF
FMT, 161, 37, BAR2, QffcfIff, TimeUS,Alt,Press,Temp,CRt,SMS,Offset,GndTemp
FMT, 197, 37, BAR3, QffcfIff, TimeUS,Alt,Press,Temp,CRt,SMS,Offset,GndTemp
FMT, 187, 35, VIBE, QfffIII, TimeUS,VibeX,VibeY,VibeZ,Clip0,Clip1,Clip2
FMT, 188, 47, IMT, Qfffffffff, TimeUS,DelT,DelvT,DelaT,DelAX,DelAY,DelAZ,DelVX,DelVY,DelVZ
FMT, 189, 47, IMT2, Qfffffffff, TimeUS,DelT,DelvT,DelaT,DelAX,DelAY,DelAZ,DelVX,DelVY,DelVZ
FMT, 190, 47, IMT3, Qfffffffff, TimeUS,DelT,DelvT,DelaT,DelAX,DelAY,DelAZ,DelVX,DelVY,DelVZ
FMT, 191, 24, ORGN, QBLLe, TimeUS,Type,Lat,Lng,Alt
FMT, 192, 19, RPM, Qff, TimeUS,rpm1,rpm2
FMT, 233, 47, GMB1, Iffffffffff, TimeMS,dt,dax,day,daz,dvx,dvy,dvz,jx,jy,jz
FMT, 234, 44, GMB2, IBfffffffff, TimeMS,es,ex,ey,ez,rx,ry,rz,tx,ty,tz
FMT, 235, 13, GMB3, Ihhh, TimeMS,rl_torque_cmd,el_torque_cmd,az_torque_cmd
FMT, 236, 59, RATE, Qffffffffffff, TimeUS,RDes,R,ROut,PDes,P,POut,YDes,Y,YOut,ADes,A,AOut
FMT, 237, 23, RALY, QBBLLh, TimeUS,Tot,Seq,Lat,Lng,Alt
FMT, 238, 43, VISO, Qffffffff, TimeUS,dt,AngDX,AngDY,AngDZ,PosDX,PosDY,PosDZ,conf
FMT, 224, 23, SBPH, QIII, TimeUS,CrcError,LastInject,IARhyp
FMT, 229, 80, SBR1, QHHBZ, TimeUS,msg_type,sender_id,msg_len,d1
FMT, 230, 205, SBR2, QHZZZ, TimeUS,msg_type,d2,d3,d4
FMT, 25, 41, ATUN, QBBfffffff, TimeUS,Axis,TuneStep,Targ,Min,Max,RP,RD,SP,ddt
FMT, 26, 19, ATDE, Qff, TimeUS,Angle,Rate
FMT, 31, 22, PTUN, QBfHHH, TimeUS,Param,TunVal,CtrlIn,TunLo,TunHi
FMT, 12, 28, OF, QBffff, TimeUS,Qual,flowX,flowY,bodyX,bodyY
FMT, 5, 51, NTUN, Qffffffffff, TimeUS,DPosX,DPosY,PosX,PosY,DVelX,DVelY,VelX,VelY,DAccX,DAccY
FMT, 4, 51, CTUN, Qffffffeccfhh, TimeUS,ThI,ABst,ThO,ThH,DAlt,Alt,BAlt,DSAlt,SAlt,TAlt,DCRt,CRt
FMT, 6, 32, PM, QHHIhBHII, TimeUS,NLon,NLoop,MaxT,PMT,I2CErr,INSErr,LogDrop,Mem
FMT, 30, 27, MOTB, Qffff, TimeUS,LiftMax,BatVolt,BatRes,ThLimit
FMT, 13, 12, EV, QB, TimeUS,Id
FMT, 20, 14, D16, QBh, TimeUS,Id,Value
FMT, 21, 14, DU16, QBH, TimeUS,Id,Value
FMT, 22, 16, D32, QBi, TimeUS,Id,Value
FMT, 23, 16, DU32, QBI, TimeUS,Id,Value
FMT, 24, 16, DFLT, QBf, TimeUS,Id,Value
FMT, 19, 13, ERR, QBB, TimeUS,Subsys,ECode
FMT, 32, 19, HELI, Qff, TimeUS,DRRPM,ERRPM
FMT, 33, 29, PL, QBBffff, TimeUS,Heal,TAcq,pX,pY,vX,vY
FMT, 34, 36, GUID, QBffffff, TimeUS,Type,pX,pY,pZ,vX,vY,vZ
FMT, 35, 32, THRO, QBffffbbbb, TimeUS,Stage,Vel,VelZ,Acc,AccEfZ,Throw,AttOk,HgtOk,PosOk
FMT, 36, 56, PRX, QBfffffffffff, TimeUS,Health,D0,D45,D90,D135,D180,D225,D270,D315,DUp,CAn,CDis
MODE, 14928042, 100, 100, 2
FMT, 254, 47, NKT1, QIffffffff, TimeUS,Cnt,IMUMin,IMUMax,EKFMin,EKFMax,AngMin,AngMax,VelMin,VelM
FMT, 253, 31, CTRL, Qfffff, TimeUS,RMSRollP,RMSRollD,RMSPitchP,RMSPitchD,RMSYaw
MSG, 15057918, APM:Copter V3.5.7 (38483450)
MSG, 15057923, New mission
MSG, 15057935, Frame: QUAD
MODE, 15057940, Autonomous, 100, 2
IMU, 15066986, 0.0002345777, 0.0006649841, 0.000316571, 0.2279706, -0.05841211, -9.795597, 0, 0, 36.59042, 1, 1, 1000, 1000
RFND, 15096625, 0.2, 25, 0, 0
IMU, 15106755, -0.001279122, 0.0003827686, 0.0003724358, 0.2337209, -0.06358643, -9.802137, 0, 0, 36.59311, 1, 1, 1000, 1000
MAG, 15146974, 319, 496, 329, 0, 0, 0, 0, 0, 0, 1, 15146966
RFND, 15147010, 0.2, 25, 0, 0
BARO, 15147047, 0.07902002, 992.8625, 34.66, -0.7033742, 15147, 0, 34.61
CTUN, 15147062, 0, 0, 0, 0.2240172, 0.06808987, 0.06808987, 0.07, 0, 0.19, 0, 0, 0
ATT, 15147258, 0, 0.89, 0, 0.55, 0.04, 0.06, 0, 1
RATE, 15147265, -4.025601, 0.06228873, -0.009829639, -2.511773, 0.03319296, -0.00618179, 0.01946499, 0.02590937, 2.273268E-05, 42.56991, 0.3195763, 0
NKF1, 15147274, 0.89, 0.55, 0.06, -0.006020162, -0.001660945, 0.001051109, 0, 0, 0, -0.06808987, -0.01, 0, 0
NKF2, 15147274, 0, 0, 0, 0, 0, 0, 0, 0, 0, 0, 0, 0, 0
NKF3, 15147274, 0, 0, 0, 0, 0, 0, 0, 0, 0, 0, 0
NKF4, 15147274, 0, 0, 0, 0, 0, 1.44726E-05, 0, 0, 0, 19, 229, 0, 0
NKF5, 15147274, 0, 0, 0, 0, 0.19, 0.13, 0, 0.19, 0.5, 4.740971E-05, 0.0005615806, 0.0007421752
NKQ1, 15147274, 0.9999254, 0.0032553, 0.01175583, 0.0004932026
AHR2, 15147322, 0.89, 0.53, 0.04, 0.07, 0, 0, 0.9999588, 0.007785551, 0.004668251, 0.0003161502
MOTB, 15147329, 1, 1, 0, 1
RCIN, 15147333, 0, 0, 0, 0, 0, 0, 0, 0, 0, 0, 0, 0, 0, 0
RCOU, 15147340, 1101, 1101, 1101, 1101, 0, 0, 0, 0, 0, 0, 0, 0, 0, 0
VIBE, 15147348, 0.02114788, 0.01823564, 0.03486348, 0, 0, 0
CTRL, 15147355, 0.00947656, 0.0001951005, 0.005932053, 0.0002100085, 5.728606E-05
PRX, 15147386, 2, 0.73, 0, 0.7, 0, 3.6, 0, 2.37, 0, 0, 90, 0.7
IMU, 15147394, 0.0009009726, 0.0005569233, 0.0004479665, 0.2281748, -0.06394721, -9.799913, 0, 0, 36.59543, 1, 1, 1000, 1000
IMU, 15186506, -0.0004849384, 0.001270006, -0.001178174, 0.2354499, -0.05825731, -9.784319, 0, 0, 36.5973, 1, 1, 1000, 1000
RFND, 15196402, 0.2, 25, 0, 0
IMU, 15227037, -0.0008101602, -0.001126471, 0.0008272246, 0.2274959, -0.05945621, -9.803404, 0, 0, 36.59887, 1, 1, 1000, 1000
MAG, 15246504, 322, 493, 331, 0, 0, 0, 0, 0, 0, 1, 15246495
RFND, 15246539, 0.2, 25, 0, 0
BARO, 15246575, 0.1241743, 992.8575, 34.66, -0.4816796, 15246, 0, 34.61
CTUN, 15246587, 0, 0, 0, 0.2240172, 0.0679213, 0.0679213, 0.12, 0, 0.19, 0, 0, 0
ATT, 15246691, 0, 0.89, 0, 0.55, 0.04, 0.06, 0, 1
RATE, 15246697, -4.016325, -0.01226509, -0.009503067, -2.510838, -0.01133681, -0.006001434, 0.01939611, 0.0191624, -4.333246E-06, 73.79872, -2.470398, 0
NKF1, 15246705, 0.89, 0.55, 0.06, -0.006134646, -0.001222072, 0.001822191, 0, 0, 0, -0.0679213, -0.01, 0, 0
NKF2, 15246705, 0, 0, 0, 0, 0, 0, 0, 0, 0, 0, 0, 0, 0
NKF3, 15246705, 0, 0, 0, 0, 0, 0, 0, 0, 0, 0, 0
NKF4, 15246705, 0, 0, 0, 0, 0, 9.677591E-06, 0, 0, 0, 19, 229, 0, 0
NKF5, 15246705, 0, 0, 0, 0, 0.19, 0.13, 0, 0.19, 0.5, 4.153693E-05, 0.0005564714, 0.0007219591
NKQ1, 15246705, 0.9999256, 0.003237445, 0.0117539, 0.0005022104
AHR2, 15246749, 0.89, 0.53, 0.04, 0.12, 0, 0, 0.9999589, 0.007765417, 0.004667861, 0.0003252928
MOTB, 15246756, 1, 1, 0, 1
RCIN, 15246760, 0, 0, 0, 0, 0, 0, 0, 0, 0, 0, 0, 0, 0, 0
RCOU, 15246881, 1101, 1101, 1101, 1101, 0, 0, 0, 0, 0, 0, 0, 0, 0, 0
VIBE, 15246893, 0.01899903, 0.01789112, 0.0358012, 0, 0, 0
CTRL, 15246900, 0.009465847, 0.0001816759, 0.005930922, 0.000211434, 5.557624E-05
PRX, 15246933, 2, 0.73, 0, 0.7, 0, 3.6, 0, 2.37, 0, 0, 90, 0.7
IMU, 15267155, 0.0009331858, 0.0004381057, -0.0003137109, 0.2257089, -0.0647167, -9.802485, 0, 0, 36.60007, 1, 1, 1000, 1000
RFND, 15296527, 0.2, 25, 0, 0
IMU, 15306982, -0.001114754, -0.0009714345, 0.00182169, 0.2262163, -0.06118924, -9.809287, 0, 0, 36.60119, 1, 1, 1000, 1000
MAG, 15346512, 317, 498, 322, 0, 0, 0, 0, 0, 0, 1, 15346504
RFND, 15346548, 0.2, 25, 0, 0
BARO, 15346585, 0.138285, 992.8558, 34.66, -0.1104992, 15346, 0, 34.61
CTUN, 15346598, 0, 0, 0, 0.2240172, 0.06777447, 0.06777447, 0.13, 0, 0.19, 0, 0, 0
ATT, 15347199, 0, 0.89, 0, 0.55, 0.05, 0.06, 0, 1
RATE, 15347206, -4.015154, 0.02837765, -0.009775461, -2.495291, -0.1087235, -0.005278879, 0.01884692, 0.0209346, -3.703477E-05, 29.94325, 1.800728, 0
NKF1, 15347216, 0.89, 0.55, 0.06, -0.006083251, -0.00103503, 0.0007393394, 0, 0, 0, -0.06777447, -0.01, 0, 0
NKF2, 15347216, 0, 0, 0, 0, 0, 0, 0, 0, 0, 0, 0, 0, 0
NKF3, 15347216, 0, 0, 0, 0, 0, 0, 0, 0, 0, 0, 0
NKF4, 15347216, 0, 0, 0, 0, 0, 6.42499E-06, 0, 0, 0, 19, 229, 0, 0
NKF5, 15347216, 0, 0, 0, 0, 0.19, 0.13, 0, 0.19, 0.5, 3.867323E-05, 0.0005612104, 0.00072617
NKQ1, 15347216, 0.9999259, 0.003235105, 0.01172401, 0.0005239738
AHR2, 15347265, 0.88, 0.53, 0.04, 0.13, 0, 0, 0.9999591, 0.007755049, 0.004641249, 0.0003471636
MOTB, 15347274, 1, 1, 0, 1
RCIN, 15347279, 0, 0, 0, 0, 0, 0, 0, 0, 0, 0, 0, 0, 0, 0
RCOU, 15347285, 1101, 1101, 1101, 1101, 0, 0, 0, 0, 0, 0, 0, 0, 0, 0
VIBE, 15347293, 0.02206894, 0.02066522, 0.03136663, 0, 0, 0
CTRL, 15347300, 0.009463165, 0.0001839116, 0.005906601, 0.0001995621, 4.873825E-05
PRX, 15347331, 2, 0.74, 0, 0.71, 0, 3.6, 0, 2.34, 0, 0, 90, 0.71
IMU, 15347338, 0.0003085377, -0.001920025, 0.0003611274, 0.2350857, -0.06122425, -9.81456, 0, 0, 36.60203, 1, 1, 1000, 1000
IMU, 15386644, -0.001367081, 0.0004476188, -0.0004687763, 0.2291979, -0.0682036, -9.78895, 0, 0, 36.60222, 1, 1, 1000, 1000
RFND, 15396425, 0.2, 25, 0, 0
IMU, 15426661, -0.0003603691, -0.0007022385, -7.929462E-05, 0.2260093, -0.06483264, -9.784209, 0, 0, 36.60199, 1, 1, 1000, 1000
MAG, 15446435, 314, 491, 329, 0, 0, 0, 0, 0, 0, 1, 15446427
RFND, 15446467, 0.2, 25, 0, 0
BARO, 15446502, 0.1721507, 992.8524, 34.66, 0.1873498, 15446, 0, 34.61
CTUN, 15446515, 0, 0, 0, 0.2240172, 0.06766547, 0.06766547, 0.17, 0, 0.19, 0, 0, 0
ATT, 15446686, 0, 0.89, 0, 0.55, 0.05, 0.06, 0, 1
RATE, 15446693, -4.011098, 0.05436307, -0.009729393, -2.490687, 0.001185298, -0.005927034, 0.01947387, -0.0461483, 7.276919E-05, 51.31752, -0.4451752, 0
NKF1, 15446700, 0.89, 0.55, 0.06, -0.006294968, -0.0009914134, 0.001267099, 0, 0, 0, -0.06766547, -0.01, 0, 0
NKF2, 15446700, 0, 0, 0, 0, 0, 0, 0, 0, 0, 0, 0, 0, 0
NKF3, 15446700, 0, 0, 0, 0, 0, 0, 0, 0, 0, 0, 0
NKF4, 15446700, 0, 0, 0, 0, 0, 4.373543E-06, 0, 0, 0, 19, 229, 0, 0
NKF5, 15446700, 0, 0, 0, 0, 0.19, 0.13, 0, 0.19, 0.5, 3.784116E-05, 0.0005649126, 0.0007218808
NKQ1, 15446700, 0.9999261, 0.003228907, 0.01171316, 0.0005094048
AHR2, 15446743, 0.88, 0.53, 0.04, 0.17, 0, 0, 0.9999592, 0.00774144, 0.004632833, 0.0003326423
MOTB, 15446750, 1, 1, 0, 1
RCIN, 15446754, 0, 0, 0, 0, 0, 0, 0, 0, 0, 0, 0, 0, 0, 0
RCOU, 15446760, 1101, 1101, 1101, 1101, 0, 0, 0, 0, 0, 0, 0, 0, 0, 0
VIBE, 15446858, 0.02094913, 0.01831288, 0.03452639, 0, 0, 0
CTRL, 15446866, 0.009456802, 0.0001773626, 0.005878908, 0.0002021428, 4.861836E-05
PRX, 15446897, 2, 0.73, 0, 0.7, 0, 3.6, 0, 2.36, 0, 0, 90, 0.7
IMU, 15466645, -0.001009896, 4.967858E-05, -0.0004783233, 0.2281856, -0.07147534, -9.809107, 0, 0, 36.6022, 1, 1, 1000, 1000
RFND, 15496514, 0.2, 25, 0, 0
IMU, 15506573, 0.0001651535, -0.0005467553, 0.0003349727, 0.2144523, -0.05345351, -9.809288, 0, 0, 36.6023, 1, 1, 1000, 1000
MAG, 15546506, 322, 492, 331, 0, 0, 0, 0, 0, 0, 1, 15546498
RFND, 15546540, 0.2, 25, 0, 0
BARO, 15546577, 0.1862615, 992.8508, 34.66, 0.2816311, 15546, 0, 34.61
CTUN, 15546589, 0, 0, 0, 0.2240172, 0.06754028, 0.06754028, 0.18, 0, 0.19, 0, 0, 0
ATT, 15547200, 0, 0.89, 0, 0.55, 0.04, 0.05, 0, 1
RATE, 15547210, -4.012674, 0.02944964, -0.009479138, -2.484962, 0.03910732, -0.00631206, 0.01998756, -0.04176995, 0.0001630037, 55.63185, 0.1170158, 0
NKF1, 15547221, 0.89, 0.55, 0.05, -0.006753618, -0.001108504, 0.001373626, 0, 0, 0, -0.06754028, -0.01, 0, 0
NKF2, 15547221, 0, 0, 0, 0, 0, 0, 0, 0, 0, 0, 0, 0, 0
NKF3, 15547221, 0, 0, 0, 0, 0, 0, 0, 0, 0, 0, 0
NKF4, 15547221, 0, 0, 0, 0, 0, 3.013292E-06, 0, 0, 0, 19, 229, 0, 0
NKF5, 15547221, 0, 0, 0, 0, 0.19, 0.13, 0, 0.19, 0.5, 3.780541E-05, 0.0005664707, 0.0007308385
NKQ1, 15547221, 0.9999263, 0.003231989, 0.01170194, 0.0004795655
AHR2, 15547269, 0.88, 0.52, 0.03, 0.18, 0, 0, 0.9999593, 0.007738067, 0.004623581, 0.000302793
MOTB, 15547277, 1, 1, 0, 1
RCIN, 15547281, 0, 0, 0, 0, 0, 0, 0, 0, 0, 0, 0, 0, 0, 0
RCOU, 15547288, 1101, 1101, 1101, 1101, 0, 0, 0, 0, 0, 0, 0, 0, 0, 0
VIBE, 15547296, 0.02003166, 0.01851656, 0.03503917, 0, 0, 0
CTRL, 15547303, 0.009462725, 0.0001742996, 0.005855496, 0.0001897082, 8.092628E-05
PRX, 15547335, 2, 0.74, 0, 0.71, 0, 3.6, 0, 2.33, 0, 0, 90, 0.71
IMU, 15547342, 0.0003268544, 0.0006601131, -0.0007332827, 0.2285589, -0.06499705, -9.797828, 0, 0, 36.6024, 1, 1, 1000, 1000
IMU, 15587044, -0.0006780954, 0.0009957539, -0.0004593757, 0.2329019, -0.05537913, -9.776982, 0, 0, 36.60283, 1, 1, 1000, 1000
RFND, 15596524, 0.2, 25, 0, 0
IMU, 15626720, -0.0002594269, -6.417456E-05, 0.0001451043, 0.2299312, -0.05564041, -9.792459, 0, 0, 36.60327, 1, 1, 1000, 1000
MAG, 15646588, 314, 495, 333, 0, 0, 0, 0, 0, 0, 1, 15646580
RFND, 15646623, 0.2, 25, 0, 0
BARO, 15646660, 0.1552179, 992.8541, 34.66, 0.2428639, 15646, 0, 34.61
CTUN, 15646673, 0, 0, 0, 0.2240172, 0.06738306, 0.06738306, 0.15, 0, 0.19, 0, 0, 0
ATT, 15646889, 0, 0.89, 0, 0.55, 0.04, 0.05, 0, 1
RATE, 15646895, -4.010897, 0.01328237, -0.009483133, -2.487828, 0.01867078, -0.006194727, 0.01917448, -0.01787183, 0.0001396802, 78.84308, 1.223946, 0
NKF1, 15646904, 0.89, 0.55, 0.05, -0.006952333, -0.0009522265, 0.001946743, 0, 0, 0, -0.06738306, -0.01, 0, 0
NKF2, 15646904, 0, 0, 0, 0, 0, 0, 0, 0, 0, 0, 0, 0, 0
NKF3, 15646904, 0, 0, 0, 0, 0, 0, 0, 0, 0, 0, 0
NKF4, 15646904, 0, 0, 0, 0, 0, 2.147897E-06, 0, 0, 0, 19, 229, 0, 0
NKF5, 15646904, 0, 0, 0, 0, 0.19, 0.13, 0, 0.19, 0.5, 3.775248E-05, 0.0005617611, 0.0007192848
NKQ1, 15646904, 0.9999261, 0.00322774, 0.01170783, 0.0004634318
AHR2, 15646950, 0.88, 0.53, 0.03, 0.15, 0, 0, 0.9999593, 0.007727724, 0.004630556, 0.0002866238
MOTB, 15646957, 1, 1, 0, 1
RCIN, 15646962, 0, 0, 0, 0, 0, 0, 0, 0, 0, 0, 0, 0, 0, 0
RCOU, 15646967, 1101, 1101, 1101, 1101, 0, 0, 0, 0, 0, 0, 0, 0, 0, 0
VIBE, 15646976, 0.02097449, 0.01782415, 0.03297571, 0, 0, 0
CTRL, 15646983, 0.009460354, 0.0001621399, 0.005860739, 0.0002063521, 0.0001106606
PRX, 15647015, 2, 0.73, 0, 0.71, 0, 3.6, 0, 2.36, 0, 0, 90, 0.71
IMU, 15666936, 0.0004844749, 0.0002405625, 0.0001389995, 0.221817, -0.06551483, -9.801159, 0, 0, 36.60347, 1, 1, 1000, 1000
RFND, 15696596, 0.2, 25, 0, 0
IMU, 15706616, -0.0006295993, 0.0004306231, -0.0007423598, 0.228356, -0.06622781, -9.814611, 0, 0, 36.60389, 1, 1, 1000, 1000
MAG, 15747137, 318, 497, 326, 0, 0, 0, 0, 0, 0, 1, 15747129
RFND, 15747589, 0.2, 25, 0, 0
BARO, 15747634, 0.09313074, 992.861, 34.66, 0.1181773, 15747, 0, 34.61
CTUN, 15747647, 0, 0, 0, 0.2240172, 0.06722563, 0.06722563, 0.09, 0, 0.19, 0, 0, 0
DU32, 15747689, 7, 50389208
ATT, 15747954, 0, 0.89, 0, 0.55, 0.04, 0.05, 0, 1
RATE, 15747962, -4.009893, -0.004629332, -0.00964413, -2.491035, 0.008297059, -0.005904823, 0.01921038, -0.0751529, 0.0001119453, 81.9301, -0.799942, 0
NKF1, 15747970, 0.89, 0.55, 0.05, -0.007113714, -0.001145235, 0.002022965, 0, 0, 0, -0.06722563, -0.01, 0, 0
NKF2, 15747970, 0, 0, 0, 0, 0, 0, 0, 0, 0, 0, 0, 0, 0
NKF3, 15747970, 0, 0, 0, 0, 0, 0, 0, 0, 0, 0, 0
NKF4, 15747970, 0, 0, 0, 0, 0, 1.58265E-06, 0, 0, 0, 19, 229, 0, 0
NKF5, 15747970, 0, 0, 0, 0, 0.19, 0.13, 0, 0.19, 0.5, 3.747909E-05, 0.0005518134, 0.0007016382
NKQ1, 15747970, 0.9999261, 0.003227265, 0.01171237, 0.000444566
AHR2, 15748012, 0.88, 0.53, 0.03, 0.09, 0, 0, 0.9999594, 0.007721618, 0.004635003, 0.0002677121
MOTB, 15748018, 1, 1, 0, 1
RCIN, 15748023, 0, 0, 0, 0, 0, 0, 0, 0, 0, 0, 0, 0, 0, 0
RCOU, 15748029, 1101, 1101, 1101, 1101, 0, 0, 0, 0, 0, 0, 0, 0, 0, 0
VIBE, 15748038, 0.02197178, 0.01877083, 0.03327537, 0, 0, 0
CTRL, 15748044, 0.009455061, 0.0001548249, 0.005868942, 0.0001802078, 0.0001107491
PRX, 15748075, 2, 0.73, 0, 0.7, 0, 3.6, 0, 2.37, 0, 0, 90, 0.7
IMU, 15748083, -0.0002685777, 0.0001224915, -0.001315941, 0.2306008, -0.05882804, -9.78861, 0, 0, 36.60357, 1, 1, 1000, 1000
PM, 15748095, 42, 4000, 5524, 7, 0, 0, 41, 262144
IMU, 15786688, -0.0007520589, 0.000192879, 0.000149577, 0.2243535, -0.05826866, -9.79369, 0, 0, 36.60365, 1, 1, 1000, 1000
RFND, 15796544, 0.2, 25, 0, 0
IMU, 15826686, -0.0006494169, -0.0007030477, 0.0004014139, 0.2389019, -0.06961137, -9.814322, 0, 0, 36.60367, 1, 1, 1000, 1000
MAG, 15846537, 318, 496, 328, 0, 0, 0, 0, 0, 0, 1, 15846528
RFND, 15846572, 0.2, 25, 0, 0
BARO, 15846608, 0.1862615, 992.8508, 34.66, -0.06335746, 15846, 0, 34.61
CTUN, 15846621, 0, 0, 0, 0.2240172, 0.06711721, 0.06711721, 0.18, 0, 0.19, 0, 0, 0
ATT, 15846725, 0, 0.89, 0, 0.55, 0.04, 0.05, 0, 1
RATE, 15846731, -4.004821, -0.003487942, -0.00951595, -2.480074, -0.07625762, -0.005551424, 0.0189712, -0.01850569, 7.932164E-05, 52.17149, -0.2470016, 0
NKF1, 15846738, 0.89, 0.55, 0.05, -0.007239872, -0.001081977, 0.001288185, 0, 0, 0, -0.06711721, -0.01, 0, 0
NKF2, 15846738, 0, 0, 0, 0, 0, 0, 0, 0, 0, 0, 0, 0, 0
NKF3, 15846738, 0, 0, 0, 0, 0, 0, 0, 0, 0, 0, 0
NKF4, 15846738, 0, 0, 0, 0, 0, 1.271834E-06, 0, 0, 0, 19, 229, 0, 0
NKF5, 15846738, 0, 0, 0, 0, 0.19, 0.13, 0, 0.19, 0.5, 3.725519E-05, 0.0005392827, 0.0006962375
NKQ1, 15846738, 0.9999264, 0.00321712, 0.01169327, 0.0004430517
AHR2, 15846889, 0.88, 0.52, 0.03, 0.18, 0, 0, 0.9999596, 0.007706458, 0.004616037, 0.000266325
MOTB, 15846898, 1, 1, 0, 1
RCIN, 15846903, 0, 0, 0, 0, 0, 0, 0, 0, 0, 0, 0, 0, 0, 0
RCOU, 15846909, 1101, 1101, 1101, 1101, 0, 0, 0, 0, 0, 0, 0, 0, 0, 0
VIBE, 15846917, 0.0210267, 0.02023136, 0.03044719, 0, 0, 0
CTRL, 15846924, 0.009448233, 0.0001522773, 0.005853608, 0.0001680559, 0.0001073056
PRX, 15846956, 2, 0.73, 0, 0.7, 0, 3.6, 0, 2.35, 0, 0, 90, 0.7
IMU, 15866994, -0.000917651, -0.0003093559, 0.001310945, 0.2272222, -0.06903064, -9.795756, 0, 0, 36.60366, 1, 1, 1000, 1000
RFND, 15896530, 0.2, 25, 0, 0
IMU, 15906612, -6.950364E-05, 0.0009925042, 0.0004303745, 0.2326992, -0.06470927, -9.793533, 0, 0, 36.60363, 1, 1, 1000, 1000
MAG, 15946558, 320, 498, 327, 0, 0, 0, 0, 0, 0, 1, 15946550
RFND, 15946593, 0.2, 25, 0, 0
BARO, 15946631, 0.2003722, 992.8491, 34.66, -0.1077522, 15946, 0, 34.61
CTUN, 15946643, 0, 0, 0, 0.2240172, 0.06702392, 0.06702392, 0.2, 0, 0.19, 0, 0, 0
ATT, 15946953, 0, 0.88, 0, 0.55, 0.04, 0.05, 0, 1
RATE, 15946960, -4.002861, 0.02319703, -0.009384657, -2.492798, 0.0009650717, -0.005973318, 0.0197287, -0.01408945, 7.044953E-05, 86.22196, -2.564812, 0
NKF1, 15946969, 0.88, 0.55, 0.05, -0.007282338, -0.001489413, 0.002128937, 0, 0, 0, -0.06702392, -0.01, 0, 0
NKF2, 15946969, 0, 0, 0, 0, 0, 0, 0, 0, 0, 0, 0, 0, 0
NKF3, 15946969, 0, 0, 0, 0, 0, 0, 0, 0, 0, 0, 0
NKF4, 15946969, 0, 0, 0, 0, 0, 1.085132E-06, 0, 0, 0, 19, 229, 0, 0
NKF5, 15946969, 0, 0, 0, 0, 0.19, 0.13, 0, 0.19, 0.5, 3.670669E-05, 0.0005215799, 0.0006699552
NKQ1, 15946969, 0.9999261, 0.003212001, 0.01171749, 0.0004605016
AHR2, 15947015, 0.88, 0.53, 0.03, 0.2, 0, 0, 0.9999596, 0.007697579, 0.004640873, 0.0002836705
MOTB, 15947023, 1, 1, 0, 1
RCIN, 15947028, 0, 0, 0, 0, 0, 0, 0, 0, 0, 0, 0, 0, 0, 0
RCOU, 15947033, 1101, 1101, 1101, 1101, 0, 0, 0, 0, 0, 0, 0, 0, 0, 0
VIBE, 15947042, 0.0199308, 0.01966059, 0.03072256, 0, 0, 0
CTRL, 15947049, 0.009445155, 0.0001356754, 0.005867267, 0.0001676939, 9.198695E-05
PRX, 15947080, 2, 0.74, 0, 0.7, 0, 3.6, 0, 2.37, 0, 0, 90, 0.7
IMU, 15947088, 0.0002168726, -5.336202E-06, -0.0002501877, 0.2200451, -0.07161626, -9.771103, 0, 0, 36.60363, 1, 1, 1000, 1000
IMU, 15986997, -0.00139236, -0.001642018, 0.0007184862, 0.2203339, -0.061104, -9.80411, 0, 0, 36.60369, 1, 1, 1000, 1000
RFND, 15996660, 0.2, 25, 0, 0
IMU, 16026688, 0.0009530879, -0.0003002484, -0.0002296676, 0.2352156, -0.04760018, -9.805773, 0, 0, 36.60362, 1, 1, 1000, 1000
MAG, 16046537, 316, 494, 332, 0, 0, 0, 0, 0, 0, 1, 16046529
RFND, 16046572, 0.2, 25, 0, 0
BARO, 16046609, 0.2144829, 992.8477, 34.67, 0.07937279, 16046, 0, 34.61
CTUN, 16046621, 0, 0, 0, 0.2240172, 0.0669228, 0.0669228, 0.21, 0, 0.19, 0, 0, 0
ATT, 16046723, 0, 0.88, 0, 0.54, 0.04, 0.05, 0, 1
RATE, 16046729, -3.993279, -0.02794963, -0.009113519, -2.473098, -0.005866684, -0.005923307, 0.01897382, 0.04560822, 4.452868E-05, 71.09929, -0.757122, 0
NKF1, 16046737, 0.88, 0.54, 0.05, -0.007696022, -0.001370277, 0.001755538, 0, 0, 0, -0.0669228, -0.01, 0, 0
NKF2, 16046737, 0, 0, 0, 0, 0, 0, 0, 0, 0, 0, 0, 0, 0
NKF3, 16046737, 0, 0, 0, 0, 0, 0, 0, 0, 0, 0, 0
NKF4, 16046737, 0, 0, 0, 0, 0, 1.034266E-06, 0, 0, 0, 19, 229, 0, 0
NKF5, 16046737, 0, 0, 0, 0, 0.19, 0.13, 0, 0.19, 0.5, 3.645955E-05, 0.0005039619, 0.0006542337
NKQ1, 16046737, 0.9999266, 0.003192452, 0.01168129, 0.0004723697
AHR2, 16046879, 0.87, 0.52, 0.03, 0.21, 0, 0, 0.9999599, 0.007673872, 0.00460528, 0.0002958083
MOTB, 16046887, 1, 1, 0, 1
RCIN, 16046893, 0, 0, 0, 0, 0, 0, 0, 0, 0, 0, 0, 0, 0, 0
RCOU, 16046899, 1101, 1101, 1101, 1101, 0, 0, 0, 0, 0, 0, 0, 0, 0, 0
VIBE, 16046907, 0.02074297, 0.01971735, 0.03158151, 0, 0, 0
CTRL, 16046913, 0.009425249, 0.0001520221, 0.005831562, 0.0001671759, 8.178315E-05
PRX, 16046944, 2, 0.73, 0, 0.7, 0, 3.6, 0, 2.36, 0, 0, 90, 0.7
IMU, 16066721, -0.0002235826, -0.0001639653, -4.075903E-05, 0.2319877, -0.06386825, -9.789835, 0, 0, 36.60365, 1, 1, 1000, 1000
RFND, 16096531, 0.2, 25, 0, 0
IMU, 16106699, -0.0003567519, -0.0001985254, 0.001106736, 0.2309871, -0.06179164, -9.805944, 0, 0, 36.6037, 1, 1, 1000, 1000
MAG, 16146734, 317, 497, 329, 0, 0, 0, 0, 0, 0, 1, 16146725
RFND, 16146862, 0.2, 25, 0, 0
BARO, 16146903, 0.1806172, 992.8514, 34.67, 0.2407242, 16146, 0, 34.61
CTUN, 16146917, 0, 0, 0, 0.2240172, 0.06682111, 0.06682111, 0.18, 0, 0.19, 0, 0, 0
ATT, 16147022, 0, 0.88, 0, 0.54, 0.04, 0.06, 0, 1
RATE, 16147028, -3.99501, -0.01202685, -0.009119174, -2.475109, 0.05940531, -0.006196292, 0.01926284, 0.02120837, -1.866546E-05, 80.05933, 0.6350517, 0
NKF1, 16147036, 0.88, 0.54, 0.06, -0.007500218, -0.001486568, 0.001976773, 0, 0, 0, -0.06682111, -0.01, 0, 0
NKF2, 16147036, 0, 0, 0, 0, 0, 0, 0, 0, 0, 0, 0, 0, 0
NKF3, 16147036, 0, 0, 0, 0, 0, 0, 0, 0, 0, 0, 0
NKF4, 16147036, 0, 0, 0, 0, 0, 1.058136E-06, 0, 0, 0, 19, 229, 0, 0
NKF5, 16147036, 0, 0, 0, 0, 0.19, 0.13, 0, 0.19, 0.5, 3.5962E-05, 0.000481097, 0.0006210865
NKQ1, 16147036, 0.9999266, 0.003196039, 0.01168459, 0.0004984321
AHR2, 16147080, 0.87, 0.52, 0.04, 0.18, 0, 0, 0.9999599, 0.007673009, 0.004609241, 0.0003218022
MOTB, 16147087, 1, 1, 0, 1
RCIN, 16147091, 0, 0, 0, 0, 0, 0, 0, 0, 0, 0, 0, 0, 0, 0
RCOU, 16147098, 1101, 1101, 1101, 1101, 0, 0, 0, 0, 0, 0, 0, 0, 0, 0
VIBE, 16147106, 0.01977756, 0.0175728, 0.03506941, 0, 0, 0
CTRL, 16147113, 0.009430498, 0.0001503411, 0.005830146, 0.0001812993, 6.933181E-05
PRX, 16147145, 2, 0.74, 0, 0.71, 0, 3.6, 0, 2.35, 0, 0, 90, 0.71
IMU, 16147152, -0.0003977101, 0.001014886, 0.0003658792, 0.2270088, -0.06510549, -9.802985, 0, 0, 36.60363, 1, 1, 1000, 1000
IMU, 16186674, -0.0005842858, -0.000134702, -7.964623E-05, 0.2215653, -0.06012397, -9.787389, 0, 0, 36.60363, 1, 1, 1000, 1000
RFND, 16197002, 0.2, 25, 0, 0
IMU, 16227081, -0.0001290347, 0.0009901575, 9.965768E-05, 0.2355493, -0.05272239, -9.794247, 0, 0, 36.60369, 1, 1, 1000, 1000
MAG, 16246561, 323, 497, 331, 0, 0, 0, 0, 0, 0, 1, 16246553
RFND, 16246592, 0.2, 25, 0, 0
BARO, 16246630, 0.1495736, 992.8549, 34.67, 0.1519643, 16246, 0, 34.61
CTUN, 16246643, 0, 0, 0, 0.2240172, 0.06667489, 0.06667489, 0.14, 0, 0.19, 0, 0, 0
ATT, 16246747, 0, 0.88, 0, 0.55, 0.04, 0.06, 0, 1
RATE, 16246753, -3.99086, 0.01975873, -0.009569699, -2.484992, 0.07699179, -0.006127551, 0.01962322, 0.01090278, 3.569305E-05, 85.03649, 1.018906, 0
NKF1, 16246760, 0.88, 0.55, 0.06, -0.008115395, -0.001060206, 0.002099666, 0, 0, 0, -0.06667489, -0.01, 0, 0
NKF2, 16246760, 0, 0, 0, 0, 0, 0, 0, 0, 0, 0, 0, 0, 0
NKF3, 16246760, 0, 0, 0, 0, 0, 0, 0, 0, 0, 0, 0
NKF4, 16246760, 0, 0, 0, 0, 0, 1.141167E-06, 0, 0, 0, 19, 229, 0, 0
NKF5, 16246760, 0, 0, 0, 0, 0.19, 0.13, 0, 0.19, 0.5, 3.588113E-05, 0.0004621937, 0.0006021128
NKQ1, 16246760, 0.9999263, 0.003188244, 0.01170354, 0.0005036638
AHR2, 16246905, 0.87, 0.53, 0.04, 0.14, 0, 0, 0.9999599, 0.007660681, 0.004628798, 0.0003269712
MOTB, 16246913, 1, 1, 0, 1
RCIN, 16246918, 0, 0, 0, 0, 0, 0, 0, 0, 0, 0, 0, 0, 0, 0
RCOU, 16246923, 1101, 1101, 1101, 1101, 0, 0, 0, 0, 0, 0, 0, 0, 0, 0
VIBE, 16246932, 0.02311032, 0.01967245, 0.03410292, 0, 0, 0
CTRL, 16246938, 0.009409421, 0.0001476384, 0.005849969, 0.0001784832, 5.759479E-05
PRX, 16246969, 2, 0.73, 0, 0.7, 0, 3.6, 0, 2.38, 0, 0, 90, 0.7
IMU, 16266696, 0.001276319, 0.0005162488, -0.0001108327, 0.2275571, -0.06206611, -9.798469, 0, 0, 36.60357, 1, 1, 1000, 1000
RFND, 16296483, 0.2, 25, 0, 0
IMU, 16306661, -0.000219491, 0.001220015, -0.0001923334, 0.2212348, -0.05499172, -9.797373, 0, 0, 36.6037, 1, 1, 1000, 1000
MAG, 16346427, 317, 497, 331, 0, 0, 0, 0, 0, 0, 1, 16346419
RFND, 16346457, 0.2, 25, 0, 0
BARO, 16346495, 0.1298186, 992.8569, 34.67, -0.06524293, 16346, 0, 34.61
CTUN, 16346508, 0, 0, 0, 0.2240172, 0.06657818, 0.06657818, 0.12, 0, 0.19, 0, 0, 0
ATT, 16346603, 0, 0.88, 0, 0.55, 0.04, 0.06, 0, 1
RATE, 16346610, -3.990785, -0.0336297, -0.00942144, -2.499427, 0.03459357, -0.006112654, 0.01958823, 0.01080095, 3.17789E-05, 81.91719, -0.4593849, 0
NKF1, 16346618, 0.88, 0.55, 0.06, -0.008122785, -0.001037092, 0.002022647, 0, 0, 0, -0.06657818, -0.01, 0, 0
NKF2, 16346618, 0, 0, 0, 0, 0, 0, 0, 0, 0, 0, 0, 0, 0
NKF3, 16346618, 0, 0, 0, 0, 0, 0, 0, 0, 0, 0, 0
NKF4, 16346618, 0, 0, 0, 0, 0, 1.300585E-06, 0, 0, 0, 19, 229, 0, 0
NKF5, 16346618, 0, 0, 0, 0, 0.19, 0.13, 0, 0.19, 0.5, 3.551471E-05, 0.0004359014, 0.0005600685
NKQ1, 16346618, 0.999926, 0.003188378, 0.0117317, 0.0005021835
AHR2, 16346662, 0.87, 0.53, 0.04, 0.12, 0, 0, 0.9999598, 0.007656426, 0.004657554, 0.0003253346
MOTB, 16346669, 1, 1, 0, 1
RCIN, 16346673, 0, 0, 0, 0, 0, 0, 0, 0, 0, 0, 0, 0, 0, 0
RCOU, 16346679, 1101, 1101, 1101, 1101, 0, 0, 0, 0, 0, 0, 0, 0, 0, 0
VIBE, 16346687, 0.02076619, 0.02044919, 0.02951429, 0, 0, 0
CTRL, 16346693, 0.00941605, 0.0001520705, 0.005887595, 0.0001706569, 5.715263E-05
PRX, 16346725, 2, 0.74, 0, 0.71, 0, 0.49, 0, 2.33, 0, 0, 180, 0.49
IMU, 16346731, -0.0007749241, 0.0005821166, 0.0001842303, 0.2321551, -0.06319961, -9.791912, 0, 0, 36.60372, 1, 1, 1000, 1000
IMU, 16386609, -0.001974903, -0.001086873, -0.001068746, 0.2248765, -0.04945575, -9.797208, 0, 0, 36.6036, 1, 1, 1000, 1000
RFND, 16396524, 0.2, 25, 0, 0
IMU, 16426512, 8.379562E-05, -0.0005598034, -7.46704E-05, 0.2293322, -0.06883982, -9.802884, 0, 0, 36.60361, 1, 1, 1000, 1000
MAG, 16446461, 319, 496, 335, 0, 0, 0, 0, 0, 0, 1, 16446453
RFND, 16446488, 0.2, 25, 0, 0
BARO, 16446525, 0.1608622, 992.8535, 34.67, -0.19755, 16446, 0, 34.61
CTUN, 16446537, 0, 0, 0, 0.2240172, 0.06650593, 0.06650593, 0.16, 0, 0.19, 0, 0, 0
ATT, 16446958, 0, 0.88, 0, 0.55, 0.04, 0.06, 0, 1
RATE, 16446966, -3.979548, 0.03716789, -0.009495733, -2.490361, -0.01950188, -0.005793487, 0.01848606, 0.003951574, 7.896872E-05, 64.91992, 0.13237, 0
NKF1, 16446976, 0.88, 0.55, 0.06, -0.00849, -0.001273011, 0.001602961, 0, 0, 0, -0.06650593, -0.01, 0, 0
NKF2, 16446976, 0, 0, 0, 0, 0, 0, 0, 0, 0, 0, 0, 0, 0
NKF3, 16446976, 0, 0, 0, 0, 0, 0, 0, 0, 0, 0, 0
NKF4, 16446976, 0, 0, 0, 0, 0, 1.461709E-06, 0, 0, 0, 19, 229, 0, 0
NKF5, 16446976, 0, 0, 0, 0, 0.19, 0.13, 0, 0.19, 0.5, 3.557634E-05, 0.0004185493, 0.0005369596
NKQ1, 16446976, 0.9999263, 0.003166161, 0.0117135, 0.0004970934
AHR2, 16447022, 0.87, 0.53, 0.04, 0.16, 0, 0, 0.9999601, 0.00762907, 0.004640182, 0.0003204476
MOTB, 16447030, 1, 1, 0, 1
RCIN, 16447035, 0, 0, 0, 0, 0, 0, 0, 0, 0, 0, 0, 0, 0, 0
RCOU, 16447040, 1101, 1101, 1101, 1101, 0, 0, 0, 0, 0, 0, 0, 0, 0, 0
VIBE, 16447049, 0.01907196, 0.0234973, 0.03025055, 0, 0, 0
CTRL, 16447056, 0.009387644, 0.0001599855, 0.005869494, 0.0001631146, 6.16148E-05
PRX, 16447087, 2, 0.73, 0, 0.71, 0, 0.49, 0, 2.36, 0, 0, 180, 0.49
IMU, 16466908, -0.0002951, 0.0006230665, -0.0001140938, 0.2216302, -0.0654362, -9.794676, 0, 0, 36.6037, 1, 1, 1000, 1000
RFND, 16496724, 0.2, 25, 0, 0
IMU, 16506745, -0.001318376, 0.0008782037, 0.0002438828, 0.2257213, -0.07079832, -9.790501, 0, 0, 36.60371, 1, 1, 1000, 1000
MAG, 16546484, 317, 492, 329, 0, 0, 0, 0, 0, 0, 1, 16546477
RFND, 16546514, 0.2, 25, 0, 0
BARO, 16546552, 0.08184216, 992.8624, 34.67, -0.1834393, 16546, 0, 34.61
CTUN, 16546565, 0, 0, 0, 0.2240172, 0.06648538, 0.06648538, 0.08, 0, 0.19, 0, 0, 0
ATT, 16546713, 0, 0.88, 0, 0.55, 0.04, 0.06, 0, 1
RATE, 16546719, -3.970769, 0.03502743, -0.009776961, -2.496407, -0.03372116, -0.005694948, 0.01880519, -0.02113198, 2.024104E-05, 46.3019, 0.9166718, 0
NKF1, 16546727, 0.88, 0.55, 0.06, -0.008644877, -0.001078244, 0.001143257, 0, 0, 0, -0.06648538, -0.01, 0, 0
NKF2, 16546727, 0, 0, 0, 0, 0, 0, 0, 0, 0, 0, 0, 0, 0
NKF3, 16546727, 0, 0, 0, -0.01, 0, 0, 0, 0, 0, 0, 0
NKF4, 16546727, 0, 0, 0, 0, 0, 1.726717E-06, 0, 0, 0, 19, 229, 0, 0
NKF5, 16546727, 0, 0, 0, 0, 0.19, 0.13, 0, 0.19, 0.5, 3.538116E-05, 0.0003916447, 0.0004926724
NKQ1, 16546727, 0.9999263, 0.003150084, 0.01172486, 0.0005055661
AHR2, 16546881, 0.87, 0.53, 0.04, 0.08, 0, 0, 0.9999602, 0.00760647, 0.004652961, 0.0003289366
MOTB, 16546892, 1, 1, 0, 1
RCIN, 16546897, 0, 0, 0, 0, 0, 0, 0, 0, 0, 0, 0, 0, 0, 0
RCOU, 16546903, 1101, 1101, 1101, 1101, 0, 0, 0, 0, 0, 0, 0, 0, 0, 0
VIBE, 16546912, 0.01799633, 0.02292677, 0.02882206, 0, 0, 0
CTRL, 16546919, 0.009360224, 0.0001735603, 0.00588422, 0.0001515577, 6.109962E-05
PRX, 16546951, 2, 0.73, 0, 0.71, 0, 0.49, 0, 2.37, 0, 0, 180, 0.49
IMU, 16546959, 0.0004228035, -0.0006098822, -0.0003731186, 0.2283171, -0.05532099, -9.805785, 0, 0, 36.60362, 1, 1, 1000, 1000
IMU, 16586643, 0.0004258688, 0.001366904, 0.0007610497, 0.2222775, -0.06275732, -9.791154, 0, 0, 36.6036, 1, 1, 1000, 1000
RFND, 16596540, 0.2, 25, 0, 0
IMU, 16626708, 0.0004523931, -0.0002067824, 0.0002322216, 0.2249282, -0.056245, -9.792645, 0, 0, 36.60371, 1, 1, 1000, 1000
MAG, 16646627, 317, 496, 328, 0, 0, 0, 0, 0, 0, 1, 16646619
RFND, 16646657, 0.2, 25, 0, 0
BARO, 16646748, 0.03386572, 992.8674, 34.67, -0.1622733, 16646, 0, 34.61
CTUN, 16646761, 0, 0, 0, 0.2240172, 0.06643121, 0.06643121, 0.03, 0, 0.19, 0, 0, 0
ATT, 16647022, 0, 0.88, 0, 0.55, 0.04, 0.06, 0, 1
RATE, 16647028, -3.974082, 0.01903337, -0.009351028, -2.505412, -0.02427446, -0.005862055, 0.02037561, 0.01617624, 6.576452E-05, 70.80513, -0.03023148, 0
NKF1, 16647036, 0.88, 0.55, 0.06, -0.009201222, -0.001108718, 0.001748275, 0, 0, 0, -0.06643121, -0.01, 0, 0
NKF2, 16647036, 0, 0, 0, 0, 0, 0, 0, 0, 0, 0, 0, 0, 0
NKF3, 16647036, 0, 0, 0, -0.01, 0, 0, 0, 0, 0, 0, 0
NKF4, 16647036, 0, 0, 0, 0, 0, 1.937035E-06, 0, 0, 0, 19, 229, 0, 0
NKF5, 16647036, 0, 0, 0, 0, 0.19, 0.13, 0, 0.19, 0.5, 3.5156E-05, 0.0003720327, 0.0004783689
NKQ1, 16647036, 0.9999259, 0.003155168, 0.01174295, 0.0004971034
AHR2, 16647082, 0.87, 0.53, 0.04, 0.03, 0, 0, 0.9999601, 0.007605711, 0.004671991, 0.0003203251
MOTB, 16647090, 1, 1, 0, 1
RCIN, 16647095, 0, 0, 0, 0, 0, 0, 0, 0, 0, 0, 0, 0, 0, 0
RCOU, 16647100, 1101, 1101, 1101, 1101, 0, 0, 0, 0, 0, 0, 0, 0, 0, 0
VIBE, 16647109, 0.01937513, 0.02180703, 0.03208637, 0, 0, 0
CTRL, 16647116, 0.009373469, 0.0001770482, 0.005903777, 0.0001590381, 6.350633E-05
PRX, 16647146, 2, 0.74, 0, 0.7, 0, 0.49, 0, 2.37, 0, 0, 180, 0.49
IMU, 16666550, 7.601304E-05, 0.0007594104, 0.000375673, 0.222747, -0.06633487, -9.791714, 0, 0, 36.60378, 1, 1, 1000, 1000
RFND, 16696407, 0.2, 25, 0, 0
IMU, 16706540, -0.0002340772, -0.0009736596, -0.0008575073, 0.2227052, -0.07191892, -9.812395, 0, 0, 36.6041, 1, 1, 1000, 1000
MAG, 16746475, 316, 501, 333, 0, 0, 0, 0, 0, 0, 1, 16746466
RFND, 16746505, 0.2, 25, 0, 0
BARO, 16746542, 0.04797644, 992.866, 34.68, -0.2610483, 16746, 0, 34.61
CTUN, 16746554, 0, 0, 0, 0.2240172, 0.06644263, 0.06644263, 0.04, 0, 0.19, 0, 0, 0
DU32, 16746594, 7, 50389208
ATT, 16746731, 0, 0.88, 0, 0.55, 0.04, 0.06, 0, 1
RATE, 16746737, -3.973297, -0.04287531, -0.009268406, -2.48601, -0.1120716, -0.005533571, 0.01760006, 0.07201875, 5.429426E-05, 40.91003, 0.6111145, 0
NKF1, 16746745, 0.88, 0.55, 0.06, -0.009311713, -0.001372309, 0.001010124, 0, 0, 0, -0.06644263, -0.01, 0, 0
NKF2, 16746745, 0, 0, 0, 0, 0, 0, 0, 0, 0, 0, 0, 0, 0
NKF3, 16746745, 0, 0, 0, -0.01, 0, 0, 0, 0, 0, 0, 0
NKF4, 16746745, 0, 0, 0, 0, 0, 2.305805E-06, 0, 0, 0, 19, 229, 0, 0
NKF5, 16746745, 0, 0, 0, 0, 0.19, 0.13, 0, 0.19, 0.5, 3.53202E-05, 0.0003489661, 0.000424718
NKQ1, 16746745, 0.9999264, 0.00315385, 0.01170782, 0.0005015823
AHR2, 16746884, 0.87, 0.53, 0.04, 0.04, 0, 0, 0.9999603, 0.007600824, 0.004637176, 0.0003249623
MOTB, 16746892, 1, 1, 0, 1
RCIN, 16746897, 0, 0, 0, 0, 0, 0, 0, 0, 0, 0, 0, 0, 0, 0
RCOU, 16746903, 1101, 1101, 1101, 1101, 0, 0, 0, 0, 0, 0, 0, 0, 0, 0
VIBE, 16746911, 0.01986219, 0.02166348, 0.03210079, 0, 0, 0
CTRL, 16746918, 0.009372564, 0.0001675273, 0.005872102, 0.0001778754, 7.134754E-05
PRX, 16746950, 2, 0.74, 0, 0.7, 0, 3.6, 0, 2.36, 0, 0, 90, 0.7
IMU, 16746958, -0.0009363162, -0.001976812, 0.001252679, 0.2306349, -0.06129985, -9.802648, 0, 0, 36.60464, 1, 1, 1000, 1000
IMU, 16787110, 0.0005879579, 0.0002479872, -0.001606079, 0.2225375, -0.05781086, -9.782699, 0, 0, 36.60562, 1, 1, 1000, 1000
RFND, 16796498, 0.2, 25, 0, 0
IMU, 16826569, -0.0008160181, -0.002121346, 0.0004796773, 0.235557, -0.05772157, -9.791514, 0, 0, 36.60654, 1, 1, 1000, 1000
MAG, 16846416, 320, 495, 333, 0, 0, 0, 0, 0, 0, 1, 16846408
RFND, 16846445, 0.2, 25, 0, 0
BARO, 16846482, 0.01693286, 992.8694, 34.68, -0.3421849, 16846, 0, 34.61
CTUN, 16846494, 0, 0, 0, 0.2240172, 0.06644934, 0.06644934, 0.01, 0, 0.19, 0, 0, 0
ATT, 16846679, 0, 0.88, 0, 0.54, 0.04, 0.05, 0, 1
RATE, 16846685, -3.977032, -0.01812406, -0.009389933, -2.472023, -0.04231074, -0.005834986, 0.01971062, 0.04122961, 6.891085E-05, 52.53889, 2.320862, 0
NKF1, 16846693, 0.88, 0.54, 0.05, -0.009408212, -0.001223398, 0.001297257, 0, 0, 0, -0.06644934, -0.01, 0, 0
NKF2, 16846693, 0, 0, 0, 0, 0, 0, 0, 0, 0, 0, 0, 0, 0
NKF3, 16846693, 0, 0, 0, -0.01, 0, 0, 0, 0, 0, 0, 0
NKF4, 16846693, 0, 0, 0, 0, 0, 2.611025E-06, 0, 0, 0, 19, 229, 0, 0
NKF5, 16846693, 0, 0, 0, 0, 0.19, 0.13, 0, 0.19, 0.5, 3.532687E-05, 0.0003300128, 0.0004179559
NKQ1, 16846693, 0.9999267, 0.003161882, 0.01167967, 0.0004798806
AHR2, 16846736, 0.87, 0.52, 0.03, 0.01, 0, 0, 0.9999604, 0.007604821, 0.004609348, 0.0003033229
MOTB, 16846743, 1, 1, 0, 1
RCIN, 16846748, 0, 0, 0, 0, 0, 0, 0, 0, 0, 0, 0, 0, 0, 0
RCOU, 16846753, 1101, 1101, 1101, 1101, 0, 0, 0, 0, 0, 0, 0, 0, 0, 0
VIBE, 16846762, 0.01946252, 0.02013067, 0.03510666, 0, 0, 0
CTRL, 16846858, 0.009382219, 0.0001616886, 0.005836548, 0.0001989283, 8.725846E-05
PRX, 16846891, 2, 0.73, 0, 0.71, 0, 3.6, 0, 2.35, 0, 0, 90, 0.71
IMU, 16867243, -0.0007509192, 2.235099E-05, 0.0002376999, 0.229789, -0.06431918, -9.781128, 0, 0, 36.60721, 1, 1, 1000, 1000
RFND, 16896455, 0.2, 25, 0, 0
IMU, 16906589, -0.0005765223, 7.899083E-05, 0.0004878584, 0.2330167, -0.05983933, -9.808274, 0, 0, 36.60767, 1, 1, 1000, 1000
EV, 16931451, 57
MAG, 16947099, 319, 495, 328, 0, 0, 0, 0, 0, 0, 1, 16947090
RFND, 16947131, 0.2, 25, 0, 0
BARO, 16947170, 0.01693286, 992.8694, 34.68, -0.2680449, 16947, 0, 34.61
CTUN, 16947183, 0, 0, 0, 0.2240172, 0.066435, 0.066435, 0.01, 0, 0.19, 0, 0, 0
ATT, 16947934, 0, 0.88, 0, 0.54, 0.04, 0.06, 0, 1
RATE, 16947944, -3.965827, -0.01658618, -0.009631003, -2.462746, -0.03963705, -0.005754696, 0.01893975, 0.04167214, 9.903848E-07, 57.06626, 1.132107, 0
NKF1, 16947954, 0.88, 0.54, 0.06, -0.009614665, -0.001429644, 0.001409043, 0, 0, 0, -0.066435, -0.01, 0, 0
NKF2, 16947954, 0, 0, 0, 0, 0, 0, 0, 0, 0, 0, 0, 0, 0
NKF3, 16947954, 0, 0, 0, -0.01, 0, 0, 0, 0, 0, 0, 0
NKF4, 16947954, 0, 0, 0, 0, 0, 3.032653E-06, 0, 0, 0, 19, 229, 0, 0
NKF5, 16947954, 0, 0, 0, 0, 0.19, 0.13, 0, 0.19, 0.5, 3.534132E-05, 0.0003082585, 0.0003574849
NKQ1, 16947954, 0.999927, 0.003139937, 0.01166177, 0.000500564
AHR2, 16948001, 0.86, 0.52, 0.04, 0.01, 0, 0, 0.9999607, 0.007578173, 0.004592506, 0.0003242144
MOTB, 16948010, 1, 1, 0, 1
RCIN, 16948015, 0, 0, 0, 0, 0, 0, 0, 0, 0, 0, 0, 0, 0, 0
RCOU, 16948021, 1104, 1104, 1104, 1104, 0, 0, 0, 0, 0, 0, 0, 0, 0, 0
VIBE, 16948030, 0.01970728, 0.01971995, 0.03326863, 0, 0, 0
CTRL, 16948037, 0.009347825, 0.0001547811, 0.005811895, 0.0001866676, 7.353706E-05
PRX, 16948069, 2, 0.74, 0, 0.71, 0, 0.47, 0, 2.33, 0, 0, 180, 0.47
IMU, 16948078, -0.0004780792, -0.0007120598, 0.0007230159, 0.2188541, -0.05652897, -9.808131, 0, 0, 36.6082, 1, 1, 1000, 1000
IMU, 16987194, -0.0004946659, 0.001079759, -3.524182E-05, 0.2336483, -0.05655311, -9.784685, 0, 0, 36.60886, 1, 1, 1000, 1000
RFND, 16996530, 0.2, 25, 0, 0
IMU, 17026512, 0.00111186, -0.001286259, 0.001504908, 0.234713, -0.05722414, -9.809157, 0, 0, 36.60927, 1, 1, 1000, 1000
MAG, 17046989, 318, 498, 334, 0, 0, 0, 0, 0, 0, 1, 17046981
RFND, 17047019, 0.2, 25, 0, 0
BARO, 17047058, -0.01693286, 992.8731, 34.68, -0.1628604, 17047, 0, 34.61
CTUN, 17047071, 0, 0, 0, 0.2240172, 0.06643975, 0.06643975, -0.01, 0, 0.19, 0, 0, 0
ATT, 17047690, 0, 0.88, 0, 0.54, 0.05, 0.06, 0, 1
RATE, 17047699, -3.966239, -0.03225857, -0.009098161, -2.46047, 0.004435128, -0.006036269, 0.01892337, 0.02860804, -5.907043E-05, 41.93674, 0.9305954, 0
NKF1, 17047710, 0.88, 0.54, 0.06, -0.009533596, -0.001262679, 0.001035475, 0, 0, 0, -0.06643975, -0.01, 0, 0
NKF2, 17047710, 0, 0, 0, 0, 0, 0, 0, 0, 0, 0, 0, 0, 0
NKF3, 17047710, 0, 0, 0, -0.01, 0, 0, 0, 0, 0, 0, 0
NKF4, 17047710, 0, 0, 0, 0, 0, 3.443291E-06, 0, 0, 0, 19, 229, 0, 0
NKF5, 17047710, 0, 0, 0, 0, 0.19, 0.13, 0, 0.19, 0.5, 3.558029E-05, 0.0002929758, 0.0003703039
NKQ1, 17047710, 0.999927, 0.003140605, 0.01165709, 0.0005349024
AHR2, 17047757, 0.86, 0.52, 0.04, -0.01, 0, 0, 0.9999607, 0.007574534, 0.004589646, 0.0003585443
MOTB, 17047766, 1, 1, 0, 1
RCIN, 17047843, 0, 0, 0, 0, 0, 0, 0, 0, 0, 0, 0, 0, 0, 0
RCOU, 17047850, 1128, 1128, 1128, 1128, 0, 0, 0, 0, 0, 0, 0, 0, 0, 0
VIBE, 17047858, 0.02119891, 0.01749069, 0.0328259, 0, 0, 0
CTRL, 17047864, 0.009355337, 0.0001874886, 0.005800901, 0.000203485, 6.281259E-05
PRX, 17047896, 2, 0.74, 0, 0.7, 0, 0.48, 0, 2.33, 0, 0, 180, 0.48
IMU, 17066622, -0.001057948, 0.0005881832, 0.0004048719, 0.2183877, -0.07478449, -9.791354, 0, 0, 36.60928, 1, 1, 1000, 1000
RFND, 17096513, 0.2, 25, 0, 0
IMU, 17106611, -0.0003312725, 0.0006412617, 0.001362657, 0.2301241, -0.05810393, -9.794948, 0, 0, 36.60919, 1, 1, 1000, 1000
MAG, 17146882, 313, 497, 331, 0, 0, 0, 0, 0, 0, 1, 17146759
RFND, 17146913, 0.2, 25, 0, 0
BARO, 17146952, -0.05079858, 992.8766, 34.68, -0.1530544, 17146, 0, 34.61
CTUN, 17146966, 0, 0, 0, 0.2240172, 0.06647358, 0.06647358, -0.05, 0, 0.19, 0, 0, 0
ATT, 17147114, 0, 0.87, 0, 0.54, 0.05, 0.06, 0, 1
RATE, 17147121, -3.957749, -0.02748399, -0.009194203, -2.466077, 0.03417115, -0.006087613, 0.01892219, -0.01438519, -1.801975E-05, 35.70745, 0.3324509, 0
NKF1, 17147128, 0.87, 0.54, 0.06, -0.009857676, -0.001478791, 0.0008816654, 0, 0, 0, -0.06647358, -0.01, 0, 0
NKF2, 17147128, 0, 0, 0, 0, 0, 0, 0, 0, 0, 0, 0, 0, 0
NKF3, 17147128, 0, 0, 0, -0.01, 0, 0, 0, 0, 0, 0, 0
NKF4, 17147128, 0, 0, 0, 0, 0, 3.912668E-06, 0, 0, 0, 19, 229, 0, 0
NKF5, 17147128, 0, 0, 0, 0, 0.19, 0.13, 0, 0.19, 0.5, 3.547359E-05, 0.0002712372, 0.0002968633
NKQ1, 17147128, 0.9999269, 0.003124648, 0.01166664, 0.0005481765
AHR2, 17147174, 0.86, 0.52, 0.04, -0.05, 0, 0, 0.9999608, 0.007555679, 0.004602962, 0.0003718489
MOTB, 17147182, 1, 1, 0, 1
RCIN, 17147186, 0, 0, 0, 0, 0, 0, 0, 0, 0, 0, 0, 0, 0, 0
RCOU, 17147192, 1152, 1152, 1152, 1152, 0, 0, 0, 0, 0, 0, 0, 0, 0, 0
VIBE, 17147200, 0.01938549, 0.0197168, 0.03101068, 0, 0, 0
CTRL, 17147207, 0.009339599, 0.0001669004, 0.005807632, 0.0002016064, 5.457036E-05
PRX, 17147549, 2, 0.73, 0, 0.71, 0, 0.48, 0, 2.38, 0, 0, 180, 0.48
IMU, 17147562, -0.0006681718, 0.0005768738, -0.0002553684, 0.2246351, -0.06015422, -9.799971, 0, 0, 36.60912, 1, 1, 1000, 1000
IMU, 17187362, 0.0001199639, 0.0001626433, 0.0005228779, 0.22752, -0.06757538, -9.787928, 0, 0, 36.60909, 1, 1, 1000, 1000
RFND, 17197058, 0.2, 25, 0, 0
IMU, 17226671, -0.0008608231, -0.000240295, -0.0005361095, 0.2338291, -0.05510208, -9.797905, 0, 0, 36.60909, 1, 1, 1000, 1000
MAG, 17246750, 321, 498, 333, 0, 0, 0, 0, 0, 0, 1, 17246742
RFND, 17246877, 0.2, 25, 0, 0
BARO, 17246919, -0.03386572, 992.8748, 34.68, -0.1972868, 17246, 0, 34.61
CTUN, 17246933, 0, 0, 0, 0.2240172, 0.066553, 0.066553, -0.03, 0, 0.19, 0, 0, 0
ATT, 17247161, 0, 0.87, 0, 0.54, 0.05, 0.06, 0, 1
RATE, 17247167, -3.954177, -0.005829907, -0.009392116, -2.475007, -0.0239008, -0.005706756, 0.01897192, 0.02575383, 8.485196E-05, 24.69071, 0.0415802, 0
NKF1, 17247175, 0.87, 0.54, 0.06, -0.009481392, -0.001467472, 0.0006096472, 0, 0, 0, -0.066553, -0.01, 0, 0
NKF2, 17247175, 0, 0, 0, 0, 0, 0, 0, 0, 0, 0, 0, 0, 0
NKF3, 17247175, 0, 0, 0, -0.01, 0, 0, 0, 0, 0, 0, 0
NKF4, 17247175, 0, 0, 0, 0, 0, 4.455312E-06, 0, 0, 0, 19, 229, 0, 0
NKF5, 17247175, 0, 0, 0, 0, 0.19, 0.13, 0, 0.19, 0.5, 3.600658E-05, 0.0002658421, 0.0003516221
NKQ1, 17247175, 0.9999268, 0.003116061, 0.01168454, 0.0005440798
AHR2, 17247218, 0.86, 0.52, 0.04, -0.03, 0, 0, 0.9999608, 0.007544197, 0.004624336, 0.0003676996
MOTB, 17247226, 1, 1, 0, 1
RCIN, 17247230, 0, 0, 0, 0, 0, 0, 0, 0, 0, 0, 0, 0, 0, 0
RCOU, 17247236, 1176, 1176, 1176, 1176, 0, 0, 0, 0, 0, 0, 0, 0, 0, 0
VIBE, 17247244, 0.03061434, 0.03028231, 0.03817461, 0, 0, 0
CTRL, 17247251, 0.009326312, 0.0001613723, 0.00583582, 0.0001841622, 5.373112E-05
PRX, 17247281, 2, 0.74, 0, 0.7, 0, 3.6, 0, 2.33, 0, 0, 90, 0.7
IMU, 17266619, 0.0007510693, -7.865761E-05, 0.00225209, 0.2183861, -0.06345623, -9.780409, 0, 0, 36.60907, 1, 1, 1000, 1000
RFND, 17296535, 0.2, 25, 0, 0
IMU, 17306736, 0.0009789111, -0.0006182494, -2.981681E-05, 0.2311013, -0.06648883, -9.806238, 0, 0, 36.60928, 1, 1, 1000, 1000
MAG, 17347025, 315, 495, 331, 0, 0, 0, 0, 0, 0, 1, 17347017
RFND, 17347057, 0.2, 25, 0, 0
BARO, 17347095, -0.03386572, 992.8752, 34.68, -0.1953935, 17347, 0, 34.61
CTUN, 17347108, 0, 0, 0, 0.2240172, 0.06659818, 0.06659818, -0.03, 0, 0.19, 0, 0, 0
ATT, 17347214, 0, 0.87, 0, 0.54, 0.05, 0.07, 0, 1
RATE, 17347220, -3.961138, 0.01818963, -0.009692826, -2.463854, -0.03083735, -0.005661522, 0.01893555, 0.2021215, -0.0004004853, 37.13892, -1.032925, 0
NKF1, 17347227, 0.87, 0.54, 0.07, -0.01036362, -0.001874996, 0.0009170104, 0, 0, 0, -0.06659818, -0.01, 0, 0
NKF2, 17347227, 0, 0, 0, 0, 0, 0, 0, 0, 0, 0, 0, 0, 0
NKF3, 17347227, 0, 0, 0, -0.01, 0, 0, 0, 0, 0, 0, 0
NKF4, 17347227, 0, 0, 0, 0, 0, 4.946915E-06, 0, 0, 0, 19, 229, 0, 0
NKF5, 17347227, 0, 0, 0, 0, 0.19, 0.13, 0, 0.19, 0.5, 3.56718E-05, 0.0002399911, 0.0002565882
NKQ1, 17347227, 0.9999269, 0.003126395, 0.01166873, 0.0005923389
AHR2, 17347272, 0.86, 0.52, 0.05, -0.03, 0, 0, 0.9999608, 0.007552093, 0.00461106, 0.0004159452
MOTB, 17347280, 1, 1, 0, 1
RCIN, 17347284, 0, 0, 0, 0, 0, 0, 0, 0, 0, 0, 0, 0, 0, 0
RCOU, 17347290, 1199, 1199, 1199, 1199, 0, 0, 0, 0, 0, 0, 0, 0, 0, 0
VIBE, 17347298, 0.07215273, 0.1057918, 0.089506, 0, 0, 0
CTRL, 17347305, 0.009330873, 0.000203871, 0.005816648, 0.0002077222, 9.763308E-05
PRX, 17347337, 2, 0.74, 0, 0.71, 0, 3.6, 0, 2.38, 0, 0, 90, 0.71
IMU, 17347344, 0.0001283681, -0.0005569322, 0.003523371, 0.2050914, -0.07723664, -9.786633, 0, 0, 36.61018, 1, 1, 1000, 1000
IMU, 17387182, -0.001669899, 0.002159245, 0.02241249, 0.1808459, -0.03434252, -9.815758, 0, 0, 36.61148, 1, 1, 1000, 1000
RFND, 17397071, 0.2, 25, 0, 0
IMU, 17426693, 0.000481643, 0.006669637, -0.01238078, 0.1909913, -0.01493222, -9.796839, 0, 0, 36.61258, 1, 1, 1000, 1000
MAG, 17447019, 310, 494, 335, 0, 0, 0, 0, 0, 0, 1, 17447011
RFND, 17447050, 0.2, 25, 0, 0
BARO, 17447089, 0.01128857, 992.8701, 34.68, -0.09184968, 17447, 0, 34.61
CTUN, 17447104, 0, 0, 0, 0.2240172, 0.06670398, 0.06670398, 0.01, 0, 0.19, 0, 0, 0
ATT, 17447374, 0, 0.87, 0, 0.55, 0.07, 0.08, 0, 1
RATE, 17447381, -3.942366, -0.1875886, -0.008322083, -2.497036, 0.1815159, -0.005755975, 0.01916394, 1.11159, -6.049553E-05, -6.769675, 1.867771, 0
NKF1, 17447390, 0.87, 0.55, 0.08, -0.01024314, -0.002617864, -0.0001671525, 0, 0, 0, -0.06670398, -0.01, 0, 0
NKF2, 17447390, 0, 0, 0, 0, 0, 0, 0, 0, 0, 0, 0, 0, 0
NKF3, 17447390, 0, 0, 0, -0.01, 0, 0, 0, 0, 0, 0, 0
NKF4, 17447390, 0, 0, 0, 0, 0, 5.605143E-06, 0, 0, 0, 19, 229, 0, 0
NKF5, 17447390, 0, 0, 0, 0, 0.19, 0.13, 0, 0.19, 0.5, 3.664427E-05, 0.0002490696, 0.000374685
NKQ1, 17447390, 0.999926, 0.00307145, 0.01176049, 0.0007236495
AHR2, 17447437, 0.85, 0.53, 0.06, 0.01, 0, 0, 0.9999607, 0.007496471, 0.004707306, 0.0005471745
MOTB, 17447444, 1, 1, 0, 1
RCIN, 17447449, 0, 0, 0, 0, 0, 0, 0, 0, 0, 0, 0, 0, 0, 0
RCOU, 17447454, 1235, 1231, 1221, 1245, 0, 0, 0, 0, 0, 0, 0, 0, 0, 0
VIBE, 17447463, 0.4537086, 0.3876694, 0.4520546, 0, 0, 0
CTRL, 17447470, 0.00929301, 0.0004382529, 0.005951632, 0.0005475691, 0.0002751393
PRX, 17447500, 2, 0.74, 0, 0.7, 0, 0.48, 0, 2.34, 0, 0, 180, 0.48
IMU, 17466676, 0.003262958, -0.00211698, 0.009169543, 0.3222476, -0.1176958, -9.811983, 0, 0, 36.61375, 1, 1, 1000, 1000
RFND, 17497071, 0.2, 25, 0, 0
IMU, 17507213, -0.003739401, -0.001423959, 0.002944313, 0.26462, -0.01623802, -9.794956, 0, 0, 36.61412, 1, 1, 1000, 1000
MAG, 17546685, 312, 493, 333, 0, 0, 0, 0, 0, 0, 1, 17546676
RFND, 17546716, 0.2, 25, 0, 0
BARO, 17546754, 0.03951001, 992.8667, 34.68, 0.0686699, 17546, 0, 34.61
CTUN, 17546858, 0, 0, 0, 0.2240172, 0.06682382, 0.06682382, 0.03, 0, 0.19, 0, 0, 0
ATT, 17546964, 0, 0.85, 0, 0.58, 0.04, 0.06, 0, 1
RATE, 17546970, -3.851029, -0.3438618, -0.00711, -2.653649, 0.7083071, -0.009369209, 0.01978106, -0.5504909, 0.001184949, 12.94744, -2.134895, 0
NKF1, 17546977, 0.85, 0.58, 0.06, -0.009144939, -0.0009082498, 0.0003196898, 0, 0, 0, -0.06682382, -0.01, 0, 0
NKF2, 17546977, 0, 0, 0, 0, 0, 0, 0, 0, 0, 0, 0, 0, 0
NKF3, 17546977, 0, 0, 0, -0.01, 0, 0, 0, 0, 0, 0, 0
NKF4, 17546977, 0, 0, 0, 0, 0, 6.112665E-06, 0, 0, 0, 19, 229, 0, 0
NKF5, 17546977, 0, 0, 0, 0, 0.19, 0.13, 0, 0.19, 0.5, 3.850866E-05, 0.0003580185, 0.0007034531
NKQ1, 17546977, 0.9999234, 0.00292836, 0.01201424, 0.0004910886
AHR2, 17547022, 0.84, 0.56, 0.04, 0.03, 0, 0, 0.9999606, 0.00735451, 0.004967299, 0.0003143734
MOTB, 17547030, 1, 1, 0, 1
RCIN, 17547034, 0, 0, 0, 0, 0, 0, 0, 0, 0, 0, 0, 0, 0, 0
RCOU, 17547040, 1235, 1239, 1221, 1248, 0, 0, 0, 0, 0, 0, 0, 0, 0, 0
VIBE, 17547049, 0.5552131, 0.5086359, 0.8191705, 0, 0, 0
CTRL, 17547055, 0.009183154, 0.0008541066, 0.006163974, 0.0009421759, 0.000426305
PRX, 17547087, 2, 0.74, 0, 0.7, 0, 0.48, 0, 2.35, 0, 0, 180, 0.48
IMU, 17547095, -0.006190768, 0.01234575, -0.009612202, 0.2939849, -0.01614435, -9.773846, 0, 0, 36.61422, 1, 1, 1000, 1000
IMU, 17586732, 0.0104421, -6.097319E-05, -0.01447566, 0.2576649, -0.09390172, -9.8449, 0, 0, 36.61414, 1, 1, 1000, 1000
RFND, 17596529, 0.2, 25, 0, 0
IMU, 17626602, -6.125876E-06, -0.000106326, -0.0009440696, 0.2254626, -0.06301554, -9.775393, 0, 0, 36.61415, 1, 1, 1000, 1000
MAG, 17646518, 311, 488, 331, 0, 0, 0, 0, 0, 0, 1, 17646510
RFND, 17646550, 0.2, 25, 0, 0
BARO, 17646588, 0.1326407, 992.8567, 34.69, 0.2299081, 17646, 0, 34.61
CTUN, 17646601, 0, 0, 0, 0.2240172, 0.06692997, 0.06692997, 0.13, 0, 0.19, 0, 0, 0
ATT, 17646899, 0, 0.86, 0, 0.58, 0.04, 0.05, 0, 1
RATE, 17646909, -3.886737, 0.2726407, -0.009874132, -2.640385, -0.1809042, -0.005676119, 0.01988531, -0.216105, 0.0004988899, 16.3429, -0.1351357, 0
NKF1, 17646917, 0.86, 0.58, 0.05, -0.009484455, -0.00259414, 0.0004035283, 0, 0, 0, -0.06692997, -0.01, 0, 0
NKF2, 17646917, 0, 0, 0, 0, 0, 0, 0, 0, 0, 0, 0, 0, 0
NKF3, 17646917, 0, 0, 0, -0.01, 0, 0, 0, 0, 0, 0, 0
NKF4, 17646917, 0, 0, 0, 0, 0, 6.878413E-06, 0, 0, 0, 19, 229, 0, 0
NKF5, 17646917, 0, 0, 0, 0, 0.19, 0.13, 0, 0.19, 0.5, 3.75187E-05, 0.0002410395, 0.00041957
NKQ1, 17646917, 0.9999235, 0.002992056, 0.01199818, 0.0004240847
AHR2, 17646965, 0.84, 0.56, 0.03, 0.13, 0, 0, 0.9999602, 0.007410479, 0.004951708, 0.0002470001
MOTB, 17647354, 1, 1, 0, 1
RCIN, 17647362, 0, 0, 0, 0, 0, 0, 0, 0, 0, 0, 0, 0, 0, 0
RCOU, 17647368, 1239, 1231, 1221, 1247, 0, 0, 0, 0, 0, 0, 0, 0, 0, 0
VIBE, 17647377, 0.4496575, 0.5729418, 0.7173743, 0, 0, 0
CTRL, 17647384, 0.009195697, 0.001167258, 0.006253187, 0.001110862, 0.0004921978
PRX, 17647416, 2, 0.74, 0, 0.71, 0, 0.46, 0, 2.37, 0, 0, 180, 0.46
IMU, 17666621, -0.009550166, 0.001548841, 0.009520827, 0.1978628, -0.05660237, -9.812572, 0, 0, 36.61415, 1, 1, 1000, 1000
RFND, 17696542, 0.2, 25, 0, 0
IMU, 17707013, -0.003471724, -0.01283332, 0.002486381, 0.3016909, -0.04178873, -9.786524, 0, 0, 36.61415, 1, 1, 1000, 1000
MAG, 17746505, 313, 496, 328, 0, 0, 0, 0, 0, 0, 1, 17746497
RFND, 17746536, 0.2, 25, 0, 0
BARO, 17746574, 0.2257715, 992.8465, 34.69, 0.409787, 17746, 0, 34.61
CTUN, 17746587, 0, 0, 0, 0.2240172, 0.06708344, 0.06708344, 0.22, 0, 0.19, 0, 0, 0
DU32, 17746625, 7, 33611992
ATT, 17746842, 0, 0.86, 0, 0.59, 0.05, 0.06, 0, 1
RATE, 17746866, -3.893933, 0.7614037, -0.01292638, -2.659741, -0.4217452, -0.0005778172, 0.0200745, -0.1301016, 0.0001337983, -9.292004, -6.899548, 0
NKF1, 17746875, 0.86, 0.59, 0.06, -0.01178283, -0.003238607, -0.0002294322, 0, 0, 0, -0.06708344, -0.01, 0, 0
NKF2, 17746875, 0, 0, 0, 0, 0, 0, 0, 0, 0, 0, 0, 0, 0
NKF3, 17746875, 0, 0, 0, -0.02, 0, 0, 0, 0, 0, 0, 0
NKF4, 17746875, 0, 0, 0, 0, 0, 7.495959E-06, 0, 0, 0, 19, 229, 0, 0
NKF5, 17746875, 0, 0, 0, 0, 0.19, 0.13, 0, 0.19, 0.5, 4.013408E-05, 0.0003797972, 0.000816812
NKQ1, 17746875, 0.9999229, 0.003002795, 0.01203872, 0.0005612292
AHR2, 17746921, 0.84, 0.56, 0.04, 0.22, 0, 0, 0.9999603, 0.007385384, 0.004972044, 0.0003838782
MOTB, 17746929, 1, 1, 0, 1
RCIN, 17746934, 0, 0, 0, 0, 0, 0, 0, 0, 0, 0, 0, 0, 0, 0
RCOU, 17746940, 1243, 1222, 1221, 1244, 0, 0, 0, 0, 0, 0, 0, 0, 0, 0
VIBE, 17746948, 0.3628105, 0.4696559, 0.583656, 0, 0, 0
CTRL, 17746954, 0.009199928, 0.001882882, 0.006408972, 0.001886758, 0.0004659843
PRX, 17746985, 2, 0.73, 0, 0.7, 0, 0.46, 0, 2.34, 0, 0, 180, 0.46
IMU, 17746994, 0.01309906, -0.007376117, -0.00227504, 0.10701, -0.06187075, -9.730389, 0, 0, 36.61411, 1, 1, 1000, 1000
IMU, 17786906, -0.003827972, 0.003941558, 0.0140387, 0.1339982, 0.009012011, -9.777262, 0, 0, 36.61409, 1, 1, 1000, 1000
RFND, 17796410, 0.2, 25, 0, 0
IMU, 17826589, -0.005186817, -0.008805998, 0.01272754, 0.1963835, -0.1243917, -9.76721, 0, 0, 36.61422, 1, 1, 1000, 1000
MAG, 17846947, 312, 495, 334, 0, 0, 0, 0, 0, 0, 1, 17846939
RFND, 17846978, 0.2, 25, 0, 0
BARO, 17847015, 0.1439293, 992.8553, 34.69, 0.571394, 17847, 0, 34.61
CTUN, 17847029, 0, 0, 0, 0.2240172, 0.06725444, 0.06725444, 0.14, 0, 0.19, 0, 0, 0
ATT, 17847191, 0, 0.85, 0, 0.59, 0.06, 0.07, 0, 1
RATE, 17847196, -3.854169, -0.06735429, -0.007932881, -2.68031, 0.5155965, -0.008110085, 0.02003336, 0.03608467, 0.0001275482, 52.07555, -7.253265, 0
NKF1, 17847204, 0.85, 0.59, 0.07, -0.009813445, -0.0001112268, 0.001285816, 0, 0, 0, -0.06725444, -0.01, 0, 0
NKF2, 17847204, 0, 0, 0, 0, 0, 0, 0, 0, 0, 0, 0, 0, 0
NKF3, 17847204, 0, 0, 0, -0.02, 0, 0, 0, 0, 0, 0, 0
NKF4, 17847204, 0, 0, 0, 0, 0, 8.248517E-06, 0, 0, 0, 19, 229, 0, 0
NKF5, 17847204, 0, 0, 0, 0, 0.19, 0.13, 0, 0.19, 0.5, 3.861055E-05, 0.0002410819, 0.0004844106
NKQ1, 17847204, 0.9999226, 0.002921197, 0.01208365, 0.0006493047
AHR2, 17847250, 0.83, 0.57, 0.05, 0.14, 0, 0, 0.999961, 0.007272203, 0.004997014, 0.0004723126
MOTB, 17847257, 1, 1, 0, 1
RCIN, 17847261, 0, 0, 0, 0, 0, 0, 0, 0, 0, 0, 0, 0, 0, 0
RCOU, 17847267, 1235, 1235, 1221, 1248, 0, 0, 0, 0, 0, 0, 0, 0, 0, 0
VIBE, 17847275, 0.4106793, 0.5024772, 0.6489545, 0, 0, 0
CTRL, 17847282, 0.009186851, 0.001893245, 0.006432914, 0.00268293, 0.0004027383
PRX, 17847312, 2, 0.74, 0, 0.7, 0, 3.6, 0, 2.34, 0, 0, 90, 0.7
IMU, 17866507, 0.001742831, 0.004661594, -0.007496492, 0.2227434, -0.154783, -9.812223, 0, 0, 36.61421, 1, 1, 1000, 1000
RFND, 17896435, 0.2, 25, 0, 0
IMU, 17907742, 0.003102754, 0.009380016, 0.0006157914, 0.3815943, 0.07699253, -9.752934, 0, 0, 36.61411, 1, 1, 1000, 1000
MAG, 17946529, 314, 495, 333, 0, 0, 0, 0, 0, 0, 1, 17946520
RFND, 17946560, 0.2, 25, 0, 0
BARO, 17946599, 0.05362073, 992.8652, 34.69, 0.4842197, 17946, 0, 34.61
CTUN, 17946611, 0, 0, 0, 0.2240172, 0.06718332, 0.06718332, 0.05, 0, 0.19, 0, 0, 0
ATT, 17946949, 0, 0.85, 0, 0.59, 0.07, 0.08, 0, 1
RATE, 17946957, -3.869594, -0.1094291, -0.007184185, -2.669905, -0.1271893, -0.008535532, 0.02005038, 0.2744089, -0.00023187, 121.4707, -7.422066, 0
NKF1, 17946965, 0.85, 0.59, 0.08, -0.01129005, -0.004921732, 0.002999277, 0, 0, 0, -0.06718332, -0.01, 0, 0
NKF2, 17946965, 0, 0, 0, 0, 0, 0, 0, 0, 0, 0, 0, 0, 0
NKF3, 17946965, 0, 0, 0, -0.02, 0, 0, 0, 0, 0, 0, 0
NKF4, 17946965, 0, 0, 0, 0, 0, 8.980672E-06, 0, 0, 0, 19, 229, 0, 0
NKF5, 17946965, 0, 0, 0, 0, 0.19, 0.13, 0, 0.19, 0.5, 4.198951E-05, 0.0004040762, 0.000918379
NKQ1, 17946965, 0.9999226, 0.002945872, 0.0120707, 0.000702421
AHR2, 17947011, 0.83, 0.56, 0.06, 0.05, 0, 0, 0.9999611, 0.007280179, 0.004964039, 0.0005254298
MOTB, 17947018, 1, 1, 0, 1
RCIN, 17947024, 0, 0, 0, 0, 0, 0, 0, 0, 0, 0, 0, 0, 0, 0
RCOU, 17947029, 1233, 1235, 1221, 1247, 0, 0, 0, 0, 0, 0, 0, 0, 0, 0
VIBE, 17947038, 0.5801616, 0.6528116, 0.8015411, 0, 0, 0
CTRL, 17947044, 0.00918809, 0.001991674, 0.006390302, 0.002722093, 0.0003478737
PRX, 17947075, 2, 0.74, 0, 0.7, 0, 3.6, 0, 2.35, 0, 0, 90, 0.7
IMU, 17947083, -0.002099461, -0.002233637, 0.004785008, 0.1100639, -0.1874812, -9.724375, 0, 0, 36.61356, 1, 1, 1000, 1000
IMU, 17986725, 0.0001739438, -0.004465644, 0.002679013, 0.3163158, -0.03918205, -9.835276, 0, 0, 36.61015, 1, 1, 1000, 1000
RFND, 17996551, 0.2, 25, 0, 0
IMU, 18026885, -0.001630034, 0.001012139, -0.004332897, 0.1632492, -0.0889501, -9.702155, 0, 0, 36.60143, 1, 1, 1000, 1000
MAG, 18046499, 314, 490, 333, 0, 0, 0, 0, 0, 0, 1, 18046490
RFND, 18046530, 0.2, 25, 0, 0
BARO, 18046568, -0.1298186, 992.8853, 34.67, -0.008980572, 18046, 0, 34.61
CTUN, 18046581, 0, 0, 0, 0.2240172, 0.06681564, 0.06681564, -0.12, 0, 0.19, 0, 0, 0
ATT, 18046683, 0, 0.86, 0, 0.59, 0.07, 0.08, 0, 1
RATE, 18046689, -3.880236, -0.2015941, -0.01058104, -2.690017, 0.03458897, -0.005958419, 0.02023271, -0.04775884, 0.0001138867, 287.1789, -1.780415, 0
NKF1, 18046697, 0.86, 0.59, 0.08, -0.01159194, -0.003045865, 0.007090838, 0, 0, 0, -0.06681564, -0.01, 0, 0
NKF2, 18046697, 0, 0, 0, 0, 0, 0, 0, 0, 0, 0, 0, 0, 0
NKF3, 18046697, 0, 0, 0, -0.02, 0, 0, 0, 0, 0, 0, 0
NKF4, 18046697, 0, 0, 0, 0, 0, 9.702554E-06, 0, 0, 0, 19, 229, 0, 0
NKF5, 18046697, 0, 0, 0, 0, 0.19, 0.13, 0, 0.19, 0.5, 3.978548E-05, 0.0002447934, 0.0005553954
NKQ1, 18046697, 0.9999222, 0.002972055, 0.01209964, 0.0006976315
AHR2, 18046740, 0.83, 0.57, 0.06, -0.12, 0, 0, 0.9999609, 0.007293411, 0.00497843, 0.0005204157
MOTB, 18046747, 1, 1, 0, 1
RCIN, 18046752, 0, 0, 0, 0, 0, 0, 0, 0, 0, 0, 0, 0, 0, 0
RCOU, 18046757, 1239, 1231, 1221, 1248, 0, 0, 0, 0, 0, 0, 0, 0, 0, 0
VIBE, 18047238, 0.6209651, 0.6229924, 0.8943242, 0, 0, 0
CTRL, 18047249, 0.009130614, 0.002028263, 0.006426253, 0.002470996, 0.0003076896
PRX, 18047283, 2, 0.74, 0, 0.7, 0, 0.46, 0, 2.34, 0, 0, 180, 0.46
