FMT, 128, 89, FMT, BBnNZ, Type,Length,Name,Format,Columns
FMT, 129, 31, PARM, QNf, TimeUS,Name,Value
FMT, 130, 46, GPS, QBIHBcLLefffB, TimeUS,Status,GMS,GWk,NSats,HDop,Lat,Lng,Alt,Spd,GCrs,VZ,U
FMT, 131, 46, GPS2, QBIHBcLLefffB, TimeUS,Status,GMS,GWk,NSats,HDop,Lat,Lng,Alt,Spd,GCrs,VZ,U
FMT, 132, 46, GPSB, QBIHBcLLefffB, TimeUS,Status,GMS,GWk,NSats,HDop,Lat,Lng,Alt,Spd,GCrs,VZ,U
FMT, 193, 24, GPA, QCCCCBI, TimeUS,VDop,HAcc,VAcc,SAcc,VV,SMS
FMT, 194, 24, GPA2, QCCCCBI, TimeUS,VDop,HAcc,VAcc,SAcc,VV,SMS
FMT, 195, 24, GPAB, QCCCCBI, TimeUS,VDop,HAcc,VAcc,SAcc,VV,SMS
FMT, 133, 53, IMU, QffffffIIfBBHH, TimeUS,GyrX,GyrY,GyrZ,AccX,AccY,AccZ,EG,EA,T,GH,AH,GHz,AHz
FMT, 134, 75, MSG, QZ, TimeUS,Message
FMT, 135, 39, RCIN, QHHHHHHHHHHHHHH, TimeUS,C1,C2,C3,C4,C5,C6,C7,C8,C9,C10,C11,C12,C13,C14
FMT, 136, 39, RCOU, QHHHHHHHHHHHHHH, TimeUS,C1,C2,C3,C4,C5,C6,C7,C8,C9,C10,C11,C12,C13,C14
FMT, 137, 15, RSSI, Qf, TimeUS,RXRSSI
FMT, 139, 37, BARO, QffcfIff, TimeUS,Alt,Press,Temp,CRt,SMS,Offset,GndTemp
FMT, 140, 22, POWR, QffHB, TimeUS,Vcc,VServo,Flags,Safety
FMT, 143, 45, CMD, QHHHfffffff, TimeUS,CTot,CNum,CId,Prm1,Prm2,Prm3,Prm4,Lat,Lng,Alt
FMT, 144, 20, RAD, QBBBBBHH, TimeUS,RSSI,RemRSSI,TxBuf,Noise,RemNoise,RxErrors,Fixed
FMT, 146, 43, CAM, QIHLLeeeccC, TimeUS,GPSTime,GPSWeek,Lat,Lng,Alt,RelAlt,GPSAlt,Roll,Pitch,Yaw
FMT, 232, 43, TRIG, QIHLLeeeccC, TimeUS,GPSTime,GPSWeek,Lat,Lng,Alt,RelAlt,GPSAlt,Roll,Pitch,Yaw
FMT, 162, 30, ARSP, QffcffB, TimeUS,Airspeed,DiffPress,Temp,RawPress,Offset,U
FMT, 164, 45, CURR, QfffcHHHHHHHHHH, TimeUS,Volt,Curr,CurrTot,Temp,V1,V2,V3,V4,V5,V6,V7,V8,V9,V10
FMT, 165, 45, CUR2, QfffcHHHHHHHHHH, TimeUS,Volt,Curr,CurrTot,Temp,V1,V2,V3,V4,V5,V6,V7,V8,V9,V10
FMT, 163, 27, ATT, QccccCCCC, TimeUS,DesRoll,Roll,DesPitch,Pitch,DesYaw,Yaw,ErrRP,ErrYaw
FMT, 166, 34, MAG, QhhhhhhhhhBI, TimeUS,MagX,MagY,MagZ,OfsX,OfsY,OfsZ,MOfsX,MOfsY,MOfsZ,Health,S
FMT, 169, 14, MODE, QMBB, TimeUS,Mode,ModeNum,Rsn
FMT, 196, 17, RFND, QCBCB, TimeUS,Dist1,Orient1,Dist2,Orient2
FMT, 223, 33, DMS, IIIIIBBBBBBBBBB, TimeMS,N,Dp,RT,RS,Er,Fa,Fmn,Fmx,Pa,Pmn,Pmx,Sa,Smn,Smx
FMT, 240, 41, BCN, QBBfffffff, TimeUS,Health,Cnt,D0,D1,D2,D3,PosX,PosY,PosZ
FMT, 138, 53, IMU2, QffffffIIfBBHH, TimeUS,GyrX,GyrY,GyrZ,AccX,AccY,AccZ,EG,EA,T,GH,AH,GHz,AHz
FMT, 147, 53, IMU3, QffffffIIfBBHH, TimeUS,GyrX,GyrY,GyrZ,AccX,AccY,AccZ,EG,EA,T,GH,AH,GHz,AHz
FMT, 141, 45, AHR2, QccCfLLffff, TimeUS,Roll,Pitch,Yaw,Alt,Lat,Lng,Q1,Q2,Q3,Q4
FMT, 180, 31, POS, QLLfff, TimeUS,Lat,Lng,Alt,RelHomeAlt,RelOriginAlt
FMT, 142, 45, SIM, QccCfLLffff, TimeUS,Roll,Pitch,Yaw,Alt,Lat,Lng,Q1,Q2,Q3,Q4
FMT, 198, 51, NKF1, QccCfffffffccc, TimeUS,Roll,Pitch,Yaw,VN,VE,VD,dPD,PN,PE,PD,GX,GY,GZ
FMT, 199, 35, NKF2, QbccccchhhhhhB, TimeUS,AZbias,GSX,GSY,GSZ,VWN,VWE,MN,ME,MD,MX,MY,MZ,MI
FMT, 200, 33, NKF3, Qcccccchhhcc, TimeUS,IVN,IVE,IVD,IPN,IPE,IPD,IMX,IMY,IMZ,IYAW,IVT
FMT, 201, 35, NKF4, QcccccfbbHBHHb, TimeUS,SV,SP,SH,SM,SVT,errRP,OFN,OFE,FS,TS,SS,GPS,PI
FMT, 202, 40, NKF5, QBhhhcccCCfff, TimeUS,NI,FIX,FIY,AFI,HAGL,offset,RI,rng,Herr,eAng,eVel,ePos
FMT, 203, 51, NKF6, QccCfffffffccc, TimeUS,Roll,Pitch,Yaw,VN,VE,VD,dPD,PN,PE,PD,GX,GY,GZ
FMT, 204, 35, NKF7, QbccccchhhhhhB, TimeUS,AZbias,GSX,GSY,GSZ,VWN,VWE,MN,ME,MD,MX,MY,MZ,MI
FMT, 205, 33, NKF8, Qcccccchhhcc, TimeUS,IVN,IVE,IVD,IPN,IPE,IPD,IMX,IMY,IMZ,IYAW,IVT
FMT, 206, 35, NKF9, QcccccfbbHBHHb, TimeUS,SV,SP,SH,SM,SVT,errRP,OFN,OFE,FS,TS,SS,GPS,PI
FMT, 207, 36, NKF0, QBccCCcccccccc, TimeUS,ID,rng,innov,SIV,TR,BPN,BPE,BPD,OFH,OFL,OFN,OFE,OFD
FMT, 208, 27, NKQ1, Qffff, TimeUS,Q1,Q2,Q3,Q4
FMT, 209, 27, NKQ2, Qffff, TimeUS,Q1,Q2,Q3,Q4
FMT, 210, 51, XKF1, QccCfffffffccc, TimeUS,Roll,Pitch,Yaw,VN,VE,VD,dPD,PN,PE,PD,GX,GY,GZ
FMT, 211, 34, XKF2, QccccchhhhhhB, TimeUS,AX,AY,AZ,VWN,VWE,MN,ME,MD,MX,MY,MZ,MI
FMT, 212, 33, XKF3, Qcccccchhhcc, TimeUS,IVN,IVE,IVD,IPN,IPE,IPD,IMX,IMY,IMZ,IYAW,IVT
FMT, 213, 35, XKF4, QcccccfbbHBHHb, TimeUS,SV,SP,SH,SM,SVT,errRP,OFN,OFE,FS,TS,SS,GPS,PI
FMT, 214, 40, XKF5, QBhhhcccCCfff, TimeUS,NI,FIX,FIY,AFI,HAGL,offset,RI,rng,Herr,eAng,eVel,ePos
FMT, 215, 51, XKF6, QccCfffffffccc, TimeUS,Roll,Pitch,Yaw,VN,VE,VD,dPD,PN,PE,PD,GX,GY,GZ
FMT, 216, 34, XKF7, QccccchhhhhhB, TimeUS,AX,AY,AZ,VWN,VWE,MN,ME,MD,MX,MY,MZ,MI
FMT, 217, 33, XKF8, Qcccccchhhcc, TimeUS,IVN,IVE,IVD,IPN,IPE,IPD,IMX,IMY,IMZ,IYAW,IVT
FMT, 218, 35, XKF9, QcccccfbbHBHHb, TimeUS,SV,SP,SH,SM,SVT,errRP,OFN,OFE,FS,TS,SS,GPS,PI
FMT, 219, 36, XKF0, QBccCCcccccccc, TimeUS,ID,rng,innov,SIV,TR,BPN,BPE,BPD,OFH,OFL,OFN,OFE,OFD
FMT, 220, 27, XKQ1, Qffff, TimeUS,Q1,Q2,Q3,Q4
FMT, 221, 27, XKQ2, Qffff, TimeUS,Q1,Q2,Q3,Q4
FMT, 222, 35, XKFD, Qffffff, TimeUS,IX,IY,IZ,IVX,IVY,IVZ
FMT, 148, 34, TERR, QBLLHffHH, TimeUS,Status,Lat,Lng,Spacing,TerrH,CHeight,Pending,Loaded
FMT, 149, 18, UBX1, QBHBBH, TimeUS,Instance,noisePerMS,jamInd,aPower,agcCnt
FMT, 150, 16, UBX2, QBbBbB, TimeUS,Instance,ofsI,magI,ofsQ,magQ
FMT, 151, 18, UBY1, QBHBBH, TimeUS,Instance,noisePerMS,jamInd,aPower,agcCnt
FMT, 152, 16, UBY2, QBbBbB, TimeUS,Instance,ofsI,magI,ofsQ,magQ
FMT, 170, 42, GRAW, QIHBBddfBbB, TimeUS,WkMS,Week,numSV,sv,cpMes,prMes,doMes,mesQI,cno,lli
FMT, 171, 24, GRXH, QdHbBB, TimeUS,rcvTime,week,leapS,numMeas,recStat
FMT, 172, 41, GRXS, QddfBBBHBBBBB, TimeUS,prMes,cpMes,doMes,gnss,sv,freq,lock,cno,prD,cpD,doD,trk
FMT, 173, 63, SBFE, QIHBBdddfffff, TimeUS,TOW,WN,Mode,Err,Lat,Lng,Height,Undul,Vn,Ve,Vu,COG
FMT, 153, 19, ESC1, Qcccc, TimeUS,RPM,Volt,Curr,Temp
FMT, 154, 19, ESC2, Qcccc, TimeUS,RPM,Volt,Curr,Temp
FMT, 155, 19, ESC3, Qcccc, TimeUS,RPM,Volt,Curr,Temp
FMT, 156, 19, ESC4, Qcccc, TimeUS,RPM,Volt,Curr,Temp
FMT, 157, 19, ESC5, Qcccc, TimeUS,RPM,Volt,Curr,Temp
FMT, 158, 19, ESC6, Qcccc, TimeUS,RPM,Volt,Curr,Temp
FMT, 159, 19, ESC7, Qcccc, TimeUS,RPM,Volt,Curr,Temp
FMT, 160, 19, ESC8, Qcccc, TimeUS,RPM,Volt,Curr,Temp
FMT, 167, 34, MAG2, QhhhhhhhhhBI, TimeUS,MagX,MagY,MagZ,OfsX,OfsY,OfsZ,MOfsX,MOfsY,MOfsZ,Health,S
FMT, 168, 34, MAG3, QhhhhhhhhhBI, TimeUS,MagX,MagY,MagZ,OfsX,OfsY,OfsZ,MOfsX,MOfsY,MOfsZ,Health,S
FMT, 174, 31, ACC1, QQfff, TimeUS,SampleUS,AccX,AccY,AccZ
FMT, 175, 31, ACC2, QQfff, TimeUS,SampleUS,AccX,AccY,AccZ
FMT, 176, 31, ACC3, QQfff, TimeUS,SampleUS,AccX,AccY,AccZ
FMT, 177, 31, GYR1, QQfff, TimeUS,SampleUS,GyrX,GyrY,GyrZ
FMT, 178, 31, GYR2, QQfff, TimeUS,SampleUS,GyrX,GyrY,GyrZ
FMT, 179, 31, GYR3, QQfff, TimeUS,SampleUS,GyrX,GyrY,GyrZ
FMT, 181, 35, PIDR, Qffffff, TimeUS,Des,P,I,D,FF,AFF
FMT, 182, 35, PIDP, Qffffff, TimeUS,Des,P,I,D,FF,AFF
FMT, 183, 35, PIDY, Qffffff, TimeUS,Des,P,I,D,FF,AFF
FMT, 184, 35, PIDA, Qffffff, TimeUS,Des,P,I,D,FF,AFF
FMT, 185, 35, PIDS, Qffffff, TimeUS,Des,P,I,D,FF,AFF
FMT, 186, 35, PIDL, Qffffff, TimeUS,Des,P,I,D,FF,AFF
FMT, 161, 37, BAR2, QffcfIff, TimeUS,Alt,Press,Temp,CRt,SMS,Offset,GndTemp
FMT, 197, 37, BAR3, QffcfIff, TimeUS,Alt,Press,Temp,CRt,SMS,Offset,GndTemp
FMT, 187, 35, VIBE, QfffIII, TimeUS,VibeX,VibeY,VibeZ,Clip0,Clip1,Clip2
FMT, 188, 47, IMT, Qfffffffff, TimeUS,DelT,DelvT,DelaT,DelAX,DelAY,DelAZ,DelVX,DelVY,DelVZ
FMT, 189, 47, IMT2, Qfffffffff, TimeUS,DelT,DelvT,DelaT,DelAX,DelAY,DelAZ,DelVX,DelVY,DelVZ
FMT, 190, 47, IMT3, Qfffffffff, TimeUS,DelT,DelvT,DelaT,DelAX,DelAY,DelAZ,DelVX,DelVY,DelVZ
FMT, 191, 24, ORGN, QBLLe, TimeUS,Type,Lat,Lng,Alt
FMT, 192, 19, RPM, Qff, TimeUS,rpm1,rpm2
FMT, 233, 47, GMB1, Iffffffffff, TimeMS,dt,dax,day,daz,dvx,dvy,dvz,jx,jy,jz
FMT, 234, 44, GMB2, IBfffffffff, TimeMS,es,ex,ey,ez,rx,ry,rz,tx,ty,tz
FMT, 235, 13, GMB3, Ihhh, TimeMS,rl_torque_cmd,el_torque_cmd,az_torque_cmd
FMT, 236, 59, RATE, Qffffffffffff, TimeUS,RDes,R,ROut,PDes,P,POut,YDes,Y,YOut,ADes,A,AOut
FMT, 237, 23, RALY, QBBLLh, TimeUS,Tot,Seq,Lat,Lng,Alt
FMT, 238, 43, VISO, Qffffffff, TimeUS,dt,AngDX,AngDY,AngDZ,PosDX,PosDY,PosDZ,conf
FMT, 224, 23, SBPH, QIII, TimeUS,CrcError,LastInject,IARhyp
FMT, 229, 80, SBR1, QHHBZ, TimeUS,msg_type,sender_id,msg_len,d1
FMT, 230, 205, SBR2, QHZZZ, TimeUS,msg_type,d2,d3,d4
FMT, 25, 41, ATUN, QBBfffffff, TimeUS,Axis,TuneStep,Targ,Min,Max,RP,RD,SP,ddt
FMT, 26, 19, ATDE, Qff, TimeUS,Angle,Rate
FMT, 31, 22, PTUN, QBfHHH, TimeUS,Param,TunVal,CtrlIn,TunLo,TunHi
FMT, 12, 28, OF, QBffff, TimeUS,Qual,flowX,flowY,bodyX,bodyY
FMT, 5, 51, NTUN, Qffffffffff, TimeUS,DPosX,DPosY,PosX,PosY,DVelX,DVelY,VelX,VelY,DAccX,DAccY
FMT, 4, 51, CTUN, Qffffffeccfhh, TimeUS,ThI,ABst,ThO,ThH,DAlt,Alt,BAlt,DSAlt,SAlt,TAlt,DCRt,CRt
FMT, 6, 32, PM, QHHIhBHII, TimeUS,NLon,NLoop,MaxT,PMT,I2CErr,INSErr,LogDrop,Mem
FMT, 30, 27, MOTB, Qffff, TimeUS,LiftMax,BatVolt,BatRes,ThLimit
FMT, 13, 12, EV, QB, TimeUS,Id
FMT, 20, 14, D16, QBh, TimeUS,Id,Value
FMT, 21, 14, DU16, QBH, TimeUS,Id,Value
FMT, 22, 16, D32, QBi, TimeUS,Id,Value
FMT, 23, 16, DU32, QBI, TimeUS,Id,Value
FMT, 24, 16, DFLT, QBf, TimeUS,Id,Value
FMT, 19, 13, ERR, QBB, TimeUS,Subsys,ECode
FMT, 32, 19, HELI, Qff, TimeUS,DRRPM,ERRPM
FMT, 33, 29, PL, QBBffff, TimeUS,Heal,TAcq,pX,pY,vX,vY
FMT, 34, 36, GUID, QBffffff, TimeUS,Type,pX,pY,pZ,vX,vY,vZ
FMT, 35, 32, THRO, QBffffbbbb, TimeUS,Stage,Vel,VelZ,Acc,AccEfZ,Throw,AttOk,HgtOk,PosOk
FMT, 36, 56, PRX, QBfffffffffff, TimeUS,Health,D0,D45,D90,D135,D180,D225,D270,D315,DUp,CAn,CDis
MODE, 35012737, 100, 100, 2
EV, 35026098, 15
IMU, 35046163, -0.000748175, 0.0008824253, 0.0007096013, 0.2617632, -0.04276681, -9.779875, 0, 0, 33.86459, 1, 1, 1000, 1000
FMT, 254, 47, NKT1, QIffffffff, TimeUS,Cnt,IMUMin,IMUMax,EKFMin,EKFMax,AngMin,AngMax,VelMin,VelM
FMT, 253, 31, CTRL, Qfffff, TimeUS,RMSRollP,RMSRollD,RMSPitchP,RMSPitchD,RMSYaw
MSG, 35130606, APM:Copter V3.5.7 (38483450)
MSG, 35130611, New mission
MSG, 35130621, Frame: QUAD
MODE, 35130626, Autonomous, 100, 2
RFND, 35137739, 0.2, 25, 0, 0
IMU, 35167788, -0.001121026, -0.0005646138, 0.0003741516, 0.2804074, -0.03843749, -9.809669, 0, 0, 33.8646, 1, 1, 1000, 1000
MAG, 35187717, 379, 507, 329, 0, 0, 0, 0, 0, 0, 1, 35187708
RFND, 35187753, 0.2, 25, 0, 0
BARO, 35187789, 0, 992.8691, 31.97, 0.03290497, 35187, 0, 30.67
CTUN, 35187802, 0, 0, 0, 0.2174709, 0.05723303, 0.05723303, 0, 0, 0.19, 0, 0, 0
ATT, 35187878, 0, 0.8, 0, 0.79, 0.18, 0.19, 0, 1
RATE, 35187884, -3.601726, -0.08450978, -0.008266632, -3.557021, -0.02080958, -0.008432524, 0.02546397, 0.0001928267, 3.50945E-05, 282.1557, 0.5951881, 0
NKF1, 35187891, 0.8, 0.79, 0.19, 0.005293839, 0.009711027, 0.006966807, 0, 0, 0, -0.05723303, -0.01, 0, 0
NKF2, 35187891, 1, 0, 0, 0, 0, 0, 0, 0, 0, 0, 0, 0, 0
NKF3, 35187891, 0, 0, 0, 0, 0, 0, 0, 0, 0, 0, 0
NKF4, 35187891, 0, 0, 0, 0, 0, 2.162193E-05, 0, 0, 0, 19, 229, 0, 0
NKF5, 35187891, 0, 0, 0, 0, 0.19, 0.13, 0, 0.19, 0.5, 8.502055E-05, 0.0004663634, 0.0009996557
NKQ1, 35187891, 0.9999008, 0.002416936, 0.01378325, 0.001639057
AHR2, 35187935, 0.75, 0.77, 0.18, 0, 0, 0, 0.9999546, 0.006541844, 0.00674795, 0.001609115
MOTB, 35187943, 1, 1, 0, 1
RCIN, 35187947, 1500, 1500, 1500, 1500, 1500, 1500, 1500, 1500, 0, 0, 0, 0, 0, 0
RCOU, 35187953, 1101, 1101, 1101, 1101, 0, 0, 0, 0, 0, 0, 0, 0, 0, 0
VIBE, 35187962, 0.01995666, 0.02114687, 0.03366048, 0, 0, 0
CTRL, 35187969, 0.008522117, 0.0001449833, 0.008376679, 0.0001640963, 4.718196E-05
PRX, 35188079, 2, 0.58, 0, 0.62, 0, 3.6, 0, 2.45, 0, 0, 0, 0.58
IMU, 35207846, 0.0008563929, -0.0007255449, 0.000334526, 0.269872, -0.04952141, -9.780025, 0, 0, 33.86462, 1, 1, 1000, 1000
RFND, 35237618, 0.2, 25, 0, 0
IMU, 35247801, -0.0005372663, 5.225082E-05, -0.0015262, 0.2826287, -0.0347786, -9.784503, 0, 0, 33.86462, 1, 1, 1000, 1000
MAG, 35287780, 379, 511, 327, 0, 0, 0, 0, 0, 0, 1, 35287772
RFND, 35287812, 0.2, 25, 0, 0
BARO, 35287850, -0.04457622, 992.8742, 31.97, -0.3494305, 35287, 0, 30.67
CTUN, 35287862, 0, 0, 0, 0.2174709, 0.05722461, 0.05722461, -0.04, 0, 0.19, 0, 0, 0
ATT, 35287940, 0, 0.8, 0, 0.79, 0.17, 0.18, 0, 1
RATE, 35287946, -3.599677, -0.01215736, -0.008460875, -3.557981, 0.034596, -0.008501114, 0.02488174, -0.03841882, 0.0001123771, 278.1295, -1.268196, 0
NKF1, 35287953, 0.8, 0.79, 0.18, 0.005847923, 0.009817966, 0.006867395, 0, 0, 0, -0.05722461, -0.01, 0, 0
NKF2, 35287953, 1, 0, 0, 0, 0, 0, 0, 0, 0, 0, 0, 0, 0
NKF3, 35287953, 0, 0, 0, 0, 0, 0, 0, 0, 0, 0, 0
NKF4, 35287953, 0, 0, 0, 0, 0, 1.41997E-05, 0, 0, 0, 19, 229, 0, 0
NKF5, 35287953, 0, 0, 0, 0, 0.19, 0.13, 0, 0.19, 0.5, 7.495404E-05, 0.0002011542, 0.0005941439
NKQ1, 35287953, 0.9999008, 0.00241518, 0.01378499, 0.001623216
AHR2, 35288068, 0.75, 0.77, 0.18, -0.04, 0, 0, 0.9999546, 0.006540189, 0.006750123, 0.001593035
MOTB, 35288080, 1, 1, 0, 1
RCIN, 35288085, 1500, 1500, 1500, 1500, 1500, 1500, 1500, 1500, 0, 0, 0, 0, 0, 0
RCOU, 35288493, 1101, 1101, 1101, 1101, 0, 0, 0, 0, 0, 0, 0, 0, 0, 0
VIBE, 35288502, 0.02001092, 0.01736506, 0.03626797, 0, 0, 0
CTRL, 35288509, 0.008510593, 0.0001579908, 0.008377203, 0.0001415159, 6.284821E-05
PRX, 35288543, 2, 0.58, 0, 0.61, 0, 3.6, 0, 2.45, 0, 0, 0, 0.58
IMU, 35288551, -0.0004646119, 0.0004895321, -0.0006769391, 0.2807309, -0.04451629, -9.777298, 0, 0, 33.8646, 1, 1, 1000, 1000
IMU, 35327927, 0.0006967481, 0.0001889502, 0.0006169407, 0.2675937, -0.04881888, -9.790739, 0, 0, 33.86462, 1, 1, 1000, 1000
RFND, 35337629, 0.2, 25, 0, 0
IMU, 35367765, 0.0002207457, -0.0002160846, 0.000265078, 0.2790704, -0.04795341, -9.795129, 0, 0, 33.8646, 1, 1, 1000, 1000
MAG, 35387781, 382, 511, 330, 0, 0, 0, 0, 0, 0, 1, 35387772
RFND, 35387813, 0.2, 25, 0, 0
BARO, 35387851, 0.03900419, 992.8645, 31.98, -0.5648707, 35387, 0, 30.67
CTUN, 35387864, 0, 0, 0, 0.2174709, 0.05712475, 0.05712475, 0.03, 0, 0.19, 0, 0, 0
ATT, 35387941, 0, 0.8, 0, 0.78, 0.17, 0.18, 0, 1
RATE, 35387947, -3.608423, -0.007411272, -0.008341315, -3.554692, -0.02554746, -0.008386969, 0.02512003, -0.04456168, 8.64953E-05, 281.2895, -1.693249, 0
NKF1, 35387955, 0.8, 0.78, 0.18, 0.006261576, 0.009865309, 0.006945419, 0, 0, 0, -0.05712474, -0.01, 0, 0
NKF2, 35387955, 1, 0, 0, 0, 0, 0, 0, 0, 0, 0, 0, 0, 0
NKF3, 35387955, 0, 0, 0, 0, 0, 0, 0, 0, 0, 0, 0
NKF4, 35387955, 0, 0, 0, 0, 0, 9.469921E-06, 0, 0, 0, 19, 229, 0, 0
NKF5, 35387955, 0, 0, 0, 0, 0.19, 0.13, 0, 0.19, 0.5, 6.332537E-05, 0.0003238511, 0.0008624027
NKQ1, 35387955, 0.9999008, 0.002432326, 0.01377844, 0.00162095
AHR2, 35388076, 0.75, 0.77, 0.18, 0.03, 0, 0, 0.9999545, 0.006559201, 0.006746836, 0.001590494
MOTB, 35388208, 1, 1, 0, 1
RCIN, 35388217, 1500, 1500, 1500, 1500, 1500, 1500, 1500, 1500, 0, 0, 0, 0, 0, 0
RCOU, 35388223, 1101, 1101, 1101, 1101, 0, 0, 0, 0, 0, 0, 0, 0, 0, 0
VIBE, 35388231, 0.02106464, 0.0186205, 0.03571691, 0, 0, 0
CTRL, 35388237, 0.008527667, 0.0001677463, 0.008371414, 0.0001373704, 7.29505E-05
PRX, 35388270, 2, 0.58, 0, 0.62, 0, 3.6, 0, 2.42, 0, 0, 0, 0.58
IMU, 35407804, -0.0006613767, 0.000149888, 0.000163022, 0.2665951, -0.04661093, -9.769884, 0, 0, 33.86462, 1, 1, 1000, 1000
RFND, 35437654, 0.2, 25, 0, 0
IMU, 35447835, -0.0006403254, -0.0009277638, -0.001457434, 0.2666446, -0.03110052, -9.784019, 0, 0, 33.86459, 1, 1, 1000, 1000
MAG, 35487756, 382, 509, 325, 0, 0, 0, 0, 0, 0, 1, 35487748
RFND, 35487788, 0.2, 25, 0, 0
BARO, 35487827, 0.06686433, 992.8616, 31.98, -0.4046722, 35487, 0, 30.67
CTUN, 35487840, 0, 0, 0, 0.2174709, 0.05704673, 0.05704673, 0.06, 0, 0.19, 0, 0, 0
ATT, 35487919, 0, 0.8, 0, 0.78, 0.17, 0.18, 0, 1
RATE, 35487925, -3.60881, -0.006294414, -0.008376469, -3.542008, -0.0516196, -0.008061531, 0.02541039, 0.04210739, 8.09492E-05, 291.9302, -1.162052, 0
NKF1, 35487933, 0.8, 0.78, 0.18, 0.006528557, 0.01007458, 0.007208154, 0, 0, 0, -0.05704673, -0.01, 0, 0
NKF2, 35487933, 1, 0, 0, 0, 0, 0, 0, 0, 0, 0, 0, 0, 0
NKF3, 35487933, 0, 0, 0, 0, 0, 0, 0, 0, 0, 0, 0
NKF4, 35487933, 0, 0, 0, 0, 0, 6.357128E-06, 0, 0, 0, 19, 229, 0, 0
NKF5, 35487933, 0, 0, 0, 0, 0.19, 0.13, 0, 0.19, 0.5, 5.426552E-05, 0.0002429642, 0.0004448204
NKQ1, 35487933, 0.9999012, 0.002430639, 0.01375596, 0.00161605
AHR2, 35487976, 0.75, 0.76, 0.18, 0.06, 0, 0, 0.9999546, 0.006558391, 0.006727596, 0.001585577
MOTB, 35487983, 1, 1, 0, 1
RCIN, 35487988, 1500, 1500, 1500, 1500, 1500, 1500, 1500, 1500, 0, 0, 0, 0, 0, 0
RCOU, 35487994, 1101, 1101, 1101, 1101, 0, 0, 0, 0, 0, 0, 0, 0, 0, 0
VIBE, 35488486, 0.02418536, 0.02146823, 0.03577344, 0, 0, 0
CTRL, 35488497, 0.008522782, 0.0001635199, 0.008350542, 0.0001350099, 9.140661E-05
PRX, 35488529, 2, 0.58, 0, 0.62, 0, 3.6, 0, 2.45, 0, 0, 0, 0.58
IMU, 35488537, -0.0003636471, -0.001015835, 0.0007284736, 0.281789, -0.04980157, -9.778222, 0, 0, 33.86459, 1, 1, 1000, 1000
IMU, 35527882, -0.001193976, 6.772306E-05, -0.0005469723, 0.2630386, -0.05767743, -9.789952, 0, 0, 33.86458, 1, 1, 1000, 1000
RFND, 35537684, 0.2, 25, 0, 0
IMU, 35567837, 0.0002385441, -0.00123405, -7.694485E-06, 0.2713602, -0.04655652, -9.801903, 0, 0, 33.86459, 1, 1, 1000, 1000
MAG, 35587780, 381, 516, 327, 0, 0, 0, 0, 0, 0, 1, 35587772
RFND, 35587811, 0.2, 25, 0, 0
BARO, 35587851, -0.07800838, 992.8774, 31.99, -0.04549317, 35587, 0, 30.67
CTUN, 35587864, 0, 0, 0, 0.2174709, 0.05699328, 0.05699328, -0.07, 0, 0.19, 0, 0, 0
ATT, 35587943, 0, 0.79, 0, 0.78, 0.18, 0.19, 0, 1
RATE, 35587949, -3.599389, -0.03607262, -0.0082972, -3.534796, -0.02047719, -0.008358801, 0.02284156, 0.05353405, 2.976848E-05, 250.9717, 1.222992, 0
NKF1, 35587957, 0.79, 0.78, 0.19, 0.006707051, 0.01007969, 0.006196831, 0, 0, 0, -0.05699328, -0.01, 0, 0
NKF2, 35587957, 1, 0, 0, 0, 0, 0, 0, 0, 0, 0, 0, 0, 0
NKF3, 35587957, 0, 0, 0, 0, 0, 0, 0, 0, 0, 0, 0
NKF4, 35587957, 0, 0, 0, 0, 0, 4.29429E-06, 0, 0, 0, 19, 229, 0, 0
NKF5, 35587957, 0, 0, 0, 0, 0.19, 0.13, 0, 0.19, 0.5, 4.693974E-05, 0.0004253577, 0.0009270459
NKQ1, 35587957, 0.9999014, 0.002411744, 0.01374227, 0.00163824
AHR2, 35588080, 0.75, 0.76, 0.18, -0.07, 0, 0, 0.9999548, 0.006539216, 0.006715715, 0.001607872
MOTB, 35588211, 1, 1, 0, 1
RCIN, 35588216, 1500, 1500, 1500, 1500, 1500, 1500, 1500, 1500, 0, 0, 0, 0, 0, 0
RCOU, 35588222, 1101, 1101, 1101, 1101, 0, 0, 0, 0, 0, 0, 0, 0, 0, 0
VIBE, 35588230, 0.02209801, 0.0195117, 0.03341484, 0, 0, 0
CTRL, 35588237, 0.00850384, 0.0001536825, 0.008331315, 0.0001391388, 8.105971E-05
PRX, 35588269, 2, 0.58, 0, 0.62, 0, 3.6, 0, 2.45, 0, 0, 0, 0.58
IMU, 35607759, -7.966891E-05, 7.960001E-05, 0.000601095, 0.2743487, -0.04536601, -9.782077, 0, 0, 33.86458, 1, 1, 1000, 1000
RFND, 35637632, 0.2, 25, 0, 0
IMU, 35647829, 0.0002439869, -0.001044581, 0.0003208127, 0.2701915, -0.0504031, -9.79656, 0, 0, 33.86459, 1, 1, 1000, 1000
MAG, 35687708, 381, 510, 327, 0, 0, 0, 0, 0, 0, 1, 35687700
RFND, 35687739, 0.2, 25, 0, 0
BARO, 35687777, -0.07800838, 992.8778, 31.99, 0.02272618, 35687, 0, 30.67
CTUN, 35687790, 0, 0, 0, 0.2174709, 0.05694883, 0.05694883, -0.07, 0, 0.19, 0, 0, 0
ATT, 35687868, 0, 0.8, 0, 0.78, 0.18, 0.19, 0, 1
RATE, 35687874, -3.601422, -0.02103447, -0.008366896, -3.532725, -0.01841269, -0.008026841, 0.02774791, 0.00608839, 2.000568E-05, 249.3066, 0.2067566, 0
NKF1, 35687881, 0.8, 0.78, 0.19, 0.007361295, 0.01016741, 0.006155719, 0, 0, 0, -0.05694883, -0.01, 0, 0
NKF2, 35687881, 1, 0, 0, 0, 0, 0, 0, 0, 0, 0, 0, 0, 0
NKF3, 35687881, 0, 0, 0, 0, 0, 0, 0, 0, 0, 0, 0
NKF4, 35687881, 0, 0, 0, 0, 0, 2.921138E-06, 0, 0, 0, 19, 229, 0, 0
NKF5, 35687881, 0, 0, 0, 0, 0.19, 0.13, 0, 0.19, 0.5, 4.143252E-05, 0.0003987511, 0.0007693453
NKQ1, 35687881, 0.9999014, 0.00241619, 0.01373631, 0.001642987
AHR2, 35687925, 0.75, 0.76, 0.18, -0.07, 0, 0, 0.9999548, 0.006543027, 0.006711775, 0.001612564
MOTB, 35687932, 1, 1, 0, 1
RCIN, 35687936, 1500, 1500, 1500, 1500, 1500, 1500, 1500, 1500, 0, 0, 0, 0, 0, 0
RCOU, 35687942, 1101, 1101, 1101, 1101, 0, 0, 0, 0, 0, 0, 0, 0, 0, 0
VIBE, 35687950, 0.02168273, 0.01992266, 0.03219266, 0, 0, 0
CTRL, 35687957, 0.008504976, 0.0001353593, 0.008329723, 0.0001371, 6.77213E-05
PRX, 35687989, 2, 0.58, 0, 0.61, 0, 3.6, 0, 2.46, 0, 0, 0, 0.58
IMU, 35688077, -0.0006213721, -0.00043648, 9.981137E-05, 0.2792055, -0.04434555, -9.791976, 0, 0, 33.86458, 1, 1, 1000, 1000
IMU, 35727768, 0.0005098945, 0.0009412115, -0.0002222283, 0.2691134, -0.04020796, -9.792096, 0, 0, 33.86458, 1, 1, 1000, 1000
RFND, 35737684, 0.2, 25, 0, 0
IMU, 35767825, -0.0001667926, -0.001318033, -0.0004762186, 0.2829929, -0.04848221, -9.783829, 0, 0, 33.86459, 1, 1, 1000, 1000
MAG, 35787618, 382, 510, 323, 0, 0, 0, 0, 0, 0, 1, 35787610
RFND, 35787652, 0.2, 25, 0, 0
BARO, 35787688, -0.01671608, 992.8711, 31.99, -0.2298461, 35787, 0, 30.67
CTUN, 35787701, 0, 0, 0, 0.2174709, 0.05701379, 0.05701379, -0.01, 0, 0.19, 0, 0, 0
ATT, 35787773, 0, 0.8, 0, 0.78, 0.17, 0.19, 0, 1
RATE, 35787779, -3.600354, -0.02212572, -0.008165257, -3.529323, -0.001243844, -0.008592186, 0.02382108, -0.01583698, 9.89569E-05, 240.7527, -0.2640724, 0
NKF1, 35787786, 0.8, 0.78, 0.19, 0.008066106, 0.01054356, 0.005944512, 0, 0, 0, -0.05701379, -0.01, 0, 0
NKF2, 35787786, 1, 0, 0, 0, 0, 0, 0, 0, 0, 0, 0, 0, 0
NKF3, 35787786, 0, 0, 0, 0, 0.01, 0, 0, 0, 0, 0, 0
NKF4, 35787786, 0, 0, 0, 0, 0, 2.015361E-06, 0, 0, 0, 19, 229, 0, 0
NKF5, 35787786, 0, 0, 0, 0, 0.19, 0.13, 0, 0.19, 0.5, 3.795532E-05, 0.000490952, 0.001044044
NKQ1, 35787786, 0.9999015, 0.002415722, 0.01372993, 0.001631668
AHR2, 35787828, 0.75, 0.76, 0.18, -0.01, 0, 0, 0.9999548, 0.006543302, 0.006707807, 0.001601257
MOTB, 35787835, 1, 1, 0, 1
RCIN, 35787840, 1500, 1500, 1500, 1500, 1500, 1500, 1500, 1500, 0, 0, 0, 0, 0, 0
RCOU, 35787845, 1101, 1101, 1101, 1101, 0, 0, 0, 0, 0, 0, 0, 0, 0, 0
VIBE, 35787854, 0.01865759, 0.01976249, 0.03481255, 0, 0, 0
CTRL, 35787860, 0.008506431, 0.0001580195, 0.008314977, 0.000173547, 7.383394E-05
PRX, 35787892, 2, 0.58, 0, 0.62, 0, 3.6, 0, 2.45, 0, 0, 0, 0.58
IMU, 35807809, -0.0005630034, 0.0004263317, 0.0004276488, 0.2726145, -0.0367485, -9.788202, 0, 0, 33.86462, 1, 1, 1000, 1000
RFND, 35837606, 0.2, 25, 0, 0
IMU, 35847900, 0.0004851327, -0.0009211124, -0.0003824033, 0.2796636, -0.04470043, -9.779108, 0, 0, 33.8646, 1, 1, 1000, 1000
MAG, 35888424, 382, 512, 323, 0, 0, 0, 0, 0, 0, 1, 35888416
RFND, 35888459, 0.2, 25, 0, 0
BARO, 35888496, 0.1281566, 992.8547, 31.99, -0.2421248, 35888, 0, 30.67
CTUN, 35888509, 0, 0, 0, 0.2174709, 0.0569781, 0.0569781, 0.12, 0, 0.19, 0, 0, 0
DU32, 35888551, 7, 50356728
ATT, 35888688, 0, 0.8, 0, 0.78, 0.18, 0.19, 0, 1
RATE, 35888696, -3.602638, -0.02782447, -0.008356418, -3.511218, -0.0348354, -0.008299842, 0.0245415, 0.06528957, 7.974191E-05, 253.267, -1.420403, 0
NKF1, 35888704, 0.8, 0.78, 0.19, 0.008243619, 0.01059209, 0.006253505, 0, 0, 0, -0.0569781, -0.01, 0, 0
NKF2, 35888704, 1, 0, 0, 0, 0, 0, 0, 0, 0, 0, 0, 0, 0
NKF3, 35888704, 0, 0, 0, 0, 0.01, 0, 0, 0, 0, 0, 0
NKF4, 35888704, 0, 0, 0, 0, 0, 1.412508E-06, 0, 0, 0, 19, 229, 0, 0
NKF5, 35888704, 0, 0, 0, 0, 0.19, 0.13, 0, 0.19, 0.5, 3.571433E-05, 0.0004621729, 0.0009340882
NKQ1, 35888704, 0.9999019, 0.002417991, 0.01369707, 0.001638854
AHR2, 35889134, 0.75, 0.76, 0.18, 0.12, 0, 0, 0.999955, 0.006545645, 0.006677907, 0.001608577
MOTB, 35889145, 1, 1, 0, 1
RCIN, 35889150, 1500, 1500, 1500, 1500, 1500, 1500, 1500, 1500, 0, 0, 0, 0, 0, 0
RCOU, 35889156, 1101, 1101, 1101, 1101, 0, 0, 0, 0, 0, 0, 0, 0, 0, 0
VIBE, 35889165, 0.01795062, 0.02198534, 0.03415079, 0, 0, 0
CTRL, 35889171, 0.008504205, 0.0001592859, 0.00828531, 0.0001729967, 8.149469E-05
PRX, 35889308, 2, 0.58, 0, 0.62, 0, 3.6, 0, 2.49, 0, 0, 0, 0.58
IMU, 35889319, -0.0007405304, -0.0007234126, 0.00113305, 0.2662004, -0.04087389, -9.776024, 0, 0, 33.8646, 1, 1, 1000, 1000
PM, 35889331, 57, 4000, 5137, 10, 0, 0, 22, 262144
IMU, 35927759, 0.00091453, -0.001492101, 0.0008718626, 0.2831438, -0.0404397, -9.794719, 0, 0, 33.86462, 1, 1, 1000, 1000
RFND, 35937692, 0.2, 25, 0, 0
IMU, 35967745, -0.0002820856, -0.0006572475, 8.231509E-07, 0.2713649, -0.04360729, -9.776545, 0, 0, 33.86462, 1, 1, 1000, 1000
MAG, 35987702, 381, 515, 331, 0, 0, 0, 0, 0, 0, 1, 35987693
RFND, 35987737, 0.2, 25, 0, 0
BARO, 35987773, 0.2312391, 992.8433, 32, 0.232267, 35987, 0, 30.67
CTUN, 35987785, 0, 0, 0, 0.2174709, 0.05707143, 0.05707143, 0.23, 0, 0.19, 0, 0, 0
ATT, 35987860, 0, 0.8, 0, 0.77, 0.18, 0.19, 0, 1
RATE, 35987866, -3.616861, 0.03748899, -0.008806832, -3.485209, -0.05981957, -0.007998325, 0.0254152, 0.1077202, 9.283325E-07, 265.1281, -1.487923, 0
NKF1, 35987874, 0.8, 0.77, 0.19, 0.008561234, 0.01055669, 0.006546374, 0, 0, 0, -0.05707143, -0.01, 0, 0
NKF2, 35987874, 1, 0, 0, 0, 0, 0, 0, 0, 0, 0, 0, 0, 0
NKF3, 35987874, 0, 0, 0, 0, 0.01, 0, 0, 0, 0, 0, 0
NKF4, 35987874, 0, 0, 0, 0, 0, 1.032188E-06, 0, 0, 0, 19, 229, 0, 0
NKF5, 35987874, 0, 0, 0, 0, 0.19, 0.13, 0, 0.19, 0.5, 3.482137E-05, 0.0005014703, 0.001072625
NKQ1, 35987874, 0.9999025, 0.00244388, 0.01364766, 0.001669076
AHR2, 35987918, 0.75, 0.75, 0.19, 0.23, 0, 0, 0.9999551, 0.006569445, 0.006632662, 0.001638838
MOTB, 35987926, 1, 1, 0, 1
RCIN, 35987930, 1500, 1500, 1500, 1500, 1500, 1500, 1500, 1500, 0, 0, 0, 0, 0, 0
RCOU, 35987936, 1101, 1101, 1101, 1101, 0, 0, 0, 0, 0, 0, 0, 0, 0, 0
VIBE, 35987944, 0.02182834, 0.01955171, 0.03192288, 0, 0, 0
CTRL, 35987951, 0.008525745, 0.0001663023, 0.008227822, 0.0001494898, 6.89409E-05
PRX, 35987982, 2, 0.58, 0, 0.61, 0, 3.6, 0, 2.44, 0, 0, 0, 0.58
IMU, 36007753, -0.0006382673, 0.0008296354, 0.0007720934, 0.2682881, -0.05462378, -9.782922, 0, 0, 33.86463, 1, 1, 1000, 1000
RFND, 36037590, 0.2, 25, 0, 0
IMU, 36047812, 0.0002429522, 6.371649E-05, 0.0009779385, 0.2695743, -0.05922742, -9.814831, 0, 0, 33.86461, 1, 1, 1000, 1000
MAG, 36087739, 381, 515, 328, 0, 0, 0, 0, 0, 0, 1, 36087731
RFND, 36087775, 0.2, 25, 0, 0
BARO, 36087813, 0.1197986, 992.8555, 32, 0.7236316, 36087, 0, 30.67
CTUN, 36087825, 0, 0, 0, 0.2174709, 0.05699855, 0.05699855, 0.11, 0, 0.19, 0, 0, 0
ATT, 36087902, 0, 0.8, 0, 0.77, 0.18, 0.19, 0, 1
RATE, 36087908, -3.608052, -0.05285522, -0.007999809, -3.493193, -0.06067636, -0.007791599, 0.02341777, -0.05087185, -9.082427E-05, 267.7373, -1.752567, 0
NKF1, 36087915, 0.8, 0.77, 0.19, 0.009103282, 0.01017727, 0.006610799, 0, 0, 0, -0.05699855, -0.01, 0, 0
NKF2, 36087915, 1, 0, 0, 0, 0, 0, 0, 0, 0, 0, 0, 0, 0
NKF3, 36087915, 0, 0, 0, 0, 0.01, 0, 0, 0, 0, 0, 0
NKF4, 36087915, 0, 0, 0, 0, 0, 7.8249E-07, 0, 0, 0, 19, 229, 0, 0
NKF5, 36087915, 0, 0, 0, 0, 0.19, 0.13, 0, 0.19, 0.5, 3.479551E-05, 0.0006009579, 0.001381174
NKQ1, 36087915, 0.9999024, 0.002430262, 0.01365878, 0.001708493
AHR2, 36087960, 0.75, 0.76, 0.19, 0.11, 0, 0, 0.999955, 0.006554952, 0.0066478, 0.001678272
MOTB, 36087968, 1, 1, 0, 1
RCIN, 36087972, 1500, 1500, 1500, 1500, 1500, 1500, 1500, 1500, 0, 0, 0, 0, 0, 0
RCOU, 36087977, 1101, 1101, 1101, 1101, 0, 0, 0, 0, 0, 0, 0, 0, 0, 0
VIBE, 36087986, 0.01910377, 0.02085382, 0.03094614, 0, 0, 0
CTRL, 36087992, 0.008524832, 0.0001736092, 0.008237749, 0.0001595937, 7.057061E-05
PRX, 36088271, 2, 0.58, 0, 0.62, 0, 3.6, 0, 2.43, 0, 0, 0, 0.58
IMU, 36088279, -0.001178353, -0.001174878, -0.000894375, 0.2792678, -0.04488629, -9.772244, 0, 0, 33.86461, 1, 1, 1000, 1000
IMU, 36127752, 0.0001097476, 0.0003714891, 0.0003662336, 0.2675647, -0.04236757, -9.782104, 0, 0, 33.86463, 1, 1, 1000, 1000
RFND, 36137579, 0.2, 25, 0, 0
IMU, 36167762, 4.851143E-05, 0.0002390134, -0.001192685, 0.2721374, -0.04857844, -9.799214, 0, 0, 33.86461, 1, 1, 1000, 1000
MAG, 36187684, 377, 516, 328, 0, 0, 0, 0, 0, 0, 1, 36187676
RFND, 36187718, 0.2, 25, 0, 0
BARO, 36187755, 0.1504447, 992.8521, 32, 0.7060803, 36187, 0, 30.67
CTUN, 36187767, 0, 0, 0, 0.2174709, 0.05704871, 0.05704871, 0.15, 0, 0.19, 0, 0, 0
ATT, 36187846, 0, 0.8, 0, 0.77, 0.18, 0.19, 0, 1
RATE, 36187852, -3.624209, 0.04881166, -0.008746499, -3.508213, 0.03256512, -0.008398906, 0.023739, 0.04903278, 7.709836E-05, 253.8698, 1.898956, 0
NKF1, 36187859, 0.8, 0.77, 0.19, 0.009184295, 0.0103065, 0.006268389, 0, 0, 0, -0.05704871, -0.01, 0, 0
NKF2, 36187859, 1, 0, 0, 0, 0, 0, 0, 0, 0, 0, 0, 0, 0
NKF3, 36187859, 0, 0, 0, 0, 0.01, 0, 0, 0, 0, 0, 0
NKF4, 36187859, 0, 0, 0, 0, 0, 6.424179E-07, 0, 0, 0, 19, 229, 0, 0
NKF5, 36187859, 0, 0, 0, 0, 0.19, 0.13, 0, 0.19, 0.5, 3.485907E-05, 0.0004768947, 0.001031956
NKQ1, 36187859, 0.9999018, 0.00245937, 0.01369108, 0.001707225
AHR2, 36187902, 0.75, 0.76, 0.19, 0.15, 0, 0, 0.9999546, 0.006588654, 0.006682726, 0.001676671
MOTB, 36187910, 1, 1, 0, 1
RCIN, 36187915, 1500, 1500, 1500, 1500, 1500, 1500, 1500, 1500, 0, 0, 0, 0, 0, 0
RCOU, 36187920, 1101, 1101, 1101, 1101, 0, 0, 0, 0, 0, 0, 0, 0, 0, 0
VIBE, 36187929, 0.01991929, 0.02113644, 0.03309464, 0, 0, 0
CTRL, 36187936, 0.008539655, 0.0001600172, 0.008266392, 0.0001495954, 6.513982E-05
PRX, 36187967, 2, 0.58, 0, 0.62, 0, 3.6, 0, 2.43, 0, 0, 0, 0.58
IMU, 36207760, -0.0007263935, 0.0001120214, 0.0005852791, 0.2848532, -0.04867578, -9.770978, 0, 0, 33.86461, 1, 1, 1000, 1000
RFND, 36238514, 0.2, 25, 0, 0
IMU, 36247782, -0.0006404966, -0.0006295216, 4.853603E-05, 0.2656222, -0.045961, -9.807106, 0, 0, 33.86463, 1, 1, 1000, 1000
MAG, 36287762, 378, 518, 329, 0, 0, 0, 0, 0, 0, 1, 36287754
RFND, 36287799, 0.2, 25, 0, 0
BARO, 36287836, 0.195021, 992.847, 32, 0.2811476, 36287, 0, 30.67
CTUN, 36287849, 0, 0, 0, 0.2174709, 0.05699965, 0.05699965, 0.19, 0, 0.19, 0, 0, 0
ATT, 36287926, 0, 0.8, 0, 0.77, 0.18, 0.19, 0, 1
RATE, 36287932, -3.609354, -0.04971545, -0.008180552, -3.500918, -0.005824548, -0.008200994, 0.02390959, -0.02364371, 8.063646E-05, 256.0119, 0.05149841, 0
NKF1, 36287940, 0.8, 0.77, 0.19, 0.00944076, 0.01079778, 0.006321281, 0, 0, 0, -0.05699965, -0.01, 0, 0
NKF2, 36287940, 1, 0, 0, 0, 0, 0, 0, 0, 0, 0, 0, 0, 0
NKF3, 36287940, 0, 0, 0, 0.01, 0.01, 0, 0, 0, 0, 0, 0
NKF4, 36287940, 0, 0, 0, 0, 0, 5.598587E-07, 0, 0, 0, 19, 229, 0, 0
NKF5, 36287940, 0, 0, 0, 0, 0.19, 0.13, 0, 0.19, 0.5, 3.554117E-05, 0.0005369472, 0.001237631
NKQ1, 36287940, 0.9999021, 0.002432483, 0.01367493, 0.001709002
AHR2, 36287984, 0.75, 0.76, 0.19, 0.19, 0, 0, 0.9999548, 0.006565527, 0.006669387, 0.001678723
MOTB, 36287991, 1, 1, 0, 1
RCIN, 36287997, 1500, 1500, 1500, 1500, 1500, 1500, 1500, 1500, 0, 0, 0, 0, 0, 0
RCOU, 36288002, 1101, 1101, 1101, 1101, 0, 0, 0, 0, 0, 0, 0, 0, 0, 0
VIBE, 36288011, 0.01946088, 0.01985335, 0.03406235, 0, 0, 0
CTRL, 36288018, 0.008525439, 0.00015154, 0.008254, 0.0001402114, 6.055249E-05
PRX, 36288247, 2, 0.58, 0, 0.62, 0, 3.6, 0, 2.47, 0, 0, 0, 0.58
IMU, 36288255, -0.00112341, -0.0002174861, -0.0004191516, 0.2646983, -0.03984625, -9.790707, 0, 0, 33.8646, 1, 1, 1000, 1000
IMU, 36327804, 0.0006634049, -0.0005001534, 0.0007556508, 0.2565165, -0.05229923, -9.787293, 0, 0, 33.86462, 1, 1, 1000, 1000
RFND, 36337604, 0.2, 25, 0, 0
IMU, 36367773, 5.53825E-06, -0.000708277, -0.0008071211, 0.2740843, -0.04207911, -9.795859, 0, 0, 33.86462, 1, 1, 1000, 1000
MAG, 36387720, 377, 512, 327, 0, 0, 0, 0, 0, 0, 1, 36387712
RFND, 36387757, 0.2, 25, 0, 0
BARO, 36387793, 0.2228811, 992.8441, 32, 0.03242277, 36387, 0, 30.67
CTUN, 36387806, 0, 0, 0, 0.2174709, 0.057003, 0.057003, 0.22, 0, 0.19, 0, 0, 0
ATT, 36387881, 0, 0.8, 0, 0.77, 0.18, 0.19, 0, 1
RATE, 36387887, -3.616561, -0.01491095, -0.008540434, -3.494607, -0.005872608, -0.008193269, 0.02649057, -0.06596787, 0.0001536042, 255.4232, 0.212574, 0
NKF1, 36387894, 0.8, 0.77, 0.19, 0.009597515, 0.01075308, 0.006306745, 0, 0, 0, -0.057003, -0.01, 0, 0
NKF2, 36387894, 1, 0, 0, 0, 0, 0, 0, 0, 0, 0, 0, 0, 0
NKF3, 36387894, 0, 0, 0, 0.01, 0.01, 0, 0, 0, 0, 0, 0
NKF4, 36387894, 0, 0, 0, 0, 0, 5.29184E-07, 0, 0, 0, 19, 229, 0, 0
NKF5, 36387894, 0, 0, 0, 0, 0.19, 0.13, 0, 0.19, 0.5, 3.588667E-05, 0.0004385206, 0.0009546443
NKQ1, 36387894, 0.9999023, 0.002447236, 0.01366079, 0.001681663
AHR2, 36387938, 0.75, 0.76, 0.19, 0.22, 0, 0, 0.9999548, 0.006579525, 0.006658834, 0.001651331
MOTB, 36387945, 1, 1, 0, 1
RCIN, 36387949, 1500, 1500, 1500, 1500, 1500, 1500, 1500, 1500, 0, 0, 0, 0, 0, 0
RCOU, 36387955, 1101, 1101, 1101, 1101, 0, 0, 0, 0, 0, 0, 0, 0, 0, 0
VIBE, 36387963, 0.02168506, 0.01937968, 0.03196709, 0, 0, 0
CTRL, 36387970, 0.008532472, 0.0001553766, 0.008233916, 0.0001383506, 8.075547E-05
PRX, 36388209, 2, 0.58, 0, 0.62, 0, 3.6, 0, 2.41, 0, 0, 0, 0.58
IMU, 36407749, 0.0009587846, 0.000145465, -0.0004775955, 0.275064, -0.05708107, -9.785928, 0, 0, 33.86459, 1, 1, 1000, 1000
RFND, 36437732, 0.2, 25, 0, 0
IMU, 36447752, 0.0001902064, -0.0003148925, -0.000573869, 0.271095, -0.04944057, -9.786302, 0, 0, 33.86463, 1, 1, 1000, 1000
MAG, 36487732, 381, 508, 324, 0, 0, 0, 0, 0, 0, 1, 36487723
RFND, 36487768, 0.2, 25, 0, 0
BARO, 36487805, 0.04736223, 992.8636, 32.01, 0.081797, 36487, 0, 30.67
CTUN, 36487818, 0, 0, 0, 0.2174709, 0.05706271, 0.05706271, 0.04, 0, 0.19, 0, 0, 0
ATT, 36487899, 0, 0.8, 0, 0.77, 0.18, 0.19, 0, 1
RATE, 36487905, -3.627463, 0.01270954, -0.008686915, -3.494653, 0.05460557, -0.00843446, 0.02252301, 0.03025417, 0.000166489, 239.4097, -0.8626938, 0
NKF1, 36487913, 0.8, 0.77, 0.19, 0.009488634, 0.01079689, 0.005911352, 0, 0, 0, -0.05706271, -0.01, 0, 0
NKF2, 36487913, 1, 0, 0, 0, 0, 0, 0, 0, 0, 0, 0, 0, 0
NKF3, 36487913, 0, 0, 0, 0.01, 0.01, 0, 0, 0, 0, 0, 0
NKF4, 36487913, 0, 0, 0, 0, 0, 5.303862E-07, 0, 0, 0, 19, 229, 0, 0
NKF5, 36487913, 0, 0, 0, 0, 0.19, 0.13, 0, 0.19, 0.5, 3.675024E-05, 0.0004711767, 0.001086993
NKQ1, 36487913, 0.9999023, 0.002466633, 0.013664, 0.001663283
AHR2, 36487956, 0.75, 0.76, 0.19, 0.04, 0, 0, 0.9999547, 0.006598851, 0.006665213, 0.001632783
MOTB, 36487963, 1, 1, 0, 1
RCIN, 36487968, 1500, 1500, 1500, 1500, 1500, 1500, 1500, 1500, 0, 0, 0, 0, 0, 0
RCOU, 36487974, 1101, 1101, 1101, 1101, 0, 0, 0, 0, 0, 0, 0, 0, 0, 0
VIBE, 36487982, 0.02199339, 0.01866325, 0.03084033, 0, 0, 0
CTRL, 36487989, 0.008554924, 0.0001523573, 0.008232217, 0.0001543511, 0.0001253097
PRX, 36488216, 2, 0.58, 0, 0.62, 0, 3.6, 0, 2.43, 0, 0, 0, 0.58
IMU, 36488226, -3.364806E-05, 0.0008373046, 0.0005215488, 0.2589209, -0.03878365, -9.781721, 0, 0, 33.86456, 1, 1, 1000, 1000
IMU, 36527752, 0.001262617, -0.0004381145, 0.0006501598, 0.2690184, -0.05731595, -9.783243, 0, 0, 33.86457, 1, 1, 1000, 1000
RFND, 36537594, 0.2, 25, 0, 0
IMU, 36567823, -0.0006496557, 0.0004042976, -0.0008241088, 0.2714242, -0.04771154, -9.798416, 0, 0, 33.8648, 1, 1, 1000, 1000
MAG, 36587880, 382, 514, 325, 0, 0, 0, 0, 0, 0, 1, 36587872
RFND, 36587916, 0.2, 25, 0, 0
BARO, 36587953, 0.05850629, 992.8624, 32.01, -0.03134266, 36587, 0, 30.67
CTUN, 36587966, 0, 0, 0, 0.2174709, 0.05710642, 0.05710642, 0.05, 0, 0.19, 0, 0, 0
ATT, 36588261, 0, 0.8, 0, 0.77, 0.18, 0.19, 0, 1
RATE, 36588269, -3.630259, 0.005379332, -0.008598407, -3.490613, -0.02120901, -0.008043413, 0.02566856, -0.03356441, 0.0001306491, 232.2174, -1.525593, 0
NKF1, 36588279, 0.8, 0.77, 0.19, 0.009572748, 0.01088977, 0.005733763, 0, 0, 0, -0.05710642, -0.01, 0, 0
NKF2, 36588279, 1, 0, 0, 0, 0, 0, 0, 0, 0, 0, 0, 0, 0
NKF3, 36588279, 0, 0, 0, 0.01, 0.01, 0, 0, 0, 0, 0, 0
NKF4, 36588279, 0, 0, 0, 0, 0, 5.523199E-07, 0, 0, 0, 19, 229, 0, 0
NKF5, 36588279, 0, 0, 0, 0, 0.19, 0.13, 0, 0.19, 0.5, 3.686996E-05, 0.000398231, 0.0008661406
NKQ1, 36588279, 0.9999024, 0.00247329, 0.01365386, 0.001654416
AHR2, 36588325, 0.75, 0.76, 0.19, 0.05, 0, 0, 0.9999547, 0.006607092, 0.006655038, 0.001623928
MOTB, 36588333, 1, 1, 0, 1
RCIN, 36588337, 1500, 1500, 1500, 1500, 1500, 1500, 1500, 1500, 0, 0, 0, 0, 0, 0
RCOU, 36588342, 1101, 1101, 1101, 1101, 0, 0, 0, 0, 0, 0, 0, 0, 0, 0
VIBE, 36588351, 0.02268727, 0.02026499, 0.03012213, 0, 0, 0
CTRL, 36588357, 0.008565936, 0.0001658202, 0.008229595, 0.0001449861, 0.0001181826
PRX, 36588389, 2, 0.58, 0, 0.61, 0, 3.6, 0, 2.43, 0, 0, 0, 0.58
IMU, 36607958, -0.0007807791, -0.001298044, 8.157684E-05, 0.2687464, -0.04663215, -9.797799, 0, 0, 33.86575, 1, 1, 1000, 1000
RFND, 36637607, 0.2, 25, 0, 0
IMU, 36647879, 0.0007516263, -0.0003131252, 0.0005902243, 0.2616448, -0.04100219, -9.780821, 0, 0, 33.86742, 1, 1, 1000, 1000
MAG, 36687769, 381, 502, 321, 0, 0, 0, 0, 0, 0, 1, 36687761
RFND, 36687805, 0.2, 25, 0, 0
BARO, 36687843, 0.1894489, 992.8477, 32.02, -0.3238741, 36687, 0, 30.67
CTUN, 36687856, 0, 0, 0, 0.2174709, 0.05725181, 0.05725181, 0.18, 0, 0.19, 0, 0, 0
ATT, 36687935, 0, 0.8, 0, 0.77, 0.18, 0.19, 0, 1
RATE, 36687940, -3.63578, 0.02485384, -0.008695894, -3.475747, -0.04853721, -0.007860982, 0.02378316, 0.09938239, -2.608852E-05, 220.0135, -0.04892349, 0
NKF1, 36687948, 0.8, 0.77, 0.19, 0.009818946, 0.01110617, 0.005432433, 0, 0, 0, -0.05725181, -0.01, 0, 0
NKF2, 36687948, 1, 0, 0, 0, 0, 0, 0, 0, 0, 0, 0, 0, 0
NKF3, 36687948, 0, 0, 0, 0.01, 0.02, 0, 0, 0, 0, 0, 0
NKF4, 36687948, 0, 0, 0, 0, 0, 6.017256E-07, 0, 0, 0, 19, 229, 0, 0
NKF5, 36687948, 0, 0, 0, 0, 0.19, 0.13, 0, 0.19, 0.5, 3.753785E-05, 0.0004074608, 0.0009305408
NKQ1, 36687948, 0.9999027, 0.002480088, 0.01362879, 0.001690921
AHR2, 36687993, 0.75, 0.75, 0.19, 0.18, 0, 0, 0.9999548, 0.006615921, 0.006629943, 0.001660515
MOTB, 36688079, 1, 1, 0, 1
RCIN, 36688204, 1500, 1500, 1500, 1500, 1500, 1500, 1500, 1500, 0, 0, 0, 0, 0, 0
RCOU, 36688213, 1101, 1101, 1101, 1101, 0, 0, 0, 0, 0, 0, 0, 0, 0, 0
VIBE, 36688222, 0.01869677, 0.01768576, 0.03088643, 0, 0, 0
CTRL, 36688229, 0.008571202, 0.0001693565, 0.008205016, 0.0001406566, 0.0001107544
PRX, 36688263, 2, 0.58, 0, 0.62, 0, 3.6, 0, 2.45, 0, 0, 0, 0.58
IMU, 36688270, 0.0001776114, -0.0009632212, 0.001728045, 0.2832385, -0.04105717, -9.789136, 0, 0, 33.86947, 1, 1, 1000, 1000
IMU, 36727820, -0.0004451913, 6.631132E-05, 0.0008110104, 0.2692533, -0.045674, -9.793314, 0, 0, 33.87121, 1, 1, 1000, 1000
RFND, 36737632, 0.2, 25, 0, 0
IMU, 36767776, 0.001221804, -0.000392139, -0.0001401215, 0.2748175, -0.04216558, -9.778388, 0, 0, 33.87324, 1, 1, 1000, 1000
MAG, 36787739, 380, 510, 333, 0, 0, 0, 0, 0, 0, 1, 36787731
RFND, 36787775, 0.2, 25, 0, 0
BARO, 36787813, 0.3984, 992.8245, 32.02, -0.1863147, 36787, 0, 30.67
CTUN, 36787825, 0, 0, 0, 0.2174709, 0.05727194, 0.05727194, 0.39, 0, 0.19, 0, 0, 0
ATT, 36787907, 0, 0.81, 0, 0.77, 0.18, 0.19, 0, 1
RATE, 36787913, -3.647804, 0.004530001, -0.008463155, -3.476836, -0.006190164, -0.008131865, 0.02536434, -0.008524788, 4.507361E-05, 221.9634, -0.7498741, 0
NKF1, 36787921, 0.81, 0.77, 0.19, 0.01033724, 0.01172462, 0.005480578, 0, 0, 0, -0.05727194, -0.01, 0, 0
NKF2, 36787921, 1, 0, 0, 0, 0, 0, 0, 0, 0, 0, 0, 0, 0
NKF3, 36787921, 0, 0, 0, 0.01, 0.02, 0, 0, 0, 0, 0, 0
NKF4, 36787921, 0, 0, 0, 0, 0, 6.500097E-07, 0, 0, 0, 19, 229, 0, 0
NKF5, 36787921, 0, 0, 0, 0, 0.19, 0.13, 0, 0.19, 0.5, 3.755423E-05, 0.0003614645, 0.0007825873
NKQ1, 36787921, 0.9999027, 0.002506481, 0.01362827, 0.001693246
AHR2, 36787963, 0.76, 0.75, 0.19, 0.39, 0, 0, 0.9999546, 0.006643188, 0.006627516, 0.001662672
MOTB, 36787970, 1, 1, 0, 1
RCIN, 36787975, 1500, 1500, 1500, 1500, 1500, 1500, 1500, 1500, 0, 0, 0, 0, 0, 0
RCOU, 36787980, 1101, 1101, 1101, 1101, 0, 0, 0, 0, 0, 0, 0, 0, 0, 0
VIBE, 36787989, 0.02036012, 0.01662954, 0.03370905, 0, 0, 0
CTRL, 36787995, 0.00860109, 0.0001698928, 0.008194267, 0.0001583161, 9.327153E-05
PRX, 36788226, 2, 0.58, 0, 0.62, 0, 3.6, 0, 2.45, 0, 0, 0, 0.58
IMU, 36807789, 0.0002837217, -0.0002488351, -0.0003768322, 0.2671728, -0.04338565, -9.799276, 0, 0, 33.87559, 1, 1, 1000, 1000
RFND, 36837743, 0.2, 25, 0, 0
IMU, 36847769, -0.000834451, -0.001918448, 0.001195217, 0.2803077, -0.0472528, -9.762819, 0, 0, 33.8787, 1, 1, 1000, 1000
MAG, 36888376, 383, 516, 325, 0, 0, 0, 0, 0, 0, 1, 36888368
RFND, 36888413, 0.2, 25, 0, 0
BARO, 36888450, 0.3176056, 992.8336, 32.03, 0.479653, 36888, 0, 30.67
CTUN, 36888463, 0, 0, 0, 0.2174709, 0.05747726, 0.05747726, 0.31, 0, 0.19, 0, 0, 0
DU32, 36888503, 7, 50356728
ATT, 36888603, 0, 0.81, 0, 0.76, 0.18, 0.19, 0, 1
RATE, 36888609, -3.647021, -0.04547839, -0.008317215, -3.458223, -0.01640112, -0.008134971, 0.02543235, 0.02897622, 2.367546E-05, 205.7664, -0.1011848, 0
NKF1, 36888650, 0.81, 0.76, 0.19, 0.01076902, 0.01200449, 0.005080651, 0, 0, 0, -0.05747726, -0.01, 0, 0
NKF2, 36888650, 1, 0, 0, 0, 0, 0, 0, 0, 0, 0, 0, 0, 0
NKF3, 36888650, 0, 0, 0, 0.01, 0.02, 0, 0, 0, 0, 0, 0
NKF4, 36888650, 0, 0, 0, 0, 0, 7.334702E-07, 0, 0, 0, 19, 229, 0, 0
NKF5, 36888650, 0, 0, 0, 0, 0.19, 0.13, 0, 0.19, 0.5, 3.829079E-05, 0.0003462287, 0.0007766995
NKQ1, 36888650, 0.999903, 0.002504388, 0.01359373, 0.001705652
AHR2, 36888696, 0.76, 0.75, 0.19, 0.31, 0, 0, 0.9999548, 0.006641958, 0.006592111, 0.001675261
MOTB, 36888704, 1, 1, 0, 1
RCIN, 36888708, 1500, 1500, 1500, 1500, 1500, 1500, 1500, 1500, 0, 0, 0, 0, 0, 0
RCOU, 36888715, 1101, 1101, 1101, 1101, 0, 0, 0, 0, 0, 0, 0, 0, 0, 0
VIBE, 36888723, 0.01751645, 0.01981609, 0.03725917, 0, 0, 0
CTRL, 36888729, 0.008606338, 0.0001544433, 0.008153281, 0.0001507965, 8.34096E-05
PRX, 36888760, 2, 0.58, 0, 0.62, 0, 3.6, 0, 2.45, 0, 0, 0, 0.58
IMU, 36888768, -0.001049507, -0.0004021889, 0.0004992338, 0.2696708, -0.04520033, -9.788967, 0, 0, 33.88264, 1, 1, 1000, 1000
IMU, 36927770, -0.001108841, -0.0005821103, 0.0004781935, 0.260344, -0.03703863, -9.801414, 0, 0, 33.88804, 1, 1, 1000, 1000
RFND, 36937600, 0.2, 25, 0, 0
IMU, 36967768, 6.213503E-05, -0.0007417109, -0.001020407, 0.2661616, -0.0524139, -9.786986, 0, 0, 33.89425, 1, 1, 1000, 1000
MAG, 36987712, 380, 511, 322, 0, 0, 0, 0, 0, 0, 1, 36987704
RFND, 36987747, 0.2, 25, 0, 0
BARO, 36987784, 0.2340252, 992.8428, 32.03, 0.8715281, 36987, 0, 30.67
CTUN, 36987797, 0, 0, 0, 0.2174709, 0.05755975, 0.05755975, 0.23, 0, 0.19, 0, 0, 0
ATT, 36987876, 0, 0.8, 0, 0.76, 0.18, 0.19, 0, 1
RATE, 36987882, -3.636904, -0.01946259, -0.008412318, -3.443624, -0.059484, -0.007889459, 0.02318192, -0.07410954, 0.0001404563, 178.2682, 0.1072884, 0
NKF1, 36987890, 0.8, 0.76, 0.19, 0.01052015, 0.0120132, 0.004401683, 0, 0, 0, -0.05755975, -0.01, 0, 0
NKF2, 36987890, 1, 0, 0, 0, 0, 0, 0, 0, 0, 0, 0, 0, 0
NKF3, 36987890, 0, 0, 0, 0.01, 0.02, 0, 0, 0, 0, 0, 0
NKF4, 36987890, 0, 0, 0, 0, 0, 8.000204E-07, 0, 0, 0, 19, 229, 0, 0
NKF5, 36987890, 0, 0, 0, 0, 0.19, 0.13, 0, 0.19, 0.5, 3.892829E-05, 0.0004226651, 0.001015687
NKQ1, 36987890, 0.9999036, 0.00248667, 0.01356158, 0.001690686
AHR2, 36987933, 0.76, 0.75, 0.19, 0.23, 0, 0, 0.9999552, 0.006621785, 0.006564981, 0.001660511
MOTB, 36987940, 1, 1, 0, 1
RCIN, 36987945, 1500, 1500, 1500, 1500, 1500, 1500, 1500, 1500, 0, 0, 0, 0, 0, 0
RCOU, 36987950, 1101, 1101, 1101, 1101, 0, 0, 0, 0, 0, 0, 0, 0, 0, 0
VIBE, 36987959, 0.02045044, 0.01906875, 0.03373592, 0, 0, 0
CTRL, 36987965, 0.008587192, 0.0001459991, 0.008123023, 0.0001350365, 7.726882E-05
PRX, 36988080, 2, 0.58, 0, 0.62, 0, 3.6, 0, 2.43, 0, 0, 0, 0.58
IMU, 37007758, -0.0003242226, 0.0001565655, 0.0009485991, 0.2638276, -0.0435253, -9.802151, 0, 0, 33.90192, 1, 1, 1000, 1000
EV, 37014967, 57
RFND, 37037610, 0.2, 25, 0, 0
IMU, 37047783, -0.0007912741, -0.000256837, -0.0002186136, 0.2835159, -0.04666159, -9.812234, 0, 0, 33.91, 1, 1, 1000, 1000
MAG, 37087725, 376, 514, 329, 0, 0, 0, 0, 0, 0, 1, 37087716
RFND, 37087760, 0.2, 25, 0, 0
BARO, 37087797, 0.2479552, 992.8412, 32.04, 0.4813324, 37087, 0, 30.67
CTUN, 37087810, 0, 0, 0, 0.2174709, 0.05789367, 0.05789367, 0.24, 0, 0.19, 0, 0, 0
ATT, 37087889, 0, 0.8, 0, 0.76, 0.18, 0.2, 0, 1
RATE, 37087894, -3.637729, -0.02603996, -0.008373591, -3.441601, -0.006022657, -0.008006012, 0.02427106, 0.05364804, 3.055906E-05, 124.7996, -0.03585815, 0
NKF1, 37087902, 0.8, 0.76, 0.2, 0.01112671, 0.01243546, 0.003081472, 0, 0, 0, -0.05789367, -0.01, 0, 0
NKF2, 37087902, 1, 0, 0, 0, 0, 0, 0, 0, 0, 0, 0, 0, 0
NKF3, 37087902, 0, 0, 0, 0.01, 0.02, 0, 0, 0, 0, 0, 0
NKF4, 37087902, 0, 0, 0, 0, 0, 9.08547E-07, 0, 0, 0, 19, 229, 0, 0
NKF5, 37087902, 0, 0, 0, 0, 0.19, 0.13, 0, 0.19, 0.5, 3.865965E-05, 0.0002936815, 0.0006348052
NKQ1, 37087902, 0.9999035, 0.002485536, 0.01356211, 0.001718224
AHR2, 37087946, 0.75, 0.75, 0.19, 0.24, 0, 0, 0.9999551, 0.006619087, 0.006570291, 0.001687992
MOTB, 37087954, 1, 1, 0, 1
RCIN, 37087958, 1500, 1500, 1500, 1500, 1500, 1500, 1500, 1500, 0, 0, 0, 0, 0, 0
RCOU, 37087964, 1117, 1117, 1117, 1117, 0, 0, 0, 0, 0, 0, 0, 0, 0, 0
VIBE, 37087973, 0.01883331, 0.01932316, 0.03251083, 0, 0, 0
CTRL, 37087979, 0.008580544, 0.0001406861, 0.008115062, 0.0001391584, 7.773721E-05
PRX, 37088215, 2, 0.58, 0, 0.62, 0, 3.6, 0, 2.45, 0, 0, 0, 0.58
IMU, 37088226, -0.0007103871, -0.0002211586, 0.0009298327, 0.2688912, -0.04465268, -9.78962, 0, 0, 33.91805, 1, 1, 1000, 1000
IMU, 37127760, -9.868436E-05, 0.0006163943, 0.001216076, 0.2676091, -0.0478306, -9.787012, 0, 0, 33.92616, 1, 1, 1000, 1000
RFND, 37137607, 0.2, 25, 0, 0
IMU, 37167811, 0.001366979, -0.0008405005, -1.831536E-05, 0.2812575, -0.04059799, -9.782382, 0, 0, 33.93365, 1, 1, 1000, 1000
MAG, 37187772, 382, 512, 324, 0, 0, 0, 0, 0, 0, 1, 37187764
RFND, 37187804, 0.2, 25, 0, 0
BARO, 37187842, 0.2535273, 992.8406, 32.04, -0.1227588, 37187, 0, 30.67
CTUN, 37187856, 0, 0, 0, 0.2174709, 0.05814429, 0.05814429, 0.25, 0, 0.19, 0, 0, 0
ATT, 37187935, 0, 0.81, 0, 0.76, 0.19, 0.2, 0, 1
RATE, 37187941, -3.653982, 0.01949275, -0.008585819, -3.434746, -0.04528673, -0.007842638, 0.02432698, 0.1322462, -2.154317E-05, 148.9435, -1.169109, 0
NKF1, 37187948, 0.81, 0.76, 0.2, 0.01212485, 0.01267524, 0.003677616, 0, 0, 0, -0.05814429, -0.01, 0, 0
NKF2, 37187948, 1, 0, 0, 0, 0, 0, 0, 0, 0, 0, 0, 0, 0
NKF3, 37187948, 0, 0, 0, 0.01, 0.02, 0, 0, 0, 0, 0, 0
NKF4, 37187948, 0, 0, 0, 0, 0, 1.003846E-06, 0, 0, 0, 19, 229, 0, 0
NKF5, 37187948, 0, 0, 0, 0, 0.19, 0.13, 0, 0.19, 0.5, 3.944405E-05, 0.0003350192, 0.0007904331
NKQ1, 37187948, 0.9999036, 0.002513966, 0.01355045, 0.001747457
AHR2, 37187991, 0.76, 0.75, 0.2, 0.25, 0, 0, 0.9999549, 0.00664877, 0.006559831, 0.001717072
MOTB, 37188073, 1, 1, 0, 1
RCIN, 37188079, 1500, 1500, 1500, 1500, 1500, 1500, 1500, 1500, 0, 0, 0, 0, 0, 0
RCOU, 37188085, 1141, 1141, 1141, 1141, 0, 0, 0, 0, 0, 0, 0, 0, 0, 0
VIBE, 37188588, 0.02264307, 0.01862046, 0.02980509, 0, 0, 0
CTRL, 37188597, 0.008608789, 0.000142936, 0.008106693, 0.0001486439, 6.516624E-05
PRX, 37188653, 2, 0.58, 0, 0.62, 0, 3.6, 0, 2.45, 0, 0, 0, 0.58
IMU, 37207901, 0.0004812584, -0.0002557368, 7.448236E-05, 0.2603283, -0.0629705, -9.803181, 0, 0, 33.94003, 1, 1, 1000, 1000
RFND, 37237670, 0.2, 25, 0, 0
IMU, 37247836, 0.0007285443, -0.0004414369, 0.000568187, 0.2775529, -0.0379216, -9.790192, 0, 0, 33.94468, 1, 1, 1000, 1000
MAG, 37287778, 378, 514, 325, 0, 0, 0, 0, 0, 0, 1, 37287769
RFND, 37287809, 0.2, 25, 0, 0
BARO, 37287848, 0.2507412, 992.8411, 32.05, -0.2713126, 37287, 0, 30.67
CTUN, 37287861, 0, 0, 0, 0.2174709, 0.05847553, 0.05847553, 0.25, 0, 0.19, 0, 0, 0
ATT, 37287941, 0, 0.81, 0, 0.76, 0.19, 0.2, 0, 1
RATE, 37287948, -3.651769, -0.02906063, -0.008508588, -3.434789, -0.0583858, -0.007616165, 0.02429556, -0.01716659, -1.396555E-06, 121.8266, -0.3142357, 0
NKF1, 37287955, 0.81, 0.76, 0.2, 0.0126417, 0.01271049, 0.003008065, 0, 0, 0, -0.05847553, -0.01, 0, 0
NKF2, 37287955, 1, 0, 0, 0, 0, 0, 0, 0, 0, 0, 0, 0, 0
NKF3, 37287955, 0, 0, 0, 0.01, 0.02, 0, 0, 0, 0, 0, 0
NKF4, 37287955, 0, 0, 0, 0, 0, 1.123045E-06, 0, 0, 0, 19, 229, 0, 0
NKF5, 37287955, 0, 0, 0, 0, 0.19, 0.13, 0, 0.19, 0.5, 3.902064E-05, 0.0002526487, 0.0005218054
NKQ1, 37287955, 0.9999036, 0.002513412, 0.01354653, 0.001761683
AHR2, 37288078, 0.76, 0.75, 0.2, 0.25, 0, 0, 0.9999549, 0.006649351, 0.006557499, 0.001731295
MOTB, 37288210, 1, 1, 0, 1
RCIN, 37288217, 1500, 1500, 1500, 1500, 1500, 1500, 1500, 1500, 0, 0, 0, 0, 0, 0
RCOU, 37288222, 1165, 1165, 1165, 1165, 0, 0, 0, 0, 0, 0, 0, 0, 0, 0
VIBE, 37288231, 0.02180159, 0.019689, 0.02948429, 0, 0, 0
CTRL, 37288237, 0.008614791, 0.000153422, 0.008104202, 0.0001622967, 5.630298E-05
PRX, 37288269, 2, 0.58, 0, 0.62, 0, 3.6, 0, 2.45, 0, 0, 0, 0.58
IMU, 37288277, -0.0007632046, -0.001135163, -0.000306121, 0.2732235, -0.04643004, -9.786689, 0, 0, 33.94886, 1, 1, 1000, 1000
IMU, 37327812, -0.0001689742, -6.007319E-05, -0.0002097965, 0.2671137, -0.05328263, -9.780747, 0, 0, 33.95331, 1, 1, 1000, 1000
RFND, 37337610, 0.2, 25, 0, 0
IMU, 37367820, -0.0007436193, -0.002029726, -0.001805007, 0.2695552, -0.03924406, -9.795092, 0, 0, 33.95804, 1, 1, 1000, 1000
MAG, 37387724, 380, 513, 322, 0, 0, 0, 0, 0, 0, 1, 37387715
RFND, 37387755, 0.2, 25, 0, 0
BARO, 37387795, 0.3231776, 992.8329, 32.05, -0.07682481, 37387, 0, 30.67
CTUN, 37387808, 0, 0, 0, 0.2174709, 0.0588077, 0.0588077, 0.32, 0, 0.19, 0, 0, 0
ATT, 37387885, 0, 0.81, 0, 0.76, 0.19, 0.2, 0, 1
RATE, 37387891, -3.654865, 0.001682875, -0.00888623, -3.425712, -0.01294489, -0.008416981, 0.02427098, -0.004119706, 0.000112029, 117.9877, 0.02908707, 0
NKF1, 37387898, 0.81, 0.76, 0.2, 0.01315705, 0.01327486, 0.002913276, 0, 0, 0, -0.0588077, -0.01, 0, 0
NKF2, 37387898, 1, 0, 0, 0, 0, 0, 0, 0, 0, 0, 0, 0, 0
NKF3, 37387898, 0, 0, 0, 0.02, 0.02, 0, 0, 0, 0, 0, 0
NKF4, 37387898, 0, 0, 0, 0, 0, 1.246998E-06, 0, 0, 0, 19, 229, 0, 0
NKF5, 37387898, 0, 0, 0, 0, 0.19, 0.13, 0, 0.19, 0.5, 3.993014E-05, 0.0002513257, 0.0005619712
NKQ1, 37387898, 0.9999038, 0.002519896, 0.01352969, 0.001738453
AHR2, 37387942, 0.76, 0.74, 0.2, 0.32, 0, 0, 0.999955, 0.00665601, 0.006546523, 0.001708045
MOTB, 37387949, 1, 1, 0, 1
RCIN, 37387954, 1500, 1500, 1500, 1500, 1500, 1500, 1500, 1500, 0, 0, 0, 0, 0, 0
RCOU, 37387959, 1189, 1189, 1189, 1189, 0, 0, 0, 0, 0, 0, 0, 0, 0, 0
VIBE, 37387968, 0.05235783, 0.08644748, 0.07280055, 0, 0, 0
CTRL, 37387974, 0.008604311, 0.0001506544, 0.008071878, 0.0001858168, 6.638264E-05
PRX, 37388498, 2, 0.58, 0, 0.62, 0, 3.6, 0, 2.46, 0, 0, 0, 0.58
IMU, 37407821, -0.0002118865, -0.0001436644, 0.002487483, 0.2755216, -0.03218155, -9.78635, 0, 0, 33.96225, 1, 1, 1000, 1000
RFND, 37437648, 0.2, 25, 0, 0
IMU, 37447800, 0.001974208, -0.001239789, -0.004611765, 0.2848401, -0.04027595, -9.790823, 0, 0, 33.96648, 1, 1, 1000, 1000
MAG, 37487704, 380, 509, 335, 0, 0, 0, 0, 0, 0, 1, 37487695
RFND, 37487735, 0.2, 25, 0, 0
BARO, 37487774, 0.1476587, 992.8524, 32.06, 0.06259668, 37487, 0, 30.67
CTUN, 37487787, 0, 0, 0, 0.2174709, 0.05910941, 0.05910941, 0.14, 0, 0.19, 0, 0, 0
ATT, 37487865, 0, 0.8, 0, 0.75, 0.21, 0.22, 0, 1
RATE, 37487871, -3.655261, -0.1262189, -0.008025945, -3.394004, -0.07853866, -0.007073151, 0.02406549, 1.423976, -0.0004963338, 138.0504, 0.8749962, 0
NKF1, 37487879, 0.8, 0.75, 0.22, 0.01390641, 0.01316554, 0.003408651, 0, 0, 0, -0.05910941, -0.01, 0, 0
NKF2, 37487879, 1, 0, 0, 0, 0, 0, 0, 0, 0, 0, 0, 0, 0
NKF3, 37487879, 0, 0, 0, 0.02, 0.02, 0, 0, 0, 0, 0, 0
NKF4, 37487879, 0, 0, 0, 0, 0, 1.375574E-06, 0, 0, 0, 19, 229, 0, 0
NKF5, 37487879, 0, 0, 0, 0, 0.19, 0.13, 0, 0.19, 0.5, 3.943633E-05, 0.0002265105, 0.0004542448
NKQ1, 37487879, 0.9999038, 0.0024808, 0.01350765, 0.001969872
AHR2, 37487922, 0.76, 0.74, 0.22, 0.14, 0, 0, 0.9999549, 0.006619506, 0.006532122, 0.001939768
MOTB, 37487930, 1, 1, 0, 1
RCIN, 37487934, 1500, 1500, 1500, 1500, 1500, 1500, 1500, 1500, 0, 0, 0, 0, 0, 0
RCOU, 37487939, 1213, 1213, 1213, 1213, 0, 0, 0, 0, 0, 0, 0, 0, 0, 0
VIBE, 37487948, 0.1943928, 0.1947763, 0.2660423, 0, 0, 0
CTRL, 37487954, 0.008600278, 0.0002728786, 0.008060151, 0.0002219247, 0.0001564967
PRX, 37487985, 2, 0.58, 0, 0.62, 0, 3.6, 0, 2.43, 0, 0, 0, 0.58
IMU, 37487994, -0.002458458, -0.00148674, 0.02484656, 0.3213092, -0.04313365, -9.797313, 0, 0, 33.9701, 1, 1, 1000, 1000
IMU, 37527816, -0.002895357, 0.00207389, 0.01910975, 0.3466708, -0.131859, -9.787997, 0, 0, 33.97311, 1, 1, 1000, 1000
RFND, 37537714, 0.2, 25, 0, 0
IMU, 37567824, -0.001222629, -0.0008153806, -0.02551916, 0.2988022, 0.006981799, -9.802611, 0, 0, 33.97603, 1, 1, 1000, 1000
MAG, 37587758, 379, 509, 324, 0, 0, 0, 0, 0, 0, 1, 37587750
RFND, 37587790, 0.2, 25, 0, 0
BARO, 37587829, 0.2813874, 992.8375, 32.06, -0.001741227, 37587, 0, 30.67
CTUN, 37587841, 0, 0, 0, 0.2174709, 0.05949809, 0.05949809, 0.28, 0, 0.19, 0, 0, 0
ATT, 37587921, 0, 0.8, 0, 0.75, 0.23, 0.24, 0, 1
RATE, 37587926, -3.624751, -0.2736469, -0.007246458, -3.391684, 0.2119299, -0.008740424, 0.02384803, 1.445857, -0.0002421861, 57.9007, -3.945923, 0
NKF1, 37587934, 0.8, 0.75, 0.24, 0.01517264, 0.01397463, 0.001429647, 0, 0, 0, -0.0594981, -0.01, 0, 0
NKF2, 37587934, 1, 0, 0, 0, 0, 0, 0, 0, 0, 0, 0, 0, 0
NKF3, 37587934, 0, 0, 0, 0.02, 0.03, 0, 0, 0, 0, 0, 0
NKF4, 37587934, 0, 0, 0, 0, 0, 1.53279E-06, 0, 0, 0, 19, 229, 0, 0
NKF5, 37587934, 0, 0, 0, 0, 0.19, 0.13, 0, 0.19, 0.5, 4.05126E-05, 0.0001775029, 0.0003476541
NKQ1, 37587934, 0.9999037, 0.002419284, 0.01350389, 0.002121347
AHR2, 37587978, 0.75, 0.74, 0.24, 0.28, 0, 0, 0.9999549, 0.006564999, 0.006539796, 0.002091613
MOTB, 37587985, 1, 1, 0, 1
RCIN, 37587990, 1500, 1500, 1500, 1500, 1500, 1500, 1500, 1500, 0, 0, 0, 0, 0, 0
RCOU, 37587995, 1233, 1235, 1221, 1248, 0, 0, 0, 0, 0, 0, 0, 0, 0, 0
VIBE, 37588249, 0.4450375, 0.5777821, 0.6547656, 0, 0, 0
CTRL, 37588257, 0.008541002, 0.0005326074, 0.008026545, 0.0005710977, 0.0003715403
PRX, 37588289, 2, 0.58, 0, 0.62, 0, 3.6, 0, 2.47, 0, 0, 0, 0.58
IMU, 37607829, 0.001450711, -0.004910365, -0.04385407, 0.3039802, -0.07438917, -9.840522, 0, 0, 33.97876, 1, 1, 1000, 1000
RFND, 37637660, 0.2, 25, 0, 0
IMU, 37647865, 0.0003619664, -0.002179564, 0.03393886, 0.3104075, -0.04505533, -9.800562, 0, 0, 33.98135, 1, 1, 1000, 1000
MAG, 37687768, 381, 508, 329, 0, 0, 0, 0, 0, 0, 1, 37687759
RFND, 37687800, 0.2, 25, 0, 0
BARO, 37687839, 0.401186, 992.824, 32.06, -0.07835665, 37687, 0, 30.67
CTUN, 37687851, 0, 0, 0, 0.2174709, 0.05984093, 0.05984093, 0.4, 0, 0.19, 0, 0, 0
ATT, 37687929, 0, 0.8, 0, 0.76, 0.2, 0.21, 0, 1
RATE, 37687935, -3.621429, -0.1652252, -0.008235937, -3.420764, 0.6725833, -0.0117489, 0.02402304, 0.9780149, 0.0007040952, 52.4847, -5.009747, 0
NKF1, 37687942, 0.8, 0.76, 0.21, 0.01590878, 0.0148531, 0.001295919, 0, 0, 0, -0.05984093, -0.01, 0, 0
NKF2, 37687942, 1, 0, 0, 0, 0, 0, 0, 0, 0, 0, 0, 0, 0
NKF3, 37687942, 0, 0, 0, 0.02, 0.03, 0, 0, 0, 0, 0, 0
NKF4, 37687942, 0, 0, 0, 0, 0, 1.668949E-06, 0, 0, 0, 19, 229, 0, 0
NKF5, 37687942, 0, 0, 0, 0, 0.19, 0.13, 0, 0.19, 0.5, 3.975381E-05, 0.0002206785, 0.0004457951
NKQ1, 37687942, 0.9999036, 0.002427886, 0.01354679, 0.001861777
AHR2, 37687986, 0.75, 0.75, 0.21, 0.4, 0, 0, 0.9999549, 0.006576566, 0.006592043, 0.001831712
MOTB, 37687993, 1, 1, 0, 1
RCIN, 37688069, 1500, 1500, 1500, 1500, 1500, 1500, 1500, 1500, 0, 0, 0, 0, 0, 0
RCOU, 37688078, 1236, 1242, 1221, 1254, 0, 0, 0, 0, 0, 0, 0, 0, 0, 0
VIBE, 37688206, 0.4330106, 0.5565724, 0.6225337, 0, 0, 0
CTRL, 37688214, 0.008468277, 0.0006397017, 0.008027572, 0.000922728, 0.0006139522
PRX, 37688246, 2, 0.58, 0, 0.62, 0, 3.6, 0, 2.44, 0, 0, 0, 0.58
IMU, 37688254, -0.003139815, 0.01162248, 0.01706307, 0.2992278, -0.02603588, -9.739076, 0, 0, 33.98358, 1, 1, 1000, 1000
IMU, 37727834, -0.001624905, -0.005453876, 0.04463254, 0.2754502, -0.03566459, -9.780429, 0, 0, 33.98551, 1, 1, 1000, 1000
RFND, 37737674, 0.2, 25, 0, 0
IMU, 37767810, -0.002528262, -0.003805692, -0.01370039, 0.2398649, -0.07790738, -9.807796, 0, 0, 33.9873, 1, 1, 1000, 1000
MAG, 37787710, 380, 509, 328, 0, 0, 0, 0, 0, 0, 1, 37787702
RFND, 37787742, 0.2, 25, 0, 0
BARO, 37787781, 0.3538238, 992.8295, 32.06, 0.1541014, 37787, 0, 30.67
CTUN, 37787793, 0, 0, 0, 0.2174709, 0.06026226, 0.06026226, 0.35, 0, 0.19, 0, 0, 0
ATT, 37787869, 0, 0.8, 0, 0.75, 0.2, 0.21, 0, 1
RATE, 37787875, -3.600364, 0.3842977, -0.01202708, -3.389491, 0.03237394, -0.008653493, 0.02365115, -0.148853, 0.0004051485, 56.04123, 0.8961678, 0
NKF1, 37787883, 0.8, 0.75, 0.21, 0.01401415, 0.0148755, 0.001383734, 0, 0, 0, -0.06026226, -0.01, 0, 0
NKF2, 37787883, 1, 0, 0, 0, 0, 0, 0, 0, 0, 0, 0, 0, 0
NKF3, 37787883, 0, 0, 0, 0.02, 0.03, 0, 0, 0, 0, 0, 0
NKF4, 37787883, 0, 0, 0, 0, 0, 1.861942E-06, 0, 0, 0, 19, 229, 0, 0
NKF5, 37787883, 0, 0, 0, 0, 0.19, 0.13, 0, 0.19, 0.5, 4.102532E-05, 0.0001280552, 0.0001843776
NKQ1, 37787883, 0.9999049, 0.002416346, 0.01345515, 0.001826129
AHR2, 37787925, 0.75, 0.74, 0.21, 0.35, 0, 0, 0.9999557, 0.006552401, 0.006509527, 0.00179642
MOTB, 37787932, 1, 1, 0, 1
RCIN, 37787937, 1500, 1500, 1500, 1500, 1500, 1500, 1500, 1500, 0, 0, 0, 0, 0, 0
RCOU, 37787943, 1242, 1236, 1221, 1255, 0, 0, 0, 0, 0, 0, 0, 0, 0, 0
VIBE, 37787951, 0.4525746, 0.4632238, 0.5646542, 0, 0, 0
CTRL, 37787958, 0.008472592, 0.0008595606, 0.007990538, 0.000971179, 0.0006273277
PRX, 37787989, 2, 0.58, 0, 0.62, 0, 3.6, 0, 2.44, 0, 0, 0, 0.58
IMU, 37807821, 0.003565866, -0.003359996, -0.002200944, 0.2320276, -0.04424237, -9.804197, 0, 0, 33.98888, 1, 1, 1000, 1000
RFND, 37837632, 0.2, 25, 0, 0
IMU, 37847823, -0.001936581, 0.008736383, -0.007798829, 0.3567572, 0.02226242, -9.794432, 0, 0, 33.98996, 1, 1, 1000, 1000
MAG, 37887706, 381, 509, 330, 0, 0, 0, 0, 0, 0, 1, 37887697
RFND, 37887737, 0.2, 25, 0, 0
BARO, 37887776, 0.3008895, 992.8353, 32.07, 0.4501154, 37887, 0, 30.67
CTUN, 37887789, 0, 0, 0, 0.2174709, 0.06061018, 0.06061018, 0.3, 0, 0.19, 0, 0, 0
DU32, 37887829, 7, 33579512
ATT, 37887927, 0, 0.79, 0, 0.73, 0.16, 0.17, 0, 1
RATE, 37887934, -3.552759, -1.115415, -0.000278037, -3.316111, 0.2916154, -0.01394903, 0.02283218, -0.260741, 0.001170635, -33.84892, 6.906223, 0
NKF1, 37887942, 0.79, 0.73, 0.17, 0.01942426, 0.01545257, -0.0008357757, 0, 0, 0, -0.06061018, -0.01, 0, 0
NKF2, 37887942, 1, 0, 0, 0, 0, 0, 0, 0, 0, 0, 0, 0, 0
NKF3, 37887942, 0, 0, 0, 0.02, 0.03, 0, 0, 0, 0, 0, 0
NKF4, 37887942, 0, 0, 0, 0, 0, 2.014789E-06, 0, 0, 0, 19, 229, 0, 0
NKF5, 37887942, 0, 0, 0, 0, 0.19, 0.13, 0, 0.19, 0.5, 4.244974E-05, 0.0001376732, 0.0003071363
NKQ1, 37887942, 0.9999076, 0.002331138, 0.01330925, 0.001525457
AHR2, 37887984, 0.74, 0.72, 0.17, 0.3, 0, 0, 0.9999577, 0.006453456, 0.006372874, 0.001496883
MOTB, 37887992, 1, 1, 0, 1
RCIN, 37887996, 1500, 1500, 1500, 1500, 1500, 1500, 1500, 1500, 0, 0, 0, 0, 0, 0
RCOU, 37888209, 1223, 1246, 1221, 1245, 0, 0, 0, 0, 0, 0, 0, 0, 0, 0
VIBE, 37888218, 0.4840534, 0.4282244, 0.7215418, 0, 0, 0
CTRL, 37888225, 0.008552416, 0.001697722, 0.007755998, 0.001546883, 0.0006651069
PRX, 37888258, 2, 0.58, 0, 0.62, 0, 3.6, 0, 2.47, 0, 0, 0, 0.58
IMU, 37888265, -0.01972314, 0.004973427, -0.004557299, 0.4957401, -0.02608298, -9.853064, 0, 0, 33.99068, 1, 1, 1000, 1000
IMU, 37928347, 0.007933455, -0.01618126, -0.01522845, 0.4302247, 0.05454971, -9.929401, 0, 0, 33.99089, 1, 1, 1000, 1000
RFND, 37937681, 0.2, 25, 0, 0
IMU, 37967759, 0.01087235, 0.01446946, -0.002803522, 0.1493459, 0.005966698, -9.784012, 0, 0, 33.99099, 1, 1, 1000, 1000
MAG, 37987729, 382, 505, 332, 0, 0, 0, 0, 0, 0, 1, 37987720
RFND, 37987765, 0.2, 25, 0, 0
BARO, 37987801, 0.2841734, 992.8371, 32.07, 0.2925315, 37987, 0, 30.67
CTUN, 37987814, 0, 0, 0, 0.2174709, 0.06114097, 0.06114097, 0.28, 0, 0.19, 0, 0, 0
ATT, 37987890, 0, 0.8, 0, 0.7, 0.17, 0.18, 0, 1
RATE, 37987895, -3.607586, -0.5484745, -0.004192989, -3.183732, -1.040398, -0.0008814903, 0.02226926, 0.3430339, -7.924213E-05, -32.11308, 5.153942, 0
NKF1, 37987903, 0.8, 0.7, 0.18, 0.01811667, 0.01500531, -0.0007929154, 0, 0, 0, -0.06114097, -0.01, 0, 0
NKF2, 37987903, 1, 0, 0, 0, 0, 0, 0, 0, 0, 0, 0, 0, 0
NKF3, 37987903, 0, 0, 0, 0.02, 0.03, 0, 0, 0, 0, 0, 0
NKF4, 37987903, 0, 0, 0, 0, 0, 2.241112E-06, 0, 0, 0, 19, 229, 0, 0
NKF5, 37987903, 0, 0, 0, 0, 0.19, 0.13, 0, 0.19, 0.5, 4.164705E-05, 0.0001207888, 0.0002580493
NKQ1, 37987903, 0.9999104, 0.002422138, 0.01306944, 0.001618682
AHR2, 37987946, 0.75, 0.7, 0.18, 0.28, 0, 0, 0.9999583, 0.006544394, 0.006170181, 0.001590395
MOTB, 37987953, 1, 1, 0, 1
RCIN, 37987957, 1500, 1500, 1500, 1500, 1500, 1500, 1500, 1500, 0, 0, 0, 0, 0, 0
RCOU, 37987963, 1228, 1222, 1221, 1230, 0, 0, 0, 0, 0, 0, 0, 0, 0, 0
VIBE, 37987971, 0.5343402, 0.5075606, 0.6664386, 0, 0, 0
CTRL, 37987978, 0.008577286, 0.002132971, 0.007758117, 0.00294038, 0.0006375844
PRX, 37988257, 2, 0.58, 0, 0.62, 0, 3.6, 0, 2.43, 0, 0, 0, 0.58
IMU, 38007906, 0.00537984, 0.0008624617, 0.003741625, 0.347026, -0.005534208, -9.792242, 0, 0, 33.99102, 1, 1, 1000, 1000
RFND, 38037608, 0.2, 25, 0, 0
IMU, 38047775, -0.006747676, -0.01395744, -0.01399949, 0.4421514, -0.0486636, -9.7708, 0, 0, 33.99086, 1, 1, 1000, 1000
MAG, 38087694, 381, 510, 328, 0, 0, 0, 0, 0, 0, 1, 38087685
RFND, 38087730, 0.2, 25, 0, 0
BARO, 38087767, 0.2535273, 992.8408, 32.08, -0.1201469, 38087, 0, 30.67
CTUN, 38087779, 0, 0, 0, 0.2174709, 0.06163223, 0.06163223, 0.25, 0, 0.19, 0, 0, 0
ATT, 38087855, 0, 0.8, 0, 0.7, 0.18, 0.19, 0, 1
RATE, 38087861, -3.605224, -0.1835603, -0.007024787, -3.167683, 0.1797535, -0.00503256, 0.02213072, -0.2918153, 0.0002658911, -24.36032, -3.569317, 0
NKF1, 38087868, 0.8, 0.7, 0.19, 0.01607279, 0.01605183, -0.0006014893, 0, 0, 0, -0.06163223, -0.01, 0, 0
NKF2, 38087868, 1, 0, 0, 0, 0, 0, 0, 0, 0, 0, 0, 0, 0
NKF3, 38087868, 0, 0, 0, 0.03, 0.03, 0, 0, 0, 0, 0, 0
NKF4, 38087868, 0, 0, 0, 0, 0, 2.434648E-06, 0, 0, 0, 19, 229, 0, 0
NKF5, 38087868, 0, 0, 0, 0, 0.19, 0.13, 0, 0.19, 0.5, 4.336876E-05, 4.326749E-05, 0.000207999
NKQ1, 38087868, 0.9999109, 0.00243204, 0.01302165, 0.001703699
AHR2, 38087912, 0.75, 0.7, 0.19, 0.25, 0, 0, 0.9999582, 0.006552852, 0.006156395, 0.00167531
