FMT, 128, 89, FMT, BBnNZ, Type,Length,Name,Format,Columns
FMT, 129, 31, PARM, QNf, TimeUS,Name,Value
FMT, 130, 46, GPS, QBIHBcLLefffB, TimeUS,Status,GMS,GWk,NSats,HDop,Lat,Lng,Alt,Spd,GCrs,VZ,U
FMT, 131, 46, GPS2, QBIHBcLLefffB, TimeUS,Status,GMS,GWk,NSats,HDop,Lat,Lng,Alt,Spd,GCrs,VZ,U
FMT, 132, 46, GPSB, QBIHBcLLefffB, TimeUS,Status,GMS,GWk,NSats,HDop,Lat,Lng,Alt,Spd,GCrs,VZ,U
FMT, 193, 24, GPA, QCCCCBI, TimeUS,VDop,HAcc,VAcc,SAcc,VV,SMS
FMT, 194, 24, GPA2, QCCCCBI, TimeUS,VDop,HAcc,VAcc,SAcc,VV,SMS
FMT, 195, 24, GPAB, QCCCCBI, TimeUS,VDop,HAcc,VAcc,SAcc,VV,SMS
FMT, 133, 53, IMU, QffffffIIfBBHH, TimeUS,GyrX,GyrY,GyrZ,AccX,AccY,AccZ,EG,EA,T,GH,AH,GHz,AHz
FMT, 134, 75, MSG, QZ, TimeUS,Message
FMT, 135, 39, RCIN, QHHHHHHHHHHHHHH, TimeUS,C1,C2,C3,C4,C5,C6,C7,C8,C9,C10,C11,C12,C13,C14
FMT, 136, 39, RCOU, QHHHHHHHHHHHHHH, TimeUS,C1,C2,C3,C4,C5,C6,C7,C8,C9,C10,C11,C12,C13,C14
FMT, 137, 15, RSSI, Qf, TimeUS,RXRSSI
FMT, 139, 37, BARO, QffcfIff, TimeUS,Alt,Press,Temp,CRt,SMS,Offset,GndTemp
FMT, 140, 22, POWR, QffHB, TimeUS,Vcc,VServo,Flags,Safety
FMT, 143, 45, CMD, QHHHfffffff, TimeUS,CTot,CNum,CId,Prm1,Prm2,Prm3,Prm4,Lat,Lng,Alt
FMT, 144, 20, RAD, QBBBBBHH, TimeUS,RSSI,RemRSSI,TxBuf,Noise,RemNoise,RxErrors,Fixed
FMT, 146, 43, CAM, QIHLLeeeccC, TimeUS,GPSTime,GPSWeek,Lat,Lng,Alt,RelAlt,GPSAlt,Roll,Pitch,Yaw
FMT, 232, 43, TRIG, QIHLLeeeccC, TimeUS,GPSTime,GPSWeek,Lat,Lng,Alt,RelAlt,GPSAlt,Roll,Pitch,Yaw
FMT, 162, 30, ARSP, QffcffB, TimeUS,Airspeed,DiffPress,Temp,RawPress,Offset,U
FMT, 164, 45, CURR, QfffcHHHHHHHHHH, TimeUS,Volt,Curr,CurrTot,Temp,V1,V2,V3,V4,V5,V6,V7,V8,V9,V10
FMT, 165, 45, CUR2, QfffcHHHHHHHHHH, TimeUS,Volt,Curr,CurrTot,Temp,V1,V2,V3,V4,V5,V6,V7,V8,V9,V10
FMT, 163, 27, ATT, QccccCCCC, TimeUS,DesRoll,Roll,DesPitch,Pitch,DesYaw,Yaw,ErrRP,ErrYaw
FMT, 166, 34, MAG, QhhhhhhhhhBI, TimeUS,MagX,MagY,MagZ,OfsX,OfsY,OfsZ,MOfsX,MOfsY,MOfsZ,Health,S
FMT, 169, 14, MODE, QMBB, TimeUS,Mode,ModeNum,Rsn
FMT, 196, 17, RFND, QCBCB, TimeUS,Dist1,Orient1,Dist2,Orient2
FMT, 223, 33, DMS, IIIIIBBBBBBBBBB, TimeMS,N,Dp,RT,RS,Er,Fa,Fmn,Fmx,Pa,Pmn,Pmx,Sa,Smn,Smx
FMT, 240, 41, BCN, QBBfffffff, TimeUS,Health,Cnt,D0,D1,D2,D3,PosX,PosY,PosZ
FMT, 138, 53, IMU2, QffffffIIfBBHH, TimeUS,GyrX,GyrY,GyrZ,AccX,AccY,AccZ,EG,EA,T,GH,AH,GHz,AHz
FMT, 147, 53, IMU3, QffffffIIfBBHH, TimeUS,GyrX,GyrY,GyrZ,AccX,AccY,AccZ,EG,EA,T,GH,AH,GHz,AHz
FMT, 141, 45, AHR2, QccCfLLffff, TimeUS,Roll,Pitch,Yaw,Alt,Lat,Lng,Q1,Q2,Q3,Q4
FMT, 180, 31, POS, QLLfff, TimeUS,Lat,Lng,Alt,RelHomeAlt,RelOriginAlt
FMT, 142, 45, SIM, QccCfLLffff, TimeUS,Roll,Pitch,Yaw,Alt,Lat,Lng,Q1,Q2,Q3,Q4
FMT, 198, 51, NKF1, QccCfffffffccc, TimeUS,Roll,Pitch,Yaw,VN,VE,VD,dPD,PN,PE,PD,GX,GY,GZ
FMT, 199, 35, NKF2, QbccccchhhhhhB, TimeUS,AZbias,GSX,GSY,GSZ,VWN,VWE,MN,ME,MD,MX,MY,MZ,MI
FMT, 200, 33, NKF3, Qcccccchhhcc, TimeUS,IVN,IVE,IVD,IPN,IPE,IPD,IMX,IMY,IMZ,IYAW,IVT
FMT, 201, 35, NKF4, QcccccfbbHBHHb, TimeUS,SV,SP,SH,SM,SVT,errRP,OFN,OFE,FS,TS,SS,GPS,PI
FMT, 202, 40, NKF5, QBhhhcccCCfff, TimeUS,NI,FIX,FIY,AFI,HAGL,offset,RI,rng,Herr,eAng,eVel,ePos
FMT, 203, 51, NKF6, QccCfffffffccc, TimeUS,Roll,Pitch,Yaw,VN,VE,VD,dPD,PN,PE,PD,GX,GY,GZ
FMT, 204, 35, NKF7, QbccccchhhhhhB, TimeUS,AZbias,GSX,GSY,GSZ,VWN,VWE,MN,ME,MD,MX,MY,MZ,MI
FMT, 205, 33, NKF8, Qcccccchhhcc, TimeUS,IVN,IVE,IVD,IPN,IPE,IPD,IMX,IMY,IMZ,IYAW,IVT
FMT, 206, 35, NKF9, QcccccfbbHBHHb, TimeUS,SV,SP,SH,SM,SVT,errRP,OFN,OFE,FS,TS,SS,GPS,PI
FMT, 207, 36, NKF0, QBccCCcccccccc, TimeUS,ID,rng,innov,SIV,TR,BPN,BPE,BPD,OFH,OFL,OFN,OFE,OFD
FMT, 208, 27, NKQ1, Qffff, TimeUS,Q1,Q2,Q3,Q4
FMT, 209, 27, NKQ2, Qffff, TimeUS,Q1,Q2,Q3,Q4
FMT, 210, 51, XKF1, QccCfffffffccc, TimeUS,Roll,Pitch,Yaw,VN,VE,VD,dPD,PN,PE,PD,GX,GY,GZ
FMT, 211, 34, XKF2, QccccchhhhhhB, TimeUS,AX,AY,AZ,VWN,VWE,MN,ME,MD,MX,MY,MZ,MI
FMT, 212, 33, XKF3, Qcccccchhhcc, TimeUS,IVN,IVE,IVD,IPN,IPE,IPD,IMX,IMY,IMZ,IYAW,IVT
FMT, 213, 35, XKF4, QcccccfbbHBHHb, TimeUS,SV,SP,SH,SM,SVT,errRP,OFN,OFE,FS,TS,SS,GPS,PI
FMT, 214, 40, XKF5, QBhhhcccCCfff, TimeUS,NI,FIX,FIY,AFI,HAGL,offset,RI,rng,Herr,eAng,eVel,ePos
FMT, 215, 51, XKF6, QccCfffffffccc, TimeUS,Roll,Pitch,Yaw,VN,VE,VD,dPD,PN,PE,PD,GX,GY,GZ
FMT, 216, 34, XKF7, QccccchhhhhhB, TimeUS,AX,AY,AZ,VWN,VWE,MN,ME,MD,MX,MY,MZ,MI
FMT, 217, 33, XKF8, Qcccccchhhcc, TimeUS,IVN,IVE,IVD,IPN,IPE,IPD,IMX,IMY,IMZ,IYAW,IVT
FMT, 218, 35, XKF9, QcccccfbbHBHHb, TimeUS,SV,SP,SH,SM,SVT,errRP,OFN,OFE,FS,TS,SS,GPS,PI
FMT, 219, 36, XKF0, QBccCCcccccccc, TimeUS,ID,rng,innov,SIV,TR,BPN,BPE,BPD,OFH,OFL,OFN,OFE,OFD
FMT, 220, 27, XKQ1, Qffff, TimeUS,Q1,Q2,Q3,Q4
FMT, 221, 27, XKQ2, Qffff, TimeUS,Q1,Q2,Q3,Q4
FMT, 222, 35, XKFD, Qffffff, TimeUS,IX,IY,IZ,IVX,IVY,IVZ
FMT, 148, 34, TERR, QBLLHffHH, TimeUS,Status,Lat,Lng,Spacing,TerrH,CHeight,Pending,Loaded
FMT, 149, 18, UBX1, QBHBBH, TimeUS,Instance,noisePerMS,jamInd,aPower,agcCnt
FMT, 150, 16, UBX2, QBbBbB, TimeUS,Instance,ofsI,magI,ofsQ,magQ
FMT, 151, 18, UBY1, QBHBBH, TimeUS,Instance,noisePerMS,jamInd,aPower,agcCnt
FMT, 152, 16, UBY2, QBbBbB, TimeUS,Instance,ofsI,magI,ofsQ,magQ
FMT, 170, 42, GRAW, QIHBBddfBbB, TimeUS,WkMS,Week,numSV,sv,cpMes,prMes,doMes,mesQI,cno,lli
FMT, 171, 24, GRXH, QdHbBB, TimeUS,rcvTime,week,leapS,numMeas,recStat
FMT, 172, 41, GRXS, QddfBBBHBBBBB, TimeUS,prMes,cpMes,doMes,gnss,sv,freq,lock,cno,prD,cpD,doD,trk
FMT, 173, 63, SBFE, QIHBBdddfffff, TimeUS,TOW,WN,Mode,Err,Lat,Lng,Height,Undul,Vn,Ve,Vu,COG
FMT, 153, 19, ESC1, Qcccc, TimeUS,RPM,Volt,Curr,Temp
FMT, 154, 19, ESC2, Qcccc, TimeUS,RPM,Volt,Curr,Temp
FMT, 155, 19, ESC3, Qcccc, TimeUS,RPM,Volt,Curr,Temp
FMT, 156, 19, ESC4, Qcccc, TimeUS,RPM,Volt,Curr,Temp
FMT, 157, 19, ESC5, Qcccc, TimeUS,RPM,Volt,Curr,Temp
FMT, 158, 19, ESC6, Qcccc, TimeUS,RPM,Volt,Curr,Temp
FMT, 159, 19, ESC7, Qcccc, TimeUS,RPM,Volt,Curr,Temp
FMT, 160, 19, ESC8, Qcccc, TimeUS,RPM,Volt,Curr,Temp
FMT, 167, 34, MAG2, QhhhhhhhhhBI, TimeUS,MagX,MagY,MagZ,OfsX,OfsY,OfsZ,MOfsX,MOfsY,MOfsZ,Health,S
FMT, 168, 34, MAG3, QhhhhhhhhhBI, TimeUS,MagX,MagY,MagZ,OfsX,OfsY,OfsZ,MOfsX,MOfsY,MOfsZ,Health,S
FMT, 174, 31, ACC1, QQfff, TimeUS,SampleUS,AccX,AccY,AccZ
FMT, 175, 31, ACC2, QQfff, TimeUS,SampleUS,AccX,AccY,AccZ
FMT, 176, 31, ACC3, QQfff, TimeUS,SampleUS,AccX,AccY,AccZ
FMT, 177, 31, GYR1, QQfff, TimeUS,SampleUS,GyrX,GyrY,GyrZ
FMT, 178, 31, GYR2, QQfff, TimeUS,SampleUS,GyrX,GyrY,GyrZ
FMT, 179, 31, GYR3, QQfff, TimeUS,SampleUS,GyrX,GyrY,GyrZ
FMT, 181, 35, PIDR, Qffffff, TimeUS,Des,P,I,D,FF,AFF
FMT, 182, 35, PIDP, Qffffff, TimeUS,Des,P,I,D,FF,AFF
FMT, 183, 35, PIDY, Qffffff, TimeUS,Des,P,I,D,FF,AFF
FMT, 184, 35, PIDA, Qffffff, TimeUS,Des,P,I,D,FF,AFF
FMT, 185, 35, PIDS, Qffffff, TimeUS,Des,P,I,D,FF,AFF
FMT, 186, 35, PIDL, Qffffff, TimeUS,Des,P,I,D,FF,AFF
FMT, 161, 37, BAR2, QffcfIff, TimeUS,Alt,Press,Temp,CRt,SMS,Offset,GndTemp
FMT, 197, 37, BAR3, QffcfIff, TimeUS,Alt,Press,Temp,CRt,SMS,Offset,GndTemp
FMT, 187, 35, VIBE, QfffIII, TimeUS,VibeX,VibeY,VibeZ,Clip0,Clip1,Clip2
FMT, 188, 47, IMT, Qfffffffff, TimeUS,DelT,DelvT,DelaT,DelAX,DelAY,DelAZ,DelVX,DelVY,DelVZ
FMT, 189, 47, IMT2, Qfffffffff, TimeUS,DelT,DelvT,DelaT,DelAX,DelAY,DelAZ,DelVX,DelVY,DelVZ
FMT, 190, 47, IMT3, Qfffffffff, TimeUS,DelT,DelvT,DelaT,DelAX,DelAY,DelAZ,DelVX,DelVY,DelVZ
FMT, 191, 24, ORGN, QBLLe, TimeUS,Type,Lat,Lng,Alt
FMT, 192, 19, RPM, Qff, TimeUS,rpm1,rpm2
FMT, 233, 47, GMB1, Iffffffffff, TimeMS,dt,dax,day,daz,dvx,dvy,dvz,jx,jy,jz
FMT, 234, 44, GMB2, IBfffffffff, TimeMS,es,ex,ey,ez,rx,ry,rz,tx,ty,tz
FMT, 235, 13, GMB3, Ihhh, TimeMS,rl_torque_cmd,el_torque_cmd,az_torque_cmd
FMT, 236, 59, RATE, Qffffffffffff, TimeUS,RDes,R,ROut,PDes,P,POut,YDes,Y,YOut,ADes,A,AOut
FMT, 237, 23, RALY, QBBLLh, TimeUS,Tot,Seq,Lat,Lng,Alt
FMT, 238, 43, VISO, Qffffffff, TimeUS,dt,AngDX,AngDY,AngDZ,PosDX,PosDY,PosDZ,conf
FMT, 224, 23, SBPH, QIII, TimeUS,CrcError,LastInject,IARhyp
FMT, 229, 80, SBR1, QHHBZ, TimeUS,msg_type,sender_id,msg_len,d1
FMT, 230, 205, SBR2, QHZZZ, TimeUS,msg_type,d2,d3,d4
FMT, 25, 41, ATUN, QBBfffffff, TimeUS,Axis,TuneStep,Targ,Min,Max,RP,RD,SP,ddt
FMT, 26, 19, ATDE, Qff, TimeUS,Angle,Rate
FMT, 31, 22, PTUN, QBfHHH, TimeUS,Param,TunVal,CtrlIn,TunLo,TunHi
FMT, 12, 28, OF, QBffff, TimeUS,Qual,flowX,flowY,bodyX,bodyY
FMT, 5, 51, NTUN, Qffffffffff, TimeUS,DPosX,DPosY,PosX,PosY,DVelX,DVelY,VelX,VelY,DAccX,DAccY
FMT, 4, 51, CTUN, Qffffffeccfhh, TimeUS,ThI,ABst,ThO,ThH,DAlt,Alt,BAlt,DSAlt,SAlt,TAlt,DCRt,CRt
FMT, 6, 32, PM, QHHIhBHII, TimeUS,NLon,NLoop,MaxT,PMT,I2CErr,INSErr,LogDrop,Mem
FMT, 30, 27, MOTB, Qffff, TimeUS,LiftMax,BatVolt,BatRes,ThLimit
FMT, 13, 12, EV, QB, TimeUS,Id
FMT, 20, 14, D16, QBh, TimeUS,Id,Value
FMT, 21, 14, DU16, QBH, TimeUS,Id,Value
FMT, 22, 16, D32, QBi, TimeUS,Id,Value
FMT, 23, 16, DU32, QBI, TimeUS,Id,Value
FMT, 24, 16, DFLT, QBf, TimeUS,Id,Value
FMT, 19, 13, ERR, QBB, TimeUS,Subsys,ECode
FMT, 32, 19, HELI, Qff, TimeUS,DRRPM,ERRPM
FMT, 33, 29, PL, QBBffff, TimeUS,Heal,TAcq,pX,pY,vX,vY
FMT, 34, 36, GUID, QBffffff, TimeUS,Type,pX,pY,pZ,vX,vY,vZ
FMT, 35, 32, THRO, QBffffbbbb, TimeUS,Stage,Vel,VelZ,Acc,AccEfZ,Throw,AttOk,HgtOk,PosOk
FMT, 36, 56, PRX, QBfffffffffff, TimeUS,Health,D0,D45,D90,D135,D180,D225,D270,D315,DUp,CAn,CDis
MODE, 37996680, 100, 100, 2
FMT, 254, 47, NKT1, QIffffffff, TimeUS,Cnt,IMUMin,IMUMax,EKFMin,EKFMax,AngMin,AngMax,VelMin,VelM
FMT, 253, 31, CTRL, Qfffff, TimeUS,RMSRollP,RMSRollD,RMSPitchP,RMSPitchD,RMSYaw
MSG, 38150856, APM:Copter V3.5.7 (38483450)
MSG, 38150861, New mission
MSG, 38150871, Frame: QUAD
MODE, 38150875, Autonomous, 100, 2
IMU, 38180671, 8.112786E-06, 4.035511E-05, 0.0002549024, 0.2334878, -0.05100702, -9.798979, 0, 0, 36.5274, 1, 1, 1000, 1000
RFND, 38190600, 0.2, 25, 0, 0
IMU, 38220691, -0.0001522466, 0.0002919697, 0.001335599, 0.2347638, -0.04656308, -9.798521, 0, 0, 36.52731, 1, 1, 1000, 1000
MAG, 38240633, 312, 503, 356, 0, 0, 0, 0, 0, 0, 1, 38240625
RFND, 38240668, 0.2, 25, 0, 0
BARO, 38240705, 0.2340704, 992.7827, 34.66, 0.297382, 38240, 0, 34.39
CTUN, 38240718, 0, 0, 0, 0.2160673, 0.09585698, 0.09585698, 0.23, 0, 0.19, 0, 0, 1
ATT, 38240820, 0, 0.81, 0, 0.58, 359.07, 359.09, 0, 1
RATE, 38240827, -3.660181, -0.0378106, -0.008518048, -2.614276, -0.03675627, -0.005991956, 0.0187957, -0.005726196, -7.83282E-06, -762.2176, -0.8571625, 0
NKF1, 38240835, 0.81, 0.58, 359.08, 0.001859602, -0.00945926, -0.01882019, 0, 0, 0, -0.09585698, 0, 0, 0
NKF2, 38240835, 0, 0, 0, 0, 0, 0, 0, 0, 0, 0, 0, 0, 0
NKF3, 38240835, 0, 0, 0, 0, 0, -0.02, 0, 0, 0, 0, 0
NKF4, 38240835, 0, 0, 0, 0, 0, 9.429387E-06, 0, 0, 0, 19, 229, 0, 0
NKF5, 38240835, 0, 0, 0, 0, 0.22, 0.13, 0, 0.19, 0.5, 1.288012E-05, 0.0008113738, 0.002131578
NKQ1, 38240835, 0.9998931, 0.002649307, 0.01193107, -0.008041033
AHR2, 38240879, 0.82, 0.6, 359.31, 0.23, 0, 0, 0.9999421, 0.007238027, 0.005252057, -0.005987743
MOTB, 38240886, 1, 1, 0, 1
RCIN, 38240890, 0, 0, 0, 0, 0, 0, 0, 0, 0, 0, 0, 0, 0, 0
RCOU, 38240896, 1101, 1101, 1101, 1101, 0, 0, 0, 0, 0, 0, 0, 0, 0, 0
VIBE, 38240904, 0.01921945, 0.01960108, 0.03476495, 0, 0, 0
CTRL, 38240910, 0.008625677, 0.0001680075, 0.00615887, 0.000151198, 5.633873E-05
PRX, 38240942, 2, 0.85, 0, 0.68, 0, 0.36, 0, 2.38, 0, 0, 180, 0.36
IMU, 38260751, 0.0007121171, -0.000165555, 0.0009286846, 0.2324192, -0.05933205, -9.80048, 0, 0, 36.52712, 1, 1, 1000, 1000
RFND, 38290544, 0.2, 25, 0, 0
IMU, 38300810, -0.0001380102, -0.0007291205, 0.0001444804, 0.2274738, -0.06441344, -9.794047, 0, 0, 36.52741, 1, 1, 1000, 1000
MAG, 38340637, 319, 500, 359, 0, 0, 0, 0, 0, 0, 1, 38340628
RFND, 38340673, 0.2, 25, 0, 0
BARO, 38340710, 0.2002289, 992.7864, 34.66, 0.4283699, 38340, 0, 34.39
CTUN, 38340722, 0, 0, 0, 0.2160673, 0.09586372, 0.09586372, 0.2, 0, 0.19, 0, 0, 1
ATT, 38340823, 0, 0.81, 0, 0.57, 359.07, 359.09, 0, 1
RATE, 38340829, -3.675068, 0.05053086, -0.008803304, -2.608551, 0.02142897, -0.006120044, 0.01688802, 0.0265021, -1.704479E-05, -773.2856, 1.386356, 0
NKF1, 38340837, 0.81, 0.57, 359.08, 0.001656389, -0.0104393, -0.01909347, 0, 0, 0, -0.09586372, 0, 0, 0
NKF2, 38340837, 0, 0, 0, 0, 0, 0, 0, 0, 0, 0, 0, 0, 0
NKF3, 38340837, 0, 0, 0, 0, 0, -0.02, 0, 0, 0, 0, 0
NKF4, 38340837, 0, 0, 0, 0, 0, 6.3069E-06, 0, 0, 0, 19, 229, 0, 0
NKF5, 38340837, 0, 0, 0, 0, 0.21, 0.13, 0, 0.19, 0.5, 1.993314E-05, 0.001343779, 0.003506282
NKQ1, 38340837, 0.9998934, 0.002677056, 0.01192066, -0.008012393
AHR2, 38340882, 0.82, 0.6, 359.32, 0.2, 0, 0, 0.9999421, 0.007269424, 0.005244511, -0.005951798
MOTB, 38340890, 1, 1, 0, 1
RCIN, 38340894, 0, 0, 0, 0, 0, 0, 0, 0, 0, 0, 0, 0, 0, 0
RCOU, 38340900, 1101, 1101, 1101, 1101, 0, 0, 0, 0, 0, 0, 0, 0, 0, 0
VIBE, 38340908, 0.01955255, 0.02122884, 0.03118145, 0, 0, 0
CTRL, 38340915, 0.008656314, 0.0001609712, 0.006142677, 0.0001550307, 4.791587E-05
PRX, 38340945, 2, 0.85, 0, 0.68, 0, 0.35, 0, 2.37, 0, 0, 180, 0.35
IMU, 38340953, 0.0008222531, 0.0004882117, 0.0006029322, 0.2269687, -0.05527637, -9.808657, 0, 0, 36.52733, 1, 1, 1000, 1000
IMU, 38380573, -0.001465262, 0.0004242764, 0.00068709, 0.2417143, -0.05370474, -9.807796, 0, 0, 36.52736, 1, 1, 1000, 1000
RFND, 38390512, 0.2, 25, 0, 0
IMU, 38420551, 0.0001135133, 0.0003335745, 7.638807E-05, 0.2353758, -0.05325292, -9.801054, 0, 0, 36.52743, 1, 1, 1000, 1000
MAG, 38440577, 317, 499, 364, 0, 0, 0, 0, 0, 0, 1, 38440569
RFND, 38440611, 0.2, 25, 0, 0
BARO, 38440648, 0.1692075, 992.7899, 34.66, 0.2512555, 38440, 0, 34.39
CTUN, 38440660, 0, 0, 0, 0.2160673, 0.09563272, 0.09563272, 0.16, 0, 0.19, 0, 0, 1
ATT, 38440758, 0, 0.81, 0, 0.58, 359.07, 359.09, 0, 1
RATE, 38440764, -3.657264, -0.007557, -0.008626251, -2.618357, 0.003319136, -0.006258925, 0.01905844, -0.01824608, 2.257475E-05, -781.8493, 2.398396, 0
NKF1, 38440772, 0.81, 0.58, 359.08, 0.001880407, -0.01110021, -0.01930492, 0, 0, 0, -0.09563272, 0, 0, 0
NKF2, 38440772, 0, 0, 0, 0, 0, 0, 0, 0, 0, 0, 0, 0, 0
NKF3, 38440772, 0, 0, 0, 0, 0, -0.02, 0, 0, 0, 0, 0
NKF4, 38440772, 0, 0, 0, 0, 0, 4.222082E-06, 0, 0, 0, 19, 229, 0, 0
NKF5, 38440772, 0, 0, 0, 0, 0.22, 0.13, 0, 0.19, 0.5, 2.61565E-05, 0.0006688694, 0.001659951
NKQ1, 38440772, 0.9998932, 0.002643983, 0.0119391, -0.008005244
AHR2, 38440817, 0.82, 0.6, 359.32, 0.16, 0, 0, 0.9999423, 0.007241664, 0.005263679, -0.005937071
MOTB, 38440824, 1, 1, 0, 1
RCIN, 38440829, 0, 0, 0, 0, 0, 0, 0, 0, 0, 0, 0, 0, 0, 0
RCOU, 38440834, 1101, 1101, 1101, 1101, 0, 0, 0, 0, 0, 0, 0, 0, 0, 0
VIBE, 38440842, 0.01841073, 0.01969353, 0.0331252, 0, 0, 0
CTRL, 38440849, 0.008624701, 0.0001831989, 0.006162071, 0.0001653529, 4.28472E-05
PRX, 38440879, 2, 0.85, 0, 0.67, 0, 0.36, 0, 2.37, 0, 0, 180, 0.36
IMU, 38460549, -0.001282372, 0.0005408042, -0.0006088918, 0.239405, -0.0553619, -9.794378, 0, 0, 36.52647, 1, 1, 1000, 1000
RFND, 38490520, 0.2, 25, 0, 0
IMU, 38500703, 0.0009138269, -0.0006109916, -0.001588548, 0.2488753, -0.04191, -9.790435, 0, 0, 36.52637, 1, 1, 1000, 1000
MAG, 38540722, 317, 502, 359, 0, 0, 0, 0, 0, 0, 1, 38540714
RFND, 38540757, 0.2, 25, 0, 0
BARO, 38540794, 0.2002289, 992.7865, 34.66, -0.03526042, 38540, 0, 34.39
CTUN, 38540807, 0, 0, 0, 0.2160673, 0.09557162, 0.09557162, 0.2, 0, 0.19, 0, 0, 1
ATT, 38540958, 0, 0.81, 0, 0.58, 359.07, 359.09, 0, 1
RATE, 38540965, -3.650779, 0.008921038, -0.008809067, -2.615293, 0.02201817, -0.006364314, 0.01911946, -0.002649365, 0.0001288231, -758.9083, 0.7162094, 0
NKF1, 38540972, 0.81, 0.58, 359.08, 0.002406243, -0.01116905, -0.01873848, 0, 0, 0, -0.09557162, 0, 0, 0
NKF2, 38540972, 0, 0, 0, 0, 0, 0, 0, 0, 0, 0, 0, 0, 0
NKF3, 38540972, 0, 0, 0, 0, 0, -0.02, 0, 0, 0, 0, 0
NKF4, 38540972, 0, 0, 0, 0, 0, 2.857695E-06, 0, 0, 0, 19, 229, 0, 0
NKF5, 38540972, 0, 0, 0, 0, 0.22, 0.13, 0, 0.19, 0.5, 3.087822E-05, 0.001134118, 0.002925097
NKQ1, 38540972, 0.9998931, 0.002630722, 0.01193312, -0.00803557
AHR2, 38541014, 0.82, 0.6, 359.32, 0.2, 0, 0, 0.9999422, 0.007234261, 0.005258093, -0.0059598
MOTB, 38541021, 1, 1, 0, 1
RCIN, 38541025, 0, 0, 0, 0, 0, 0, 0, 0, 0, 0, 0, 0, 0, 0
RCOU, 38541031, 1101, 1101, 1101, 1101, 0, 0, 0, 0, 0, 0, 0, 0, 0, 0
VIBE, 38541039, 0.0211723, 0.02041798, 0.03461362, 0, 0, 0
CTRL, 38541046, 0.008608122, 0.0001811613, 0.006157062, 0.000164785, 7.861376E-05
PRX, 38541162, 2, 0.85, 0, 0.68, 0, 0.35, 0, 2.37, 0, 0, 180, 0.35
IMU, 38541172, 9.595907E-05, 0.0004986152, 9.429069E-05, 0.2433672, -0.06123275, -9.801563, 0, 0, 36.52629, 1, 1, 1000, 1000
IMU, 38580710, 8.998041E-05, 0.0006287819, -0.001056394, 0.2352071, -0.05611648, -9.794495, 0, 0, 36.5266, 1, 1, 1000, 1000
RFND, 38590589, 0.2, 25, 0, 0
IMU, 38620740, 7.429143E-05, 0.001081356, -0.0001613623, 0.231336, -0.05024471, -9.788503, 0, 0, 36.52784, 1, 1, 1000, 1000
MAG, 38640680, 309, 501, 362, 0, 0, 0, 0, 0, 0, 1, 38640671
RFND, 38640715, 0.2, 25, 0, 0
BARO, 38640753, 0.2312503, 992.7831, 34.66, -0.1304528, 38640, 0, 34.39
CTUN, 38640767, 0, 0, 0, 0.2160673, 0.09547034, 0.09547034, 0.23, 0, 0.19, 0, 0, 1
ATT, 38640867, 0, 0.8, 0, 0.58, 359.06, 359.08, 0, 1
RATE, 38640874, -3.64375, -0.01832379, -0.008525528, -2.631112, -0.002479621, -0.005929031, 0.01920269, -0.06355532, 0.0001483348, -752.6982, 0.571537, 0
NKF1, 38640882, 0.8, 0.58, 359.07, 0.002491591, -0.01171752, -0.01858514, 0, 0, 0, -0.09547035, 0, 0, 0
NKF2, 38640882, 0, 0, 0, 0, 0, 0, 0, 0, 0, 0, 0, 0, 0
NKF3, 38640882, 0, 0, 0, 0, 0, -0.02, 0, 0, 0, 0, 0
NKF4, 38640882, 0, 0, 0, 0, 0, 1.935062E-06, 0, 0, 0, 19, 229, 0, 0
NKF5, 38640882, 0, 0, 0, 0, 0.22, 0.13, 0, 0.19, 0.5, 3.45118E-05, 0.0005839048, 0.001323452
NKQ1, 38640882, 0.9998925, 0.002619697, 0.01196271, -0.008066382
AHR2, 38640926, 0.82, 0.61, 359.31, 0.23, 0, 0, 0.999942, 0.007225315, 0.005289303, -0.005983309
MOTB, 38640934, 1, 1, 0, 1
RCIN, 38640938, 0, 0, 0, 0, 0, 0, 0, 0, 0, 0, 0, 0, 0, 0
RCOU, 38640943, 1101, 1101, 1101, 1101, 0, 0, 0, 0, 0, 0, 0, 0, 0, 0
VIBE, 38640952, 0.02096496, 0.02153428, 0.03664486, 0, 0, 0
CTRL, 38640959, 0.008599598, 0.0001656472, 0.006199578, 0.0001545179, 0.0001026522
PRX, 38640990, 2, 0.85, 0, 0.68, 0, 0.37, 0, 2.38, 0, 0, 180, 0.37
IMU, 38660610, 0.0001477847, -0.0006666919, -0.0003794936, 0.2332232, -0.06903613, -9.796424, 0, 0, 36.52914, 1, 1, 1000, 1000
RFND, 38690534, 0.2, 25, 0, 0
IMU, 38700615, -0.0002378246, -0.001711695, 9.149386E-05, 0.2363978, -0.05909362, -9.806722, 0, 0, 36.53014, 1, 1, 1000, 1000
MAG, 38740509, 313, 501, 363, 0, 0, 0, 0, 0, 0, 1, 38740501
RFND, 38740541, 0.2, 25, 0, 0
BARO, 38740628, 0.1692075, 992.7899, 34.66, -0.0237948, 38740, 0, 34.39
CTUN, 38740642, 0, 0, 0, 0.2160673, 0.09526989, 0.09526989, 0.16, 0, 0.19, 0, 0, 1
DU32, 38740676, 7, 50389208
ATT, 38740810, 0, 0.8, 0, 0.58, 359.06, 359.08, 0, 1
RATE, 38740817, -3.637681, -0.04248364, -0.008204238, -2.612317, -0.03917827, -0.005855419, 0.01959401, -0.004286131, 6.143969E-05, -724.3145, -2.424622, 0
NKF1, 38740824, 0.8, 0.58, 359.07, 0.002250287, -0.01242942, -0.01788431, 0, 0, 0, -0.09526989, 0, 0, 0
NKF2, 38740824, 0, 0, 0, 0, 0, 0, 0, 0, 0, 0, 0, 0, 0
NKF3, 38740824, 0, 0, 0, 0, -0.01, -0.02, 0, 0, 0, 0, 0
NKF4, 38740824, 0, 0, 0, 0, 0, 1.342568E-06, 0, 0, 0, 19, 229, 0, 0
NKF5, 38740824, 0, 0, 0, 0, 0.22, 0.13, 0, 0.19, 0.5, 3.642523E-05, 0.0009509342, 0.002409728
NKQ1, 38740824, 0.999893, 0.002606179, 0.01192785, -0.008061431
AHR2, 38740869, 0.82, 0.6, 359.32, 0.16, 0, 0, 0.9999424, 0.00721368, 0.005256511, -0.005970782
MOTB, 38740876, 1, 1, 0, 1
RCIN, 38740881, 0, 0, 0, 0, 0, 0, 0, 0, 0, 0, 0, 0, 0, 0
RCOU, 38740887, 1101, 1101, 1101, 1101, 0, 0, 0, 0, 0, 0, 0, 0, 0, 0
VIBE, 38740895, 0.01961511, 0.01880851, 0.03780716, 0, 0, 0
CTRL, 38740901, 0.00858808, 0.0001692677, 0.006162032, 0.0001640004, 0.0001082747
PRX, 38740931, 2, 0.85, 0, 0.67, 0, 0.36, 0, 2.37, 0, 0, 180, 0.36
IMU, 38740938, -0.0008012615, -0.0005693969, 6.580691E-05, 0.2335424, -0.04872791, -9.77048, 0, 0, 36.53125, 1, 1, 1000, 1000
IMU, 38780619, -0.0001175458, 0.000742304, -0.0006523761, 0.2349054, -0.06164554, -9.777589, 0, 0, 36.5326, 1, 1, 1000, 1000
RFND, 38790526, 0.2, 25, 0, 0
IMU, 38820560, -8.925097E-05, 0.0007354185, -0.0001213682, 0.2370824, -0.05221093, -9.785363, 0, 0, 36.53423, 1, 1, 1000, 1000
MAG, 38840595, 321, 491, 363, 0, 0, 0, 0, 0, 0, 1, 38840587
RFND, 38840683, 0.2, 25, 0, 0
BARO, 38840722, 0.180488, 992.7885, 34.67, 0.04142061, 38840, 0, 34.39
CTUN, 38840735, 0, 0, 0, 0.2160673, 0.09516445, 0.09516445, 0.18, 0, 0.19, 0, 0, 1
ATT, 38840835, 0, 0.8, 0, 0.58, 359.06, 359.08, 0, 1
RATE, 38840842, -3.63602, 0.05477146, -0.008899256, -2.622201, -0.01963485, -0.006061261, 0.01926176, 0.00267688, 8.673564E-05, -698.8421, 0.9659767, 0
NKF1, 38840849, 0.8, 0.58, 359.07, 0.00211844, -0.01322457, -0.01725536, 0, 0, 0, -0.09516446, 0, 0, 0
NKF2, 38840849, 0, 0, 0, 0, 0, 0, 0, 0, 0, 0, 0, 0, 0
NKF3, 38840849, 0, 0, 0, 0, -0.01, -0.02, 0, 0, 0, 0, 0
NKF4, 38840849, 0, 0, 0, 0, 0, 9.476087E-07, 0, 0, 0, 19, 229, 0, 0
NKF5, 38840849, 0, 0, 0, 0, 0.22, 0.13, 0, 0.19, 0.5, 3.756544E-05, 0.0005217943, 0.001059174
NKQ1, 38840849, 0.9998927, 0.002603416, 0.01194746, -0.008068717
AHR2, 38840895, 0.82, 0.6, 359.32, 0.18, 0, 0, 0.9999422, 0.007215921, 0.005275272, -0.005970851
MOTB, 38841409, 1, 1, 0, 1
RCIN, 38841414, 0, 0, 0, 0, 0, 0, 0, 0, 0, 0, 0, 0, 0, 0
RCOU, 38841420, 1101, 1101, 1101, 1101, 0, 0, 0, 0, 0, 0, 0, 0, 0, 0
VIBE, 38841428, 0.01857318, 0.02062344, 0.03820527, 0, 0, 0
CTRL, 38841436, 0.008574648, 0.000173045, 0.006178168, 0.0001574122, 9.922799E-05
PRX, 38841468, 2, 0.85, 0, 0.68, 0, 0.36, 0, 2.38, 0, 0, 180, 0.36
IMU, 38860685, -5.211242E-05, 0.0006732751, -0.001083621, 0.235422, -0.06043236, -9.798177, 0, 0, 36.53574, 1, 1, 1000, 1000
RFND, 38890595, 0.2, 25, 0, 0
IMU, 38900714, 0.0007148006, 0.0005746679, -0.0002707385, 0.2373052, -0.0420917, -9.814791, 0, 0, 36.53668, 1, 1, 1000, 1000
MAG, 38940788, 316, 501, 361, 0, 0, 0, 0, 0, 0, 1, 38940780
RFND, 38940824, 0.2, 25, 0, 0
BARO, 38940860, 0.1663874, 992.7902, 34.67, -0.04494575, 38940, 0, 34.39
CTUN, 38940874, 0, 0, 0, 0.2160673, 0.09468785, 0.09468785, 0.16, 0, 0.19, 0, 0, 1
ATT, 38940974, 0, 0.8, 0, 0.58, 359.06, 359.08, 0, 1
RATE, 38940981, -3.633178, -0.0177509, -0.008546442, -2.61403, -0.05450765, -0.006005, 0.01710396, -0.019502, 0.0001368741, -697.7263, 0.5324364, 0
NKF1, 38940988, 0.8, 0.58, 359.07, 0.002147712, -0.0141215, -0.01722781, 0, 0, 0, -0.09468786, 0, 0, 0
NKF2, 38940988, 0, 0, 0, 0, 0, 0, 0, 0, 0, 0, 0, 0, 0
NKF3, 38940988, 0, 0, 0, 0, -0.01, -0.02, 0, 0, 0, 0, 0
NKF4, 38940988, 0, 0, 0, 0, 0, 6.99104E-07, 0, 0, 0, 19, 229, 0, 0
NKF5, 38940988, 0, 0, 0, 0, 0.22, 0.13, 0, 0.19, 0.5, 3.779898E-05, 0.0007469486, 0.001833687
NKQ1, 38940988, 0.9998927, 0.002597975, 0.01193059, -0.008095948
AHR2, 38941034, 0.82, 0.6, 359.31, 0.16, 0, 0, 0.9999422, 0.007216134, 0.005256949, -0.005990529
MOTB, 38941041, 1, 1, 0, 1
RCIN, 38941046, 0, 0, 0, 0, 0, 0, 0, 0, 0, 0, 0, 0, 0, 0
RCOU, 38941051, 1101, 1101, 1101, 1101, 0, 0, 0, 0, 0, 0, 0, 0, 0, 0
VIBE, 38941059, 0.01873284, 0.02223648, 0.03299286, 0, 0, 0
CTRL, 38941066, 0.008574034, 0.000165265, 0.006160018, 0.0001872431, 0.0001105271
PRX, 38941295, 2, 0.85, 0, 0.67, 0, 0.36, 0, 2.37, 0, 0, 180, 0.36
IMU, 38941304, -0.0003696326, -0.0008368832, -0.0001996831, 0.2303177, -0.06236566, -9.800105, 0, 0, 36.53799, 1, 1, 1000, 1000
IMU, 38980691, 0.0003277535, 0.002548336, 0.0002399659, 0.2335993, -0.05338517, -9.801231, 0, 0, 36.53857, 1, 1, 1000, 1000
RFND, 38990665, 0.2, 25, 0, 0
IMU, 39020802, -0.001215769, 0.001883263, 0.000576611, 0.2392972, -0.06755532, -9.793782, 0, 0, 36.53854, 1, 1, 1000, 1000
MAG, 39040577, 310, 502, 357, 0, 0, 0, 0, 0, 0, 1, 39040568
RFND, 39040607, 0.2, 25, 0, 0
BARO, 39040647, 0.1945887, 992.7872, 34.67, -0.1136863, 39040, 0, 34.39
CTUN, 39040660, 0, 0, 0, 0.2160673, 0.09462199, 0.09462199, 0.19, 0, 0.19, 0, 0, 1
ATT, 39040760, 0, 0.8, 0, 0.58, 359.06, 359.08, 0, 1
RATE, 39040767, -3.628186, 0.05208928, -0.009009744, -2.630019, -0.03565177, -0.005920321, 0.01679437, 0.05459736, 2.719444E-05, -689.1444, 1.639843, 0
NKF1, 39040774, 0.8, 0.58, 359.07, 0.001950484, -0.01518259, -0.01701591, 0, 0, 0, -0.09462198, 0, 0, 0
NKF2, 39040774, 0, 0, 0, 0, 0, 0, 0, 0, 0, 0, 0, 0, 0
NKF3, 39040774, 0, 0, 0, 0, -0.01, -0.02, 0, 0, 0, 0, 0
NKF4, 39040774, 0, 0, 0, 0, 0, 5.349666E-07, 0, 0, 0, 19, 229, 0, 0
NKF5, 39040774, 0, 0, 0, 0, 0.21, 0.13, 0, 0.19, 0.5, 3.759345E-05, 0.001242588, 0.003173846
NKQ1, 39040774, 0.9998925, 0.002587568, 0.01196421, -0.008080231
AHR2, 39040819, 0.82, 0.61, 359.32, 0.19, 0, 0, 0.9999422, 0.007212172, 0.005289019, -0.005967497
MOTB, 39040827, 1, 1, 0, 1
RCIN, 39040831, 0, 0, 0, 0, 0, 0, 0, 0, 0, 0, 0, 0, 0, 0
RCOU, 39040836, 1101, 1101, 1101, 1101, 0, 0, 0, 0, 0, 0, 0, 0, 0, 0
VIBE, 39040845, 0.0186375, 0.02115893, 0.03662263, 0, 0, 0
CTRL, 39040852, 0.008555122, 0.0001930374, 0.006200922, 0.0002109413, 0.0001053036
PRX, 39040883, 2, 0.85, 0, 0.68, 0, 0.36, 0, 2.36, 0, 0, 180, 0.36
IMU, 39060952, 0.0002719151, 2.218633E-05, 0.0001129999, 0.2337784, -0.06525761, -9.795504, 0, 0, 36.53931, 1, 1, 1000, 1000
RFND, 39090583, 0.2, 25, 0, 0
IMU, 39100708, 0.0003393427, 0.001028261, -9.426671E-05, 0.2413665, -0.05774519, -9.810583, 0, 0, 36.54003, 1, 1, 1000, 1000
MAG, 39140586, 320, 498, 356, 0, 0, 0, 0, 0, 0, 1, 39140577
RFND, 39140615, 0.2, 25, 0, 0
BARO, 39140655, 0.07050315, 992.8007, 34.67, -0.09077279, 39140, 0, 34.39
CTUN, 39140667, 0, 0, 0, 0.2160673, 0.09332892, 0.09332892, 0.07, 0, 0.19, 0, 0, 1
ATT, 39140769, 0, 0.8, 0, 0.58, 359.06, 359.08, 0, 1
RATE, 39140775, -3.631353, 0.00115713, -0.008619924, -2.646702, 0.04018558, -0.006418779, 0.01857137, -0.01333891, 0.0001064356, -653.0004, -1.730633, 0
NKF1, 39140783, 0.8, 0.58, 359.07, 0.001744675, -0.01638301, -0.01612347, 0, 0, 0, -0.09332892, 0, 0, 0
NKF2, 39140783, 0, 0, 0, 0, 0, 0, 0, 0, 0, 0, 0, 0, 0
NKF3, 39140783, 0, 0, 0, 0, -0.01, -0.01, 0, 0, 0, 0, 0
NKF4, 39140783, 0, 0, 0, 0, 0, 4.527141E-07, 0, 0, 0, 19, 229, 0, 0
NKF5, 39140783, 0, 0, 0, 0, 0.21, 0.13, 0, 0.19, 0.5, 3.697197E-05, 0.001089383, 0.002839344
NKQ1, 39140783, 0.9998919, 0.002594996, 0.01199409, -0.008109916
AHR2, 39140827, 0.82, 0.61, 359.31, 0.07, 0, 0, 0.9999418, 0.00722582, 0.005317093, -0.005989989
MOTB, 39140834, 1, 1, 0, 1
RCIN, 39140838, 0, 0, 0, 0, 0, 0, 0, 0, 0, 0, 0, 0, 0, 0
RCOU, 39140844, 1101, 1101, 1101, 1101, 0, 0, 0, 0, 0, 0, 0, 0, 0, 0
VIBE, 39140852, 0.02015612, 0.0210151, 0.03419264, 0, 0, 0
CTRL, 39140859, 0.008567477, 0.0001751551, 0.006229749, 0.0002000815, 0.0001023763
PRX, 39140890, 2, 0.85, 0, 0.68, 0, 0.36, 0, 2.38, 0, 0, 180, 0.36
IMU, 39140897, -3.96524E-05, 0.0008158412, -9.209409E-05, 0.2274615, -0.06835434, -9.777575, 0, 0, 36.54055, 1, 1, 1000, 1000
IMU, 39180695, -0.0006241855, 0.0006165826, -0.001230341, 0.236408, -0.05575708, -9.790885, 0, 0, 36.54055, 1, 1, 1000, 1000
RFND, 39190613, 0.2, 25, 0, 0
IMU, 39220781, 0.0002819835, 0.0008029735, 0.0006386436, 0.2392844, -0.05530962, -9.783607, 0, 0, 36.54138, 1, 1, 1000, 1000
MAG, 39240597, 313, 502, 357, 0, 0, 0, 0, 0, 0, 1, 39240589
RFND, 39240627, 0.2, 25, 0, 0
BARO, 39240667, 0.02820126, 992.8055, 34.67, -0.1648011, 39240, 0, 34.39
CTUN, 39240680, 0, 0, 0, 0.2160673, 0.09280238, 0.09280238, 0.02, 0, 0.19, 0, 0, 1
ATT, 39240779, 0, 0.8, 0, 0.58, 359.06, 359.08, 0, 1
RATE, 39240786, -3.63437, -0.003873882, -0.008486936, -2.656027, 0.04501991, -0.006428326, 0.02072678, -0.005763235, 4.914272E-05, -618.7403, 0.1384735, 0
NKF1, 39240793, 0.8, 0.58, 359.07, 0.001515502, -0.01734547, -0.01527754, 0, 0, 0, -0.09280238, 0, 0, 0
NKF2, 39240793, 0, 0, 0, 0, 0, 0, 0, 0, 0, 0, 0, 0, 0
NKF3, 39240793, 0, 0, 0, 0, -0.01, -0.01, 0, 0, 0, 0, 0
NKF4, 39240793, 0, 0, 0, 0, 0, 3.971229E-07, 0, 0, 0, 19, 229, 0, 0
NKF5, 39240793, 0, 0, 0, 0, 0.22, 0.13, 0, 0.19, 0.5, 3.676886E-05, 0.0005072833, 0.001162181
NKQ1, 39240793, 0.9998916, 0.002600484, 0.01201197, -0.008118616
AHR2, 39240839, 0.82, 0.61, 359.31, 0.02, 0, 0, 0.9999416, 0.007241434, 0.00533286, -0.005991399
MOTB, 39240847, 1, 1, 0, 1
RCIN, 39240851, 0, 0, 0, 0, 0, 0, 0, 0, 0, 0, 0, 0, 0, 0
RCOU, 39240856, 1101, 1101, 1101, 1101, 0, 0, 0, 0, 0, 0, 0, 0, 0, 0
VIBE, 39240864, 0.02064737, 0.01847563, 0.03000446, 0, 0, 0
CTRL, 39240871, 0.008571906, 0.0001674251, 0.006249887, 0.0001725646, 0.0001067671
PRX, 39240902, 2, 0.84, 0, 0.68, 0, 0.36, 0, 2.38, 0, 0, 180, 0.36
IMU, 39260793, -3.109646E-05, 0.0002910183, 9.357125E-05, 0.2211233, -0.05188964, -9.809645, 0, 0, 36.54317, 1, 1, 1000, 1000
RFND, 39290853, 0.2, 25, 0, 0
IMU, 39300708, 0.0007435717, 0.0001179812, -0.0006072789, 0.2339041, -0.05989292, -9.801283, 0, 0, 36.54457, 1, 1, 1000, 1000
MAG, 39340647, 314, 500, 361, 0, 0, 0, 0, 0, 0, 1, 39340581
RFND, 39340678, 0.2, 25, 0, 0
BARO, 39340718, 0.04794214, 992.8035, 34.66, -0.3780731, 39340, 0, 34.39
CTUN, 39340730, 0, 0, 0, 0.2160673, 0.09221534, 0.09221534, 0.04, 0, 0.19, 0, 0, 1
ATT, 39340832, 0, 0.8, 0, 0.59, 359.06, 359.08, 0, 1
RATE, 39340838, -3.635433, 0.01243551, -0.008730671, -2.657555, 0.05211289, -0.006661052, 0.01877169, -0.00036202, 2.673589E-05, -628.3041, 1.370335, 0
NKF1, 39340846, 0.8, 0.59, 359.07, 0.0008570204, -0.01833441, -0.01551368, 0, 0, 0, -0.09221535, 0, 0, 0
NKF2, 39340846, 0, 0, 0, 0, 0, 0, 0, 0, 0, 0, 0, 0, 0
NKF3, 39340846, 0, 0, 0, 0, -0.01, -0.02, 0, 0, 0, 0, 0
NKF4, 39340846, 0, 0, 0, 0, 0, 3.885722E-07, 0, 0, 0, 19, 229, 0, 0
NKF5, 39340846, 0, 0, 0, 0, 0.21, 0.13, 0, 0.19, 0.5, 3.61321E-05, 0.0006738969, 0.001704609
NKQ1, 39340846, 0.9998915, 0.002602613, 0.01201523, -0.008113493
AHR2, 39340891, 0.82, 0.61, 359.31, 0.04, 0, 0, 0.9999416, 0.007254875, 0.005333933, -0.005978888
MOTB, 39340899, 1, 1, 0, 1
RCIN, 39340903, 0, 0, 0, 0, 0, 0, 0, 0, 0, 0, 0, 0, 0, 0
RCOU, 39340908, 1101, 1101, 1101, 1101, 0, 0, 0, 0, 0, 0, 0, 0, 0, 0
VIBE, 39340916, 0.0198797, 0.01857301, 0.03492368, 0, 0, 0
CTRL, 39340923, 0.008575719, 0.0001525919, 0.006255129, 0.0001849095, 9.631534E-05
PRX, 39340955, 2, 0.85, 0, 0.67, 0, 0.35, 0, 2.38, 0, 0, 180, 0.35
IMU, 39340962, 0.0001570473, 0.001024263, 0.0001347062, 0.2356465, -0.06657323, -9.808422, 0, 0, 36.54458, 1, 1, 1000, 1000
IMU, 39380715, 0.0004038973, -0.0003967539, 0.0008697025, 0.2208029, -0.05811608, -9.791059, 0, 0, 36.54527, 1, 1, 1000, 1000
RFND, 39390677, 0.2, 25, 0, 0
IMU, 39420790, 0.0003349689, 0.00101314, -0.0009175786, 0.2446842, -0.06178717, -9.801326, 0, 0, 36.54714, 1, 1, 1000, 1000
MAG, 39440643, 312, 501, 361, 0, 0, 0, 0, 0, 0, 1, 39440635
RFND, 39440674, 0.2, 25, 0, 0
BARO, 39440714, 0.02820126, 992.8055, 34.67, -0.4556266, 39440, 0, 34.39
CTUN, 39440727, 0, 0, 0, 0.2160673, 0.09202978, 0.09202978, 0.02, 0, 0.19, 0, 0, 1
ATT, 39440830, 0, 0.8, 0, 0.59, 359.06, 359.08, 0, 1
RATE, 39440836, -3.638492, 0.03390626, -0.00853049, -2.663806, -0.001435614, -0.006100125, 0.0197058, -0.005752044, 9.94135E-05, -627.6002, 0.7125854, 0
NKF1, 39440844, 0.8, 0.59, 359.07, 0.0005573336, -0.01902789, -0.0154963, 0, 0, 0, -0.09202978, 0, 0, 0
NKF2, 39440844, 0, 0, 0, 0, 0, 0, 0, 0, 0, 0, 0, 0, 0
NKF3, 39440844, 0, 0, 0, 0, -0.01, -0.02, 0, 0, 0, 0, 0
NKF4, 39440844, 0, 0, 0, 0, 0, 3.960227E-07, 0, 0, 0, 19, 229, 0, 0
NKF5, 39440844, 0, 0, 0, 0, 0.22, 0.13, 0, 0.19, 0.5, 3.607336E-05, 0.0004219267, 0.000779764
NKQ1, 39440844, 0.9998912, 0.002609143, 0.01202729, -0.008126747
AHR2, 39440889, 0.82, 0.61, 359.31, 0.02, 0, 0, 0.9999414, 0.007270531, 0.00534078, -0.005984811
MOTB, 39440897, 1, 1, 0, 1
RCIN, 39440901, 0, 0, 0, 0, 0, 0, 0, 0, 0, 0, 0, 0, 0, 0
RCOU, 39440906, 1101, 1101, 1101, 1101, 0, 0, 0, 0, 0, 0, 0, 0, 0, 0
VIBE, 39440915, 0.02084488, 0.01868649, 0.03253088, 0, 0, 0
CTRL, 39440922, 0.008582368, 0.0001778182, 0.006276593, 0.0001725877, 8.777979E-05
PRX, 39440953, 2, 0.85, 0, 0.68, 0, 0.36, 0, 2.38, 0, 0, 180, 0.36
IMU, 39460821, -0.0004580767, -4.5475E-05, -0.0006409896, 0.2426488, -0.06006861, -9.807431, 0, 0, 36.54913, 1, 1, 1000, 1000
RFND, 39490575, 0.2, 25, 0, 0
IMU, 39500798, 0.0004181326, 0.0001682598, 0.0001685184, 0.2387481, -0.05768211, -9.795573, 0, 0, 36.55016, 1, 1, 1000, 1000
MAG, 39540626, 315, 499, 363, 0, 0, 0, 0, 0, 0, 1, 39540618
RFND, 39540657, 0.2, 25, 0, 0
BARO, 39540696, 0.07050315, 992.8007, 34.67, -0.2731997, 39540, 0, 34.39
CTUN, 39540709, 0, 0, 0, 0.2160673, 0.09146642, 0.09146642, 0.07, 0, 0.19, 0, 0, 1
ATT, 39540810, 0, 0.8, 0, 0.59, 359.06, 359.08, 0, 1
RATE, 39540816, -3.6276, -0.04609672, -0.008505718, -2.668242, -0.00225281, -0.006079448, 0.01819025, 0.03759423, 7.321114E-05, -605.2281, 0.5765915, 0
NKF1, 39540825, 0.8, 0.59, 359.07, 0.0008990495, -0.0203229, -0.01494391, 0, 0, 0, -0.09146642, 0, 0, 0
NKF2, 39540825, 0, 0, 0, 0, 0, 0, 0, 0, 0, 0, 0, 0, 0
NKF3, 39540825, 0, 0, 0, 0, -0.02, -0.02, 0, 0, 0, 0, 0
NKF4, 39540825, 0, 0, 0, 0, 0, 4.399295E-07, 0, 0, 0, 19, 229, 0, 0
NKF5, 39540825, 0, 0, 0, 0, 0.21, 0.13, 0, 0.19, 0.5, 3.54207E-05, 0.0004392926, 0.0009503098
NKQ1, 39540825, 0.9998913, 0.002587749, 0.01203768, -0.008122116
AHR2, 39540870, 0.82, 0.61, 359.32, 0.07, 0, 0, 0.9999416, 0.007257669, 0.005344979, -0.005972644
MOTB, 39540878, 1, 1, 0, 1
RCIN, 39540883, 0, 0, 0, 0, 0, 0, 0, 0, 0, 0, 0, 0, 0, 0
RCOU, 39540888, 1101, 1101, 1101, 1101, 0, 0, 0, 0, 0, 0, 0, 0, 0, 0
VIBE, 39540897, 0.02038234, 0.02057197, 0.02870571, 0, 0, 0
CTRL, 39540904, 0.008559221, 0.0001744151, 0.006290156, 0.0001701039, 9.012063E-05
PRX, 39540934, 2, 0.85, 0, 0.67, 0, 0.36, 0, 2.38, 0, 0, 180, 0.36
IMU, 39540941, -0.0008643261, 7.49711E-05, 0.0007966423, 0.2473545, -0.06649704, -9.800268, 0, 0, 36.55061, 1, 1, 1000, 1000
IMU, 39580709, -0.0001307294, 0.0009689825, -3.21417E-05, 0.2256864, -0.04564427, -9.802904, 0, 0, 36.55187, 1, 1, 1000, 1000
RFND, 39590611, 0.2, 25, 0, 0
IMU, 39620744, 0.0005606853, 0.0005254255, -0.0005612131, 0.2388403, -0.04263075, -9.799172, 0, 0, 36.55222, 1, 1, 1000, 1000
MAG, 39640622, 312, 496, 359, 0, 0, 0, 0, 0, 0, 1, 39640614
RFND, 39640652, 0.2, 25, 0, 0
BARO, 39640691, 0.0874239, 992.7991, 34.67, -0.033489, 39640, 0, 34.39
CTUN, 39640704, 0, 0, 0, 0.2160673, 0.09133402, 0.09133402, 0.08, 0, 0.19, 0, 0, 1
ATT, 39640804, 0, 0.8, 0, 0.59, 359.05, 359.07, 0, 1
RATE, 39640810, -3.628931, 0.02017581, -0.008539176, -2.684214, 0.03744064, -0.006360296, 0.01854861, -0.04621959, 0.0001422019, -621.6994, 1.038837, 0
NKF1, 39640818, 0.8, 0.59, 359.06, 0.0003910188, -0.02043843, -0.0153506, 0, 0, 0, -0.09133402, 0, 0, 0
NKF2, 39640818, 0, 0, 0, 0, 0, 0, 0, 0, 0, 0, 0, 0, 0
NKF3, 39640818, 0, 0, 0, 0, -0.02, -0.02, 0, 0, 0, 0, 0
NKF4, 39640818, 0, 0, 0, 0, 0, 4.805431E-07, 0, 0, 0, 19, 229, 0, 0
NKF5, 39640818, 0, 0, 0, 0, 0.21, 0.13, 0, 0.19, 0.5, 3.485708E-05, 0.0007654498, 0.00184476
NKQ1, 39640818, 0.9998906, 0.002591601, 0.0120655, -0.008153629
AHR2, 39640862, 0.82, 0.62, 359.31, 0.08, 0, 0, 0.9999412, 0.007268408, 0.005370811, -0.005996919
MOTB, 39640870, 1, 1, 0, 1
RCIN, 39640874, 0, 0, 0, 0, 0, 0, 0, 0, 0, 0, 0, 0, 0, 0
RCOU, 39640879, 1101, 1101, 1101, 1101, 0, 0, 0, 0, 0, 0, 0, 0, 0, 0
VIBE, 39640887, 0.01871805, 0.02054813, 0.03185425, 0, 0, 0
CTRL, 39640894, 0.008564712, 0.0001706446, 0.006318402, 0.0001676718, 9.554646E-05
PRX, 39640925, 2, 0.85, 0, 0.68, 0, 0.36, 0, 2.37, 0, 0, 180, 0.36
IMU, 39660721, -0.0008655358, -0.0006769827, 0.0006516249, 0.2280843, -0.05807114, -9.820591, 0, 0, 36.55224, 1, 1, 1000, 1000
RFND, 39690615, 0.2, 25, 0, 0
IMU, 39700718, -0.000255796, 0.0007022067, 0.0004807234, 0.2274232, -0.04448585, -9.818985, 0, 0, 36.55239, 1, 1, 1000, 1000
MAG, 39741022, 314, 497, 361, 0, 0, 0, 0, 0, 0, 1, 39741014
RFND, 39741052, 0.2, 25, 0, 0
BARO, 39741169, 0.03948176, 992.8041, 34.67, 0.09960182, 39741, 0, 34.39
CTUN, 39741185, 0, 0, 0, 0.2160673, 0.09107529, 0.09107529, 0.03, 0, 0.19, 0, 0, 1
DU32, 39741226, 7, 50389208
ATT, 39741409, 0, 0.8, 0, 0.59, 359.05, 359.07, 0, 1
RATE, 39741415, -3.628493, 0.05596094, -0.00875597, -2.687759, -0.05614086, -0.005919354, 0.01969979, -0.0603022, 5.00462E-05, -649.3955, 0.9864807, 0
NKF1, 39741422, 0.8, 0.59, 359.06, -0.0005868666, -0.02047137, -0.01603446, 0, 0, 0, -0.09107529, 0, 0, 0
NKF2, 39741422, 0, 0, 0, 0, 0, 0, 0, 0, 0, 0, 0, 0, 0
NKF3, 39741422, 0, 0, 0, 0, -0.02, -0.02, 0, 0, 0, 0, 0
NKF4, 39741422, 0, 0, 0, 0, 0, 5.518315E-07, 0, 0, 0, 19, 229, 0, 0
NKF5, 39741422, 0, 0, 0, 0, 0.21, 0.13, 0, 0.19, 0.5, 3.483234E-05, 0.000348684, 0.0006435672
NKQ1, 39741422, 0.9998906, 0.002592079, 0.01207279, -0.008146605
AHR2, 39741465, 0.83, 0.62, 359.31, 0.03, 0, 0, 0.9999412, 0.007275572, 0.00537786, -0.005982556
MOTB, 39741472, 1, 1, 0, 1
RCIN, 39741477, 0, 0, 0, 0, 0, 0, 0, 0, 0, 0, 0, 0, 0, 0
RCOU, 39741482, 1101, 1101, 1101, 1101, 0, 0, 0, 0, 0, 0, 0, 0, 0, 0
VIBE, 39741490, 0.02047289, 0.01853779, 0.03284683, 0, 0, 0
CTRL, 39741497, 0.008557337, 0.0001591909, 0.006336528, 0.0001853441, 9.137466E-05
PRX, 39741527, 2, 0.85, 0, 0.68, 0, 0.36, 0, 2.38, 0, 0, 180, 0.36
IMU, 39741533, 0.0009168545, -0.0008654816, -0.0009118802, 0.2341174, -0.05228832, -9.804788, 0, 0, 36.55141, 1, 1, 1000, 1000
IMU, 39780592, -0.001432426, -0.0002733032, -7.10234E-05, 0.2207574, -0.05263139, -9.806903, 0, 0, 36.55112, 1, 1, 1000, 1000
RFND, 39790477, 0.2, 25, 0, 0
IMU, 39820609, -0.0006603599, 0.001019773, 0.0002389388, 0.2355886, -0.05798776, -9.81173, 0, 0, 36.55114, 1, 1, 1000, 1000
MAG, 39840521, 316, 498, 358, 0, 0, 0, 0, 0, 0, 1, 39840513
RFND, 39840549, 0.2, 25, 0, 0
BARO, 39840587, 0.0874239, 992.7991, 34.67, 0.1004933, 39840, 0, 34.39
CTUN, 39840600, 0, 0, 0, 0.2160673, 0.0910285, 0.0910285, 0.08, 0, 0.19, 0, 0, 1
ATT, 39840692, 0, 0.8, 0, 0.59, 359.05, 359.07, 0, 1
RATE, 39840698, -3.609267, -0.03624751, -0.008339345, -2.692989, 0.03624379, -0.006508506, 0.01948866, -0.01965543, 0.0001112761, -645.4611, -0.8985519, 0
NKF1, 39840706, 0.8, 0.59, 359.06, -0.001600273, -0.02077657, -0.01593731, 0, 0, 0, -0.0910285, 0, 0, 0
NKF2, 39840706, 0, 0, 0, 0, 0, 0, 0, 0, 0, 0, 0, 0, 0
NKF3, 39840706, 0, 0, 0, 0, -0.02, -0.02, 0, 0, 0, 0, 0
NKF4, 39840706, 0, 0, 0, 0, 0, 6.249639E-07, 0, 0, 0, 19, 229, 0, 0
NKF5, 39840706, 0, 0, 0, 0, 0.21, 0.13, 0, 0.19, 0.5, 3.428912E-05, 0.0005615301, 0.001256219
NKQ1, 39840706, 0.9998904, 0.002554044, 0.01208417, -0.008161969
AHR2, 39840750, 0.82, 0.62, 359.31, 0.08, 0, 0, 0.9999414, 0.007237884, 0.005381635, -0.005990308
MOTB, 39840757, 1, 1, 0, 1
RCIN, 39840762, 0, 0, 0, 0, 0, 0, 0, 0, 0, 0, 0, 0, 0, 0
RCOU, 39840767, 1101, 1101, 1101, 1101, 0, 0, 0, 0, 0, 0, 0, 0, 0, 0
VIBE, 39840775, 0.02032475, 0.01923584, 0.03093147, 0, 0, 0
CTRL, 39840782, 0.008524775, 0.000156877, 0.006338562, 0.0001879123, 9.375191E-05
PRX, 39840813, 2, 0.85, 0, 0.67, 0, 0.36, 0, 2.39, 0, 0, 180, 0.36
IMU, 39860557, 0.0003303937, 0.0002603158, -0.0006253427, 0.2316632, -0.05358679, -9.793446, 0, 0, 36.55115, 1, 1, 1000, 1000
RFND, 39890602, 0.2, 25, 0, 0
IMU, 39900708, 0.0008879666, -0.0003942184, -0.0001870543, 0.2303967, -0.0578582, -9.788502, 0, 0, 36.55009, 1, 1, 1000, 1000
MAG, 39941016, 316, 505, 358, 0, 0, 0, 0, 0, 0, 1, 39941007
RFND, 39941046, 0.2, 25, 0, 0
BARO, 39941172, 0.1776679, 992.7889, 34.67, 0.06627038, 39941, 0, 34.39
CTUN, 39941189, 0, 0, 0, 0.2160673, 0.09094695, 0.09094695, 0.17, 0, 0.19, 0, 0, 1
ATT, 39941297, 0, 0.8, 0, 0.59, 359.05, 359.07, 0, 1
RATE, 39941303, -3.60815, -0.07536419, -0.00789823, -2.697427, 0.01260871, -0.006390364, 0.01591326, 0.0002978686, 0.0001158568, -611.1215, 0.256443, 0
NKF1, 39941312, 0.8, 0.59, 359.06, -0.002288635, -0.02168211, -0.01508942, 0, 0, 0, -0.09094695, 0, 0, 0
NKF2, 39941312, 0, 0, 0, 0, 0, 0, 0, 0, 0, 0, 0, 0, 0
NKF3, 39941312, 0, 0, 0, 0, -0.02, -0.02, 0, 0, 0, 0, 0
NKF4, 39941312, 0, 0, 0, 0, 0, 7.146193E-07, 0, 0, 0, 19, 229, 0, 0
NKF5, 39941312, 0, 0, 0, 0, 0.21, 0.13, 0, 0.19, 0.5, 3.455699E-05, 0.000342846, 0.0006986473
NKQ1, 39941312, 0.9998903, 0.002550951, 0.01209279, -0.008171083
AHR2, 39941359, 0.82, 0.62, 359.31, 0.17, 0, 0, 0.9999414, 0.007232534, 0.005379703, -0.005991964
MOTB, 39941366, 1, 1, 0, 1
RCIN, 39941371, 0, 0, 0, 0, 0, 0, 0, 0, 0, 0, 0, 0, 0, 0
RCOU, 39941376, 1101, 1101, 1101, 1101, 0, 0, 0, 0, 0, 0, 0, 0, 0, 0
VIBE, 39941384, 0.0194436, 0.01836064, 0.03349029, 0, 0, 0
CTRL, 39941391, 0.008524165, 0.0001704773, 0.006352146, 0.0001657218, 0.0001041842
PRX, 39941423, 2, 0.85, 0, 0.68, 0, 0.36, 0, 2.36, 0, 0, 180, 0.36
IMU, 39941431, -0.001375259, 0.0003344747, 0.0001458583, 0.2282111, -0.05926777, -9.797624, 0, 0, 36.5481, 1, 1, 1000, 1000
IMU, 39980747, 0.001138678, 0.000193837, 0.0006463511, 0.2425078, -0.04290701, -9.801601, 0, 0, 36.54621, 1, 1, 1000, 1000
RFND, 39990617, 0.2, 25, 0, 0
EV, 39997892, 57
IMU, 40020759, 0.0004266633, 0.0004676708, 8.128754E-05, 0.2323897, -0.0553872, -9.803791, 0, 0, 36.54546, 1, 1, 1000, 1000
MAG, 40040591, 311, 495, 355, 0, 0, 0, 0, 0, 0, 1, 40040582
RFND, 40040619, 0.2, 25, 0, 0
BARO, 40040658, 0.1297258, 992.7942, 34.67, 0.1653484, 40040, 0, 34.39
CTUN, 40040671, 0, 0, 0, 0.2160673, 0.09076735, 0.09076735, 0.12, 0, 0.19, 0, 0, 1
ATT, 40040774, 0, 0.8, 0, 0.59, 359.05, 359.07, 0, 1
RATE, 40040780, -3.610196, 0.007036203, -0.008492768, -2.696159, -0.01694823, -0.006293607, 0.01886292, 0.03606208, 1.596127E-05, -624.8641, 1.120758, 0
NKF1, 40040789, 0.8, 0.59, 359.06, -0.002522865, -0.0220901, -0.01542874, 0, 0, 0, -0.09076735, 0, 0, 0
NKF2, 40040789, 0, 0, 0, 0, 0, 0, 0, 0, 0, 0, 0, 0, 0
NKF3, 40040789, 0, 0, 0, 0, -0.03, -0.02, 0, 0, 0, 0, 0
NKF4, 40040789, 0, 0, 0, 0, 0, 8.192127E-07, 0, 0, 0, 19, 229, 0, 0
NKF5, 40040789, 0, 0, 0, 0, 0.21, 0.13, 0, 0.19, 0.5, 3.372964E-05, 0.000405238, 0.0008155921
NKQ1, 40040789, 0.9998904, 0.002553944, 0.01209131, -0.008152725
AHR2, 40040833, 0.82, 0.62, 359.32, 0.12, 0, 0, 0.9999416, 0.007236314, 0.005371299, -0.005966292
MOTB, 40040841, 1, 1, 0, 1
RCIN, 40040845, 0, 0, 0, 0, 0, 0, 0, 0, 0, 0, 0, 0, 0, 0
RCOU, 40040851, 1110, 1110, 1110, 1110, 0, 0, 0, 0, 0, 0, 0, 0, 0, 0
VIBE, 40040860, 0.02083822, 0.01882389, 0.031335, 0, 0, 0
CTRL, 40040867, 0.00851899, 0.0001777296, 0.006357206, 0.0001523996, 8.819319E-05
PRX, 40040897, 2, 0.85, 0, 0.68, 0, 0.36, 0, 2.38, 0, 0, 180, 0.36
IMU, 40060784, -0.0005211766, 1.383152E-05, 0.0001135519, 0.2359265, -0.04520069, -9.788683, 0, 0, 36.54599, 1, 1, 1000, 1000
RFND, 40090511, 0.2, 25, 0, 0
IMU, 40100552, 0.0005710881, 0.0006744555, 0.00050836, 0.2352165, -0.05332872, -9.801533, 0, 0, 36.54583, 1, 1, 1000, 1000
MAG, 40140575, 314, 504, 355, 0, 0, 0, 0, 0, 0, 1, 40140567
RFND, 40140604, 0.2, 25, 0, 0
BARO, 40140642, 0.1325459, 992.7939, 34.67, 0.2881816, 40140, 0, 34.39
CTUN, 40140656, 0, 0, 0, 0.2160673, 0.09079918, 0.09079918, 0.13, 0, 0.19, 0, 0, 1
ATT, 40140755, 0, 0.79, 0, 0.59, 359.05, 359.07, 0, 1
RATE, 40140761, -3.595931, -0.001794872, -0.008615, -2.690218, -0.06420291, -0.006248158, 0.0187453, -0.02358414, 6.528363E-05, -608.2155, 1.27821, 0
NKF1, 40140769, 0.79, 0.59, 359.06, -0.002873378, -0.02304887, -0.01501767, 0, 0, 0, -0.09079918, 0, 0, 0
NKF2, 40140769, 0, 0, 0, 0, 0, 0, 0, 0, 0, 0, 0, 0, 0
NKF3, 40140769, 0, 0, 0, 0, -0.03, -0.02, 0, 0, 0, 0, 0
NKF4, 40140769, 0, 0, 0, 0, 0, 9.222026E-07, 0, 0, 0, 19, 229, 0, 0
NKF5, 40140769, 0, 0, 0, 0, 0.21, 0.13, 0, 0.19, 0.5, 3.412284E-05, 0.0003773578, 0.0008810095
NKQ1, 40140769, 0.9998906, 0.002527363, 0.01207832, -0.008158693
AHR2, 40140813, 0.82, 0.61, 359.32, 0.13, 0, 0, 0.9999419, 0.007211497, 0.005352867, -0.005964552
MOTB, 40140821, 1, 1, 0, 1
RCIN, 40140826, 0, 0, 0, 0, 0, 0, 0, 0, 0, 0, 0, 0, 0, 0
RCOU, 40140831, 1134, 1134, 1134, 1134, 0, 0, 0, 0, 0, 0, 0, 0, 0, 0
VIBE, 40140840, 0.02256176, 0.02081901, 0.03349538, 0, 0, 0
CTRL, 40140846, 0.008483714, 0.0001871348, 0.006340487, 0.0001557968, 7.546537E-05
PRX, 40140877, 2, 0.85, 0, 0.68, 0, 0.36, 0, 2.36, 0, 0, 180, 0.36
IMU, 40140884, -9.128777E-05, -0.001006109, -0.0002709146, 0.2381425, -0.06441512, -9.807611, 0, 0, 36.54523, 1, 1, 1000, 1000
IMU, 40180619, 0.0003062829, 0.0001501947, 0.0007285121, 0.2243544, -0.05947726, -9.810671, 0, 0, 36.54397, 1, 1, 1000, 1000
RFND, 40190565, 0.2, 25, 0, 0
IMU, 40220741, -0.0001633599, -0.00100391, -0.0003941555, 0.2203284, -0.05267157, -9.805599, 0, 0, 36.54333, 1, 1, 1000, 1000
MAG, 40240589, 313, 503, 360, 0, 0, 0, 0, 0, 0, 1, 40240581
RFND, 40240679, 0.2, 25, 0, 0
BARO, 40240721, 0.1325459, 992.7939, 34.67, 0.1968191, 40240, 0, 34.39
CTUN, 40240735, 0, 0, 0, 0.2160673, 0.09045781, 0.09045781, 0.13, 0, 0.19, 0, 0, 1
ATT, 40240836, 0, 0.79, 0, 0.59, 359.05, 359.07, 0, 1
RATE, 40240844, -3.593781, -0.01902457, -0.008235032, -2.67388, -0.02838407, -0.006432715, 0.01861889, -0.03521084, 0.0001232408, -608.9565, -0.09002686, 0
NKF1, 40240852, 0.79, 0.59, 359.06, -0.003925346, -0.02337797, -0.01503596, 0, 0, 0, -0.09045781, 0, 0, 0
NKF2, 40240852, 0, 0, 0, 0, 0, 0, 0, 0, 0, 0, 0, 0, 0
NKF3, 40240852, 0, 0, 0, 0, -0.03, -0.02, 0, 0, 0, 0, 0
NKF4, 40240852, 0, 0, 0, 0, 0, 1.06255E-06, 0, 0, 0, 19, 229, 0, 0
NKF5, 40240852, 0, 0, 0, 0, 0.21, 0.13, 0, 0.19, 0.5, 3.311578E-05, 0.0002653638, 0.0004347294
NKQ1, 40240852, 0.9998908, 0.002523409, 0.01204635, -0.00817645
AHR2, 40240897, 0.82, 0.61, 359.31, 0.13, 0, 0, 0.999942, 0.007211571, 0.005316643, -0.005974744
MOTB, 40240904, 1, 1, 0, 1
RCIN, 40240908, 0, 0, 0, 0, 0, 0, 0, 0, 0, 0, 0, 0, 0, 0
RCOU, 40240914, 1158, 1158, 1158, 1158, 0, 0, 0, 0, 0, 0, 0, 0, 0, 0
VIBE, 40240922, 0.02213539, 0.0199188, 0.03074854, 0, 0, 0
CTRL, 40240929, 0.008482735, 0.0001666219, 0.006303557, 0.0001719076, 8.772667E-05
PRX, 40240960, 2, 0.85, 0, 0.68, 0, 0.36, 0, 2.36, 0, 0, 180, 0.36
IMU, 40260721, -0.0003482836, 0.0004329383, 0.001005657, 0.2333345, -0.0496544, -9.795296, 0, 0, 36.5443, 1, 1, 1000, 1000
RFND, 40290597, 0.2, 25, 0, 0
IMU, 40300668, -0.000558713, -5.06797E-05, 0.000607378, 0.2205226, -0.0494572, -9.788307, 0, 0, 36.54642, 1, 1, 1000, 1000
MAG, 40340670, 315, 495, 364, 0, 0, 0, 0, 0, 0, 1, 40340661
RFND, 40340699, 0.2, 25, 0, 0
BARO, 40340740, 0.1438264, 992.7926, 34.67, 0.01820723, 40340, 0, 34.39
CTUN, 40340753, 0, 0, 0, 0.2160673, 0.09049882, 0.09049882, 0.14, 0, 0.19, 0, 0, 1
ATT, 40340856, 0, 0.79, 0, 0.59, 359.05, 359.07, 0, 1
RATE, 40340863, -3.590153, -0.007164823, -0.008459322, -2.683186, -0.002180509, -0.00628481, 0.01866749, -0.03504212, -6.096895E-06, -603.3372, 1.548195, 0
NKF1, 40340870, 0.79, 0.59, 359.06, -0.004224937, -0.02363979, -0.01489721, 0, 0, 0, -0.09049882, 0, 0, 0
NKF2, 40340870, 0, 0, 0, 0, 0, 0, 0, 0, 0, 0, 0, 0, 0
NKF3, 40340870, 0, 0, 0, 0, -0.03, -0.02, 0, 0, 0, 0, 0
NKF4, 40340870, 0, 0, 0, 0, 0, 1.171925E-06, 0, 0, 0, 19, 229, 0, 0
NKF5, 40340870, 0, 0, 0, 0, 0.21, 0.13, 0, 0.19, 0.5, 3.195549E-05, 0.0006741784, 0.001522949
NKQ1, 40340870, 0.9998909, 0.002516941, 0.01206507, -0.008149385
AHR2, 40340914, 0.82, 0.61, 359.32, 0.14, 0, 0, 0.9999422, 0.00721048, 0.005331879, -0.00594031
MOTB, 40340922, 1, 1, 0, 1
RCIN, 40340926, 0, 0, 0, 0, 0, 0, 0, 0, 0, 0, 0, 0, 0, 0
RCOU, 40340932, 1182, 1182, 1182, 1182, 0, 0, 0, 0, 0, 0, 0, 0, 0, 0
VIBE, 40340940, 0.01922956, 0.01984362, 0.0328407, 0, 0, 0
CTRL, 40340946, 0.008471951, 0.0001507226, 0.006320733, 0.0001597154, 7.722724E-05
PRX, 40340976, 2, 0.85, 0, 0.68, 0, 0.36, 0, 2.37, 0, 0, 180, 0.36
IMU, 40340983, -0.0001851246, 7.639988E-05, -0.0004708583, 0.248821, -0.05044486, -9.810188, 0, 0, 36.54996, 1, 1, 1000, 1000
IMU, 40380551, 0.001226808, 0.0006949074, 0.0001482824, 0.2253948, -0.04336596, -9.775293, 0, 0, 36.55288, 1, 1, 1000, 1000
RFND, 40390522, 0.2, 25, 0, 0
IMU, 40420698, -0.0001752819, 0.0002905802, 0.0003449685, 0.2178532, -0.05730511, -9.818719, 0, 0, 36.55589, 1, 1, 1000, 1000
MAG, 40440628, 319, 502, 360, 0, 0, 0, 0, 0, 0, 1, 40440620
RFND, 40440658, 0.2, 25, 0, 0
BARO, 40440698, 0.2509912, 992.7808, 34.67, 0.01311332, 40440, 0, 34.39
CTUN, 40440710, 0, 0, 0, 0.2160673, 0.09018792, 0.09018792, 0.25, 0, 0.19, 0, 0, 1
ATT, 40440808, 0, 0.79, 0, 0.59, 359.05, 359.07, 0, 1
RATE, 40440814, -3.595059, -0.006811472, -0.008460886, -2.684007, 0.006921707, -0.006302438, 0.01869675, -0.06113451, 4.193389E-05, -616.2532, 1.756763, 0
NKF1, 40440822, 0.79, 0.59, 359.06, -0.005495342, -0.02393814, -0.01521613, 0, 0, 0, -0.09018792, 0, 0, 0
NKF2, 40440822, 0, 0, 0, 0, 0, 0, 0, 0, 0, 0, 0, 0, 0
NKF3, 40440822, 0, 0, 0, 0, -0.03, -0.02, 0, 0, 0, 0, 0
NKF4, 40440822, 0, 0, 0, 0, 0, 1.34508E-06, 0, 0, 0, 19, 229, 0, 0
NKF5, 40440822, 0, 0, 0, 0, 0.21, 0.13, 0, 0.19, 0.5, 3.24877E-05, 0.0002057093, 0.0003402338
NKQ1, 40440822, 0.9998908, 0.00252651, 0.01206545, -0.008155033
AHR2, 40440868, 0.82, 0.61, 359.32, 0.25, 0, 0, 0.9999421, 0.007219675, 0.005327258, -0.005938707
MOTB, 40440875, 1, 1, 0, 1
RCIN, 40440879, 0, 0, 0, 0, 0, 0, 0, 0, 0, 0, 0, 0, 0, 0
RCOU, 40440884, 1206, 1206, 1206, 1206, 0, 0, 0, 0, 0, 0, 0, 0, 0, 0
VIBE, 40440892, 0.02255499, 0.02018605, 0.03351441, 0, 0, 0
CTRL, 40440899, 0.008480688, 0.0001577903, 0.006325297, 0.0001617041, 6.896378E-05
PRX, 40440929, 2, 0.85, 0, 0.68, 0, 0.35, 0, 2.37, 0, 0, 180, 0.35
IMU, 40460682, 0.000131724, -0.000245623, -0.0007310286, 0.2326114, -0.04874557, -9.793631, 0, 0, 36.55845, 1, 1, 1000, 1000
RFND, 40490498, 0.2, 25, 0, 0
IMU, 40500570, -0.0006027694, 0.0007041423, 0.0003093035, 0.23072, -0.05583195, -9.818179, 0, 0, 36.56048, 1, 1, 1000, 1000
MAG, 40540552, 311, 507, 356, 0, 0, 0, 0, 0, 0, 1, 40540544
RFND, 40540581, 0.2, 25, 0, 0
BARO, 40540620, 0.2961132, 992.7759, 34.67, 0.2062835, 40540, 0, 34.39
CTUN, 40540633, 0, 0, 0, 0.2160673, 0.09020738, 0.09020738, 0.29, 0, 0.19, 0, 0, 1
ATT, 40540730, 0, 0.79, 0, 0.59, 359.05, 359.07, 0, 1
RATE, 40540736, -3.585268, -0.01896576, -0.008342599, -2.692657, 0.02368683, -0.006322558, 0.01870987, 0.05869924, 8.993507E-05, -589.4165, -3.204346, 0
NKF1, 40540744, 0.79, 0.59, 359.06, -0.005995911, -0.02452386, -0.01455349, 0, 0, 0, -0.09020738, 0, 0, 0
NKF2, 40540744, 0, 0, 0, 0, 0, 0, 0, 0, 0, 0, 0, 0, 0
NKF3, 40540744, 0, 0, 0, 0, -0.04, -0.01, 0, 0, 0, 0, 0
NKF4, 40540744, 0, 0, 0, 0, 0, 1.492225E-06, 0, 0, 0, 19, 229, 0, 0
NKF5, 40540744, 0, 0, 0, 0, 0.21, 0.13, 0, 0.19, 0.5, 3.109717E-05, 0.0004910601, 0.001071924
NKQ1, 40540744, 0.9998906, 0.002505098, 0.0120854, -0.008164975
AHR2, 40540788, 0.82, 0.61, 359.32, 0.29, 0, 0, 0.9999422, 0.007195149, 0.005341566, -0.005941133
MOTB, 40540795, 1, 1, 0, 1
RCIN, 40540799, 0, 0, 0, 0, 0, 0, 0, 0, 0, 0, 0, 0, 0, 0
RCOU, 40540804, 1235, 1232, 1221, 1246, 0, 0, 0, 0, 0, 0, 0, 0, 0, 0
VIBE, 40540812, 0.0200058, 0.01886273, 0.03845756, 0, 0, 0
CTRL, 40540819, 0.008459616, 0.0001424579, 0.00634313, 0.0001770273, 8.196764E-05
PRX, 40540849, 2, 0.85, 0, 0.68, 0, 0.36, 0, 2.38, 0, 0, 180, 0.36
IMU, 40540856, -0.0003910517, 0.0005276644, 0.001164994, 0.2323818, -0.06276405, -9.763036, 0, 0, 36.56181, 1, 1, 1000, 1000
IMU, 40580733, -0.0006377993, 0.001120842, -0.0003108066, 0.2396352, -0.04746404, -9.798287, 0, 0, 36.56172, 1, 1, 1000, 1000
RFND, 40590714, 0.2, 25, 0, 0
IMU, 40620710, -0.0001742035, 0.0001335564, -0.00116253, 0.2380808, -0.05055587, -9.796525, 0, 0, 36.56188, 1, 1, 1000, 1000
MAG, 40640656, 316, 495, 361, 0, 0, 0, 0, 0, 0, 1, 40640646
RFND, 40640686, 0.2, 25, 0, 0
BARO, 40640726, 0.2002289, 992.7865, 34.68, 0.4115621, 40640, 0, 34.39
CTUN, 40640740, 0, 0, 0, 0.2160673, 0.08999556, 0.08999556, 0.2, 0, 0.19, 0, 0, 1
ATT, 40640842, 0, 0.79, 0, 0.6, 359.05, 359.07, 0, 1
RATE, 40640848, -3.581829, 0.02073244, -0.008570692, -2.703104, 0.003372583, -0.006330268, 0.01876422, -0.03564813, 0.0001355722, -574.3958, 1.11351, 0
NKF1, 40640855, 0.79, 0.6, 359.06, -0.00629065, -0.0251215, -0.01418261, 0, 0, 0, -0.08999556, 0, 0, 0
NKF2, 40640855, 0, 0, 0, 0, 0, 0, 0, 0, 0, 0, 0, 0, 0
NKF3, 40640855, 0, 0, 0, 0, -0.04, -0.01, 0, 0, 0, 0, 0
NKF4, 40640855, 0, 0, 0, 0, 0, 1.679146E-06, 0, 0, 0, 19, 229, 0, 0
NKF5, 40640855, 0, 0, 0, 0, 0.21, 0.13, 0, 0.19, 0.5, 3.181934E-05, 0.000227291, 0.0005206201
NKQ1, 40640855, 0.9998901, 0.00250133, 0.01210344, -0.00819405
AHR2, 40640901, 0.82, 0.61, 359.32, 0.2, 0, 0, 0.9999421, 0.007191467, 0.00535255, -0.005962842
MOTB, 40640909, 1, 1, 0, 1
RCIN, 40640913, 0, 0, 0, 0, 0, 0, 0, 0, 0, 0, 0, 0, 0, 0
RCOU, 40640918, 1236, 1232, 1221, 1246, 0, 0, 0, 0, 0, 0, 0, 0, 0, 0
VIBE, 40640926, 0.02018574, 0.01936679, 0.03242898, 0, 0, 0
CTRL, 40640933, 0.008453366, 0.0001393334, 0.006368272, 0.0001568315, 9.500671E-05
PRX, 40640965, 2, 0.85, 0, 0.68, 0, 0.35, 0, 2.38, 0, 0, 180, 0.35
IMU, 40660668, -0.0005076276, 0.001081696, 0.001143011, 0.2241261, -0.06131437, -9.792042, 0, 0, 36.5629, 1, 1, 1000, 1000
RFND, 40690591, 0.2, 25, 0, 0
IMU, 40700763, 0.0003643174, 0.0006527165, -0.0006894137, 0.238194, -0.05051942, -9.809121, 0, 0, 36.56339, 1, 1, 1000, 1000
MAG, 40740631, 312, 499, 359, 0, 0, 0, 0, 0, 0, 1, 40740622
RFND, 40740712, 0.2, 25, 0, 0
BARO, 40740752, 0.135366, 992.7936, 34.68, 0.3234331, 40740, 0, 34.39
CTUN, 40740765, 0, 0, 0, 0.2160673, 0.08980937, 0.08980937, 0.13, 0, 0.19, 0, 0, 1
DU32, 40740803, 7, 33611992
ATT, 40740941, 0, 0.79, 0, 0.6, 359.05, 359.07, 0, 1
RATE, 40740947, -3.585497, -0.05040416, -0.008093934, -2.705576, 0.0006612214, -0.006485112, 0.0187796, 0.068634, 3.995265E-05, -590.6109, 1.705742, 0
NKF1, 40740955, 0.79, 0.6, 359.06, -0.006606581, -0.02569649, -0.01458298, 0, 0, 0, -0.08980937, 0, 0, 0
NKF2, 40740955, 0, 0, 0, 0, 0, 0, 0, 0, 0, 0, 0, 0, 0
NKF3, 40740955, 0, 0, 0, 0, -0.04, -0.01, 0, 0, 0, 0, 0
NKF4, 40740955, 0, 0, 0, 0, 0, 1.869031E-06, 0, 0, 0, 19, 229, 0, 0
NKF5, 40740955, 0, 0, 0, 0, 0.21, 0.13, 0, 0.19, 0.5, 3.021035E-05, 0.0003279132, 0.0006755686
NKQ1, 40740955, 0.9998901, 0.002506356, 0.01211123, -0.008171722
AHR2, 40740999, 0.82, 0.61, 359.32, 0.13, 0, 0, 0.9999422, 0.007198801, 0.005352771, -0.005933214
MOTB, 40741007, 1, 1, 0, 1
RCIN, 40741012, 0, 0, 0, 0, 0, 0, 0, 0, 0, 0, 0, 0, 0, 0
RCOU, 40741017, 1235, 1232, 1221, 1245, 0, 0, 0, 0, 0, 0, 0, 0, 0, 0
VIBE, 40741025, 0.01882571, 0.01890429, 0.0317294, 0, 0, 0
CTRL, 40741032, 0.008461772, 0.00013852, 0.006370073, 0.0001647421, 8.990356E-05
PRX, 40741063, 2, 0.85, 0, 0.67, 0, 0.35, 0, 2.38, 0, 0, 180, 0.35
IMU, 40741144, -0.0009399527, 0.0001260096, 0.001338668, 0.2458732, -0.04895638, -9.811909, 0, 0, 36.56338, 1, 1, 1000, 1000
IMU, 40780761, 0.0001561542, -0.0009136358, -0.0003596814, 0.2331887, -0.05616716, -9.789861, 0, 0, 36.56351, 1, 1, 1000, 1000
RFND, 40790592, 0.2, 25, 0, 0
IMU, 40820719, 0.0003977008, 0.0002758424, 0.0007929728, 0.2400661, -0.06542886, -9.802919, 0, 0, 36.56494, 1, 1, 1000, 1000
MAG, 40840616, 317, 498, 360, 0, 0, 0, 0, 0, 0, 1, 40840607
RFND, 40840646, 0.2, 25, 0, 0
BARO, 40840684, 0.1043447, 992.7971, 34.68, -0.09870441, 40840, 0, 34.39
CTUN, 40840697, 0, 0, 0, 0.2160673, 0.08972661, 0.08972661, 0.1, 0, 0.19, 0, 0, 1
ATT, 40840801, 0, 0.79, 0, 0.6, 359.05, 359.07, 0, 1
RATE, 40840807, -3.57936, -0.009151014, -0.008315253, -2.707839, 0.03655228, -0.006556566, 0.01878541, 0.02246866, 5.95055E-05, -568.8889, 0.946331, 0
NKF1, 40840815, 0.79, 0.6, 359.06, -0.007102245, -0.0266162, -0.01404664, 0, 0, 0, -0.08972661, 0, 0, 0
NKF2, 40840815, 0, 0, 0, 0, 0, 0, 0, 0, 0, 0, 0, 0, 0
NKF3, 40840815, 0, 0, 0, 0, -0.04, -0.01, 0, 0, 0, 0, 0
NKF4, 40840815, 0, 0, 0, 0, 0, 2.066203E-06, 0, 0, 0, 19, 229, 0, 0
NKF5, 40840815, 0, 0, 0, 0, 0.21, 0.13, 0, 0.19, 0.5, 3.107687E-05, 0.0002938841, 0.000760811
NKQ1, 40840815, 0.9998901, 0.002495096, 0.01211414, -0.008180014
AHR2, 40840862, 0.82, 0.61, 359.32, 0.09999999, 0, 0, 0.9999422, 0.007190374, 0.005350245, -0.005934015
MOTB, 40840869, 1, 1, 0, 1
RCIN, 40840873, 0, 0, 0, 0, 0, 0, 0, 0, 0, 0, 0, 0, 0, 0
RCOU, 40840879, 1235, 1232, 1221, 1246, 0, 0, 0, 0, 0, 0, 0, 0, 0, 0
VIBE, 40840886, 0.02129335, 0.01847957, 0.03081228, 0, 0, 0
CTRL, 40840893, 0.008448616, 0.000132947, 0.006375624, 0.0001727414, 8.271621E-05
PRX, 40840924, 2, 0.85, 0, 0.68, 0, 0.36, 0, 2.37, 0, 0, 180, 0.36
IMU, 40860788, -0.00116023, 0.0002955279, -0.000822669, 0.2240449, -0.05679652, -9.797266, 0, 0, 36.56697, 1, 1, 1000, 1000
RFND, 40890595, 0.2, 25, 0, 0
IMU, 40900732, -0.0005721751, 0.001057777, -0.0007326865, 0.2379609, -0.06210822, -9.794219, 0, 0, 36.56927, 1, 1, 1000, 1000
MAG, 40940612, 311, 494, 354, 0, 0, 0, 0, 0, 0, 1, 40940604
RFND, 40940643, 0.2, 25, 0, 0
BARO, 40940682, 0.03948176, 992.8041, 34.68, -0.4670833, 40940, 0, 34.39
CTUN, 40940694, 0, 0, 0, 0.2160673, 0.08944395, 0.08944395, 0.03, 0, 0.19, 0, 0, 1
ATT, 40940847, 0, 0.79, 0, 0.6, 359.05, 359.07, 0, 1
RATE, 40940853, -3.563799, 0.01209149, -0.008645512, -2.702004, -0.06859471, -0.006109058, 0.01866397, -0.009526857, 0.0001487946, -537.1385, -0.9529114, 0
NKF1, 40940860, 0.79, 0.6, 359.06, -0.007790321, -0.02729112, -0.01326268, 0, 0, 0, -0.08944395, 0, 0, 0
NKF2, 40940860, 0, 0, 0, 0, 0, 0, 0, 0, 0, 0, 0, 0, 0
NKF3, 40940860, 0, 0, 0, 0, -0.05, -0.01, 0, 0, 0, 0, 0
NKF4, 40940860, 0, 0, 0, 0, 0, 2.301804E-06, 0, 0, 0, 19, 229, 0, 0
NKF5, 40940860, 0, 0, 0, 0, 0.21, 0.13, 0, 0.19, 0.5, 2.907058E-05, 0.0001825933, 0.0003279636
NKQ1, 40940860, 0.99989, 0.002466489, 0.01210257, -0.008214953
AHR2, 40940902, 0.81, 0.61, 359.32, 0.03, 0, 0, 0.9999424, 0.00716482, 0.005334509, -0.005961208
MOTB, 40940910, 1, 1, 0, 1
RCIN, 40940914, 0, 0, 0, 0, 0, 0, 0, 0, 0, 0, 0, 0, 0, 0
RCOU, 40940920, 1236, 1232, 1221, 1246, 0, 0, 0, 0, 0, 0, 0, 0, 0, 0
VIBE, 40940928, 0.02034948, 0.01950085, 0.0331588, 0, 0, 0
CTRL, 40940936, 0.008405615, 0.0001354674, 0.006371881, 0.0001817101, 0.0001000177
PRX, 40940966, 2, 0.85, 0, 0.68, 0, 0.35, 0, 2.37, 0, 0, 180, 0.35
IMU, 40940974, 0.0001506937, -0.001082713, -2.545985E-05, 0.2382174, -0.04342307, -9.785559, 0, 0, 36.57152, 1, 1, 1000, 1000
IMU, 40980663, 2.068427E-05, 0.0009461378, 0.001196295, 0.2216597, -0.04612832, -9.78308, 0, 0, 36.5739, 1, 1, 1000, 1000
RFND, 40990602, 0.2, 25, 0, 0
IMU, 41020828, -0.0003478426, 0.0006663092, 3.261334E-05, 0.2312231, -0.05595281, -9.796892, 0, 0, 36.57572, 1, 1, 1000, 1000
MAG, 41040663, 318, 498, 361, 0, 0, 0, 0, 0, 0, 1, 41040654
RFND, 41040693, 0.2, 25, 0, 0
BARO, 41040732, 0.07050315, 992.8007, 34.68, -0.527011, 41040, 0, 34.39
CTUN, 41040745, 0, 0, 0, 0.2160673, 0.08930415, 0.08930415, 0.07, 0, 0.19, 0, 0, 1
ATT, 41040847, 0, 0.79, 0, 0.6, 359.05, 359.07, 0, 1
RATE, 41040854, -3.567985, 0.02191098, -0.008719918, -2.703816, -0.04723327, -0.005981268, 0.01870431, 0.08061892, -2.603175E-05, -491.4748, 0.3158569, 0
NKF1, 41040861, 0.79, 0.6, 359.06, -0.00864831, -0.02782829, -0.01213518, 0, 0, 0, -0.08930415, 0, 0, 0
NKF2, 41040861, 0, 0, 0, 0, 0, 0, 0, 0, 0, 0, 0, 0, 0
NKF3, 41040861, 0, 0, 0, 0, -0.05, -0.01, 0, 0, 0, 0, 0
NKF4, 41040861, 0, 0, 0, 0, 0, 2.509628E-06, 0, 0, 0, 19, 229, 0, 0
NKF5, 41040861, 0, 0, 0, 0, 0.21, 0.13, 0, 0.19, 0.5, 3.020236E-05, 0.0003725909, 0.0009975167
NKQ1, 41040861, 0.9998902, 0.002472455, 0.01210866, -0.008172404
AHR2, 41040906, 0.81, 0.61, 359.32, 0.07, 0, 0, 0.9999426, 0.00717466, 0.00533576, -0.005911294
MOTB, 41040913, 1, 1, 0, 1
RCIN, 41040918, 0, 0, 0, 0, 0, 0, 0, 0, 0, 0, 0, 0, 0, 0
RCOU, 41040923, 1236, 1231, 1221, 1246, 0, 0, 0, 0, 0, 0, 0, 0, 0, 0
VIBE, 41040931, 0.0203229, 0.02078495, 0.03557321, 0, 0, 0
CTRL, 41040938, 0.008409984, 0.0001326916, 0.006382703, 0.000209452, 9.357432E-05
PRX, 41040968, 2, 0.85, 0, 0.68, 0, 0.35, 0, 2.39, 0, 0, 180, 0.35
IMU, 41060911, -0.0007477325, 3.477468E-05, -0.0004036967, 0.2237783, -0.05319302, -9.805655, 0, 0, 36.57666, 1, 1, 1000, 1000
RFND, 41090618, 0.2, 25, 0, 0
IMU, 41100723, 0.0006644679, 0.0005082688, 0.0004538858, 0.2398564, -0.05323757, -9.783129, 0, 0, 36.57656, 1, 1, 1000, 1000
MAG, 41140588, 315, 499, 357, 0, 0, 0, 0, 0, 0, 1, 41140580
RFND, 41140619, 0.2, 25, 0, 0
BARO, 41140658, 0.03948176, 992.8042, 34.69, -0.3921737, 41140, 0, 34.39
CTUN, 41140671, 0, 0, 0, 0.2160673, 0.0881792, 0.0881792, 0.03, 0, 0.19, 0, 0, 1
ATT, 41140770, 0, 0.79, 0, 0.6, 359.05, 359.07, 0, 1
RATE, 41140777, -3.556599, -0.09973405, -0.007827269, -2.714396, 0.04278649, -0.006314672, 0.01871358, 0.04924735, -5.743065E-06, -460.2828, -0.4897118, 0
NKF1, 41140785, 0.79, 0.6, 359.06, -0.009671547, -0.028579, -0.01136501, 0, 0, 0, -0.08817919, 0, 0, 0
NKF2, 41140785, 0, 0, 0, 0, 0, 0, 0, 0, 0, 0, 0, 0, 0
NKF3, 41140785, 0, 0, 0, 0, -0.05, -0.01, 0, 0, 0, 0, 0
NKF4, 41140785, 0, 0, 0, 0, 0, 2.78927E-06, 0, 0, 0, 19, 229, 0, 0
NKF5, 41140785, 0, 0, 0, 0, 0.21, 0.13, 0, 0.19, 0.5, 2.452897E-05, 0.0006309573, 0.001602262
NKQ1, 41140785, 0.9998901, 0.002450871, 0.01212836, -0.008165933
AHR2, 41140831, 0.81, 0.61, 359.32, 0.03, 0, 0, 0.9999427, 0.007156413, 0.005349781, -0.005897285
MOTB, 41140839, 1, 1, 0, 1
RCIN, 41140843, 0, 0, 0, 0, 0, 0, 0, 0, 0, 0, 0, 0, 0, 0
RCOU, 41140848, 1234, 1232, 1221, 1245, 0, 0, 0, 0, 0, 0, 0, 0, 0, 0
VIBE, 41140857, 0.02046581, 0.02001239, 0.03561791, 0, 0, 0
