FMT, 128, 89, FMT, BBnNZ, Type,Length,Name,Format,Columns
FMT, 129, 31, PARM, QNf, TimeUS,Name,Value
FMT, 130, 46, GPS, QBIHBcLLefffB, TimeUS,Status,GMS,GWk,NSats,HDop,Lat,Lng,Alt,Spd,GCrs,VZ,U
FMT, 131, 46, GPS2, QBIHBcLLefffB, TimeUS,Status,GMS,GWk,NSats,HDop,Lat,Lng,Alt,Spd,GCrs,VZ,U
FMT, 132, 46, GPSB, QBIHBcLLefffB, TimeUS,Status,GMS,GWk,NSats,HDop,Lat,Lng,Alt,Spd,GCrs,VZ,U
FMT, 193, 24, GPA, QCCCCBI, TimeUS,VDop,HAcc,VAcc,SAcc,VV,SMS
FMT, 194, 24, GPA2, QCCCCBI, TimeUS,VDop,HAcc,VAcc,SAcc,VV,SMS
FMT, 195, 24, GPAB, QCCCCBI, TimeUS,VDop,HAcc,VAcc,SAcc,VV,SMS
FMT, 133, 53, IMU, QffffffIIfBBHH, TimeUS,GyrX,GyrY,GyrZ,AccX,AccY,AccZ,EG,EA,T,GH,AH,GHz,AHz
FMT, 134, 75, MSG, QZ, TimeUS,Message
FMT, 135, 39, RCIN, QHHHHHHHHHHHHHH, TimeUS,C1,C2,C3,C4,C5,C6,C7,C8,C9,C10,C11,C12,C13,C14
FMT, 136, 39, RCOU, QHHHHHHHHHHHHHH, TimeUS,C1,C2,C3,C4,C5,C6,C7,C8,C9,C10,C11,C12,C13,C14
FMT, 137, 15, RSSI, Qf, TimeUS,RXRSSI
FMT, 139, 37, BARO, QffcfIff, TimeUS,Alt,Press,Temp,CRt,SMS,Offset,GndTemp
FMT, 140, 22, POWR, QffHB, TimeUS,Vcc,VServo,Flags,Safety
FMT, 143, 45, CMD, QHHHfffffff, TimeUS,CTot,CNum,CId,Prm1,Prm2,Prm3,Prm4,Lat,Lng,Alt
FMT, 144, 20, RAD, QBBBBBHH, TimeUS,RSSI,RemRSSI,TxBuf,Noise,RemNoise,RxErrors,Fixed
FMT, 146, 43, CAM, QIHLLeeeccC, TimeUS,GPSTime,GPSWeek,Lat,Lng,Alt,RelAlt,GPSAlt,Roll,Pitch,Yaw
FMT, 232, 43, TRIG, QIHLLeeeccC, TimeUS,GPSTime,GPSWeek,Lat,Lng,Alt,RelAlt,GPSAlt,Roll,Pitch,Yaw
FMT, 162, 30, ARSP, QffcffB, TimeUS,Airspeed,DiffPress,Temp,RawPress,Offset,U
FMT, 164, 45, CURR, QfffcHHHHHHHHHH, TimeUS,Volt,Curr,CurrTot,Temp,V1,V2,V3,V4,V5,V6,V7,V8,V9,V10
FMT, 165, 45, CUR2, QfffcHHHHHHHHHH, TimeUS,Volt,Curr,CurrTot,Temp,V1,V2,V3,V4,V5,V6,V7,V8,V9,V10
FMT, 163, 27, ATT, QccccCCCC, TimeUS,DesRoll,Roll,DesPitch,Pitch,DesYaw,Yaw,ErrRP,ErrYaw
FMT, 166, 34, MAG, QhhhhhhhhhBI, TimeUS,MagX,MagY,MagZ,OfsX,OfsY,OfsZ,MOfsX,MOfsY,MOfsZ,Health,S
FMT, 169, 14, MODE, QMBB, TimeUS,Mode,ModeNum,Rsn
FMT, 196, 17, RFND, QCBCB, TimeUS,Dist1,Orient1,Dist2,Orient2
FMT, 223, 33, DMS, IIIIIBBBBBBBBBB, TimeMS,N,Dp,RT,RS,Er,Fa,Fmn,Fmx,Pa,Pmn,Pmx,Sa,Smn,Smx
FMT, 240, 41, BCN, QBBfffffff, TimeUS,Health,Cnt,D0,D1,D2,D3,PosX,PosY,PosZ
FMT, 138, 53, IMU2, QffffffIIfBBHH, TimeUS,GyrX,GyrY,GyrZ,AccX,AccY,AccZ,EG,EA,T,GH,AH,GHz,AHz
FMT, 147, 53, IMU3, QffffffIIfBBHH, TimeUS,GyrX,GyrY,GyrZ,AccX,AccY,AccZ,EG,EA,T,GH,AH,GHz,AHz
FMT, 141, 45, AHR2, QccCfLLffff, TimeUS,Roll,Pitch,Yaw,Alt,Lat,Lng,Q1,Q2,Q3,Q4
FMT, 180, 31, POS, QLLfff, TimeUS,Lat,Lng,Alt,RelHomeAlt,RelOriginAlt
FMT, 142, 45, SIM, QccCfLLffff, TimeUS,Roll,Pitch,Yaw,Alt,Lat,Lng,Q1,Q2,Q3,Q4
FMT, 198, 51, NKF1, QccCfffffffccc, TimeUS,Roll,Pitch,Yaw,VN,VE,VD,dPD,PN,PE,PD,GX,GY,GZ
FMT, 199, 35, NKF2, QbccccchhhhhhB, TimeUS,AZbias,GSX,GSY,GSZ,VWN,VWE,MN,ME,MD,MX,MY,MZ,MI
FMT, 200, 33, NKF3, Qcccccchhhcc, TimeUS,IVN,IVE,IVD,IPN,IPE,IPD,IMX,IMY,IMZ,IYAW,IVT
FMT, 201, 35, NKF4, QcccccfbbHBHHb, TimeUS,SV,SP,SH,SM,SVT,errRP,OFN,OFE,FS,TS,SS,GPS,PI
FMT, 202, 40, NKF5, QBhhhcccCCfff, TimeUS,NI,FIX,FIY,AFI,HAGL,offset,RI,rng,Herr,eAng,eVel,ePos
FMT, 203, 51, NKF6, QccCfffffffccc, TimeUS,Roll,Pitch,Yaw,VN,VE,VD,dPD,PN,PE,PD,GX,GY,GZ
FMT, 204, 35, NKF7, QbccccchhhhhhB, TimeUS,AZbias,GSX,GSY,GSZ,VWN,VWE,MN,ME,MD,MX,MY,MZ,MI
FMT, 205, 33, NKF8, Qcccccchhhcc, TimeUS,IVN,IVE,IVD,IPN,IPE,IPD,IMX,IMY,IMZ,IYAW,IVT
FMT, 206, 35, NKF9, QcccccfbbHBHHb, TimeUS,SV,SP,SH,SM,SVT,errRP,OFN,OFE,FS,TS,SS,GPS,PI
FMT, 207, 36, NKF0, QBccCCcccccccc, TimeUS,ID,rng,innov,SIV,TR,BPN,BPE,BPD,OFH,OFL,OFN,OFE,OFD
FMT, 208, 27, NKQ1, Qffff, TimeUS,Q1,Q2,Q3,Q4
FMT, 209, 27, NKQ2, Qffff, TimeUS,Q1,Q2,Q3,Q4
FMT, 210, 51, XKF1, QccCfffffffccc, TimeUS,Roll,Pitch,Yaw,VN,VE,VD,dPD,PN,PE,PD,GX,GY,GZ
FMT, 211, 34, XKF2, QccccchhhhhhB, TimeUS,AX,AY,AZ,VWN,VWE,MN,ME,MD,MX,MY,MZ,MI
FMT, 212, 33, XKF3, Qcccccchhhcc, TimeUS,IVN,IVE,IVD,IPN,IPE,IPD,IMX,IMY,IMZ,IYAW,IVT
FMT, 213, 35, XKF4, QcccccfbbHBHHb, TimeUS,SV,SP,SH,SM,SVT,errRP,OFN,OFE,FS,TS,SS,GPS,PI
FMT, 214, 40, XKF5, QBhhhcccCCfff, TimeUS,NI,FIX,FIY,AFI,HAGL,offset,RI,rng,Herr,eAng,eVel,ePos
FMT, 215, 51, XKF6, QccCfffffffccc, TimeUS,Roll,Pitch,Yaw,VN,VE,VD,dPD,PN,PE,PD,GX,GY,GZ
FMT, 216, 34, XKF7, QccccchhhhhhB, TimeUS,AX,AY,AZ,VWN,VWE,MN,ME,MD,MX,MY,MZ,MI
FMT, 217, 33, XKF8, Qcccccchhhcc, TimeUS,IVN,IVE,IVD,IPN,IPE,IPD,IMX,IMY,IMZ,IYAW,IVT
FMT, 218, 35, XKF9, QcccccfbbHBHHb, TimeUS,SV,SP,SH,SM,SVT,errRP,OFN,OFE,FS,TS,SS,GPS,PI
FMT, 219, 36, XKF0, QBccCCcccccccc, TimeUS,ID,rng,innov,SIV,TR,BPN,BPE,BPD,OFH,OFL,OFN,OFE,OFD
FMT, 220, 27, XKQ1, Qffff, TimeUS,Q1,Q2,Q3,Q4
FMT, 221, 27, XKQ2, Qffff, TimeUS,Q1,Q2,Q3,Q4
FMT, 222, 35, XKFD, Qffffff, TimeUS,IX,IY,IZ,IVX,IVY,IVZ
FMT, 148, 34, TERR, QBLLHffHH, TimeUS,Status,Lat,Lng,Spacing,TerrH,CHeight,Pending,Loaded
FMT, 149, 18, UBX1, QBHBBH, TimeUS,Instance,noisePerMS,jamInd,aPower,agcCnt
FMT, 150, 16, UBX2, QBbBbB, TimeUS,Instance,ofsI,magI,ofsQ,magQ
FMT, 151, 18, UBY1, QBHBBH, TimeUS,Instance,noisePerMS,jamInd,aPower,agcCnt
FMT, 152, 16, UBY2, QBbBbB, TimeUS,Instance,ofsI,magI,ofsQ,magQ
FMT, 170, 42, GRAW, QIHBBddfBbB, TimeUS,WkMS,Week,numSV,sv,cpMes,prMes,doMes,mesQI,cno,lli
FMT, 171, 24, GRXH, QdHbBB, TimeUS,rcvTime,week,leapS,numMeas,recStat
FMT, 172, 41, GRXS, QddfBBBHBBBBB, TimeUS,prMes,cpMes,doMes,gnss,sv,freq,lock,cno,prD,cpD,doD,trk
FMT, 173, 63, SBFE, QIHBBdddfffff, TimeUS,TOW,WN,Mode,Err,Lat,Lng,Height,Undul,Vn,Ve,Vu,COG
FMT, 153, 19, ESC1, Qcccc, TimeUS,RPM,Volt,Curr,Temp
FMT, 154, 19, ESC2, Qcccc, TimeUS,RPM,Volt,Curr,Temp
FMT, 155, 19, ESC3, Qcccc, TimeUS,RPM,Volt,Curr,Temp
FMT, 156, 19, ESC4, Qcccc, TimeUS,RPM,Volt,Curr,Temp
FMT, 157, 19, ESC5, Qcccc, TimeUS,RPM,Volt,Curr,Temp
FMT, 158, 19, ESC6, Qcccc, TimeUS,RPM,Volt,Curr,Temp
FMT, 159, 19, ESC7, Qcccc, TimeUS,RPM,Volt,Curr,Temp
FMT, 160, 19, ESC8, Qcccc, TimeUS,RPM,Volt,Curr,Temp
FMT, 167, 34, MAG2, QhhhhhhhhhBI, TimeUS,MagX,MagY,MagZ,OfsX,OfsY,OfsZ,MOfsX,MOfsY,MOfsZ,Health,S
FMT, 168, 34, MAG3, QhhhhhhhhhBI, TimeUS,MagX,MagY,MagZ,OfsX,OfsY,OfsZ,MOfsX,MOfsY,MOfsZ,Health,S
FMT, 174, 31, ACC1, QQfff, TimeUS,SampleUS,AccX,AccY,AccZ
FMT, 175, 31, ACC2, QQfff, TimeUS,SampleUS,AccX,AccY,AccZ
FMT, 176, 31, ACC3, QQfff, TimeUS,SampleUS,AccX,AccY,AccZ
FMT, 177, 31, GYR1, QQfff, TimeUS,SampleUS,GyrX,GyrY,GyrZ
FMT, 178, 31, GYR2, QQfff, TimeUS,SampleUS,GyrX,GyrY,GyrZ
FMT, 179, 31, GYR3, QQfff, TimeUS,SampleUS,GyrX,GyrY,GyrZ
FMT, 181, 35, PIDR, Qffffff, TimeUS,Des,P,I,D,FF,AFF
FMT, 182, 35, PIDP, Qffffff, TimeUS,Des,P,I,D,FF,AFF
FMT, 183, 35, PIDY, Qffffff, TimeUS,Des,P,I,D,FF,AFF
FMT, 184, 35, PIDA, Qffffff, TimeUS,Des,P,I,D,FF,AFF
FMT, 185, 35, PIDS, Qffffff, TimeUS,Des,P,I,D,FF,AFF
FMT, 186, 35, PIDL, Qffffff, TimeUS,Des,P,I,D,FF,AFF
FMT, 161, 37, BAR2, QffcfIff, TimeUS,Alt,Press,Temp,CRt,SMS,Offset,GndTemp
FMT, 197, 37, BAR3, QffcfIff, TimeUS,Alt,Press,Temp,CRt,SMS,Offset,GndTemp
FMT, 187, 35, VIBE, QfffIII, TimeUS,VibeX,VibeY,VibeZ,Clip0,Clip1,Clip2
FMT, 188, 47, IMT, Qfffffffff, TimeUS,DelT,DelvT,DelaT,DelAX,DelAY,DelAZ,DelVX,DelVY,DelVZ
FMT, 189, 47, IMT2, Qfffffffff, TimeUS,DelT,DelvT,DelaT,DelAX,DelAY,DelAZ,DelVX,DelVY,DelVZ
FMT, 190, 47, IMT3, Qfffffffff, TimeUS,DelT,DelvT,DelaT,DelAX,DelAY,DelAZ,DelVX,DelVY,DelVZ
FMT, 191, 24, ORGN, QBLLe, TimeUS,Type,Lat,Lng,Alt
FMT, 192, 19, RPM, Qff, TimeUS,rpm1,rpm2
FMT, 233, 47, GMB1, Iffffffffff, TimeMS,dt,dax,day,daz,dvx,dvy,dvz,jx,jy,jz
FMT, 234, 44, GMB2, IBfffffffff, TimeMS,es,ex,ey,ez,rx,ry,rz,tx,ty,tz
FMT, 235, 13, GMB3, Ihhh, TimeMS,rl_torque_cmd,el_torque_cmd,az_torque_cmd
FMT, 236, 59, RATE, Qffffffffffff, TimeUS,RDes,R,ROut,PDes,P,POut,YDes,Y,YOut,ADes,A,AOut
FMT, 237, 23, RALY, QBBLLh, TimeUS,Tot,Seq,Lat,Lng,Alt
FMT, 238, 43, VISO, Qffffffff, TimeUS,dt,AngDX,AngDY,AngDZ,PosDX,PosDY,PosDZ,conf
FMT, 224, 23, SBPH, QIII, TimeUS,CrcError,LastInject,IARhyp
FMT, 229, 80, SBR1, QHHBZ, TimeUS,msg_type,sender_id,msg_len,d1
FMT, 230, 205, SBR2, QHZZZ, TimeUS,msg_type,d2,d3,d4
FMT, 25, 41, ATUN, QBBfffffff, TimeUS,Axis,TuneStep,Targ,Min,Max,RP,RD,SP,ddt
FMT, 26, 19, ATDE, Qff, TimeUS,Angle,Rate
FMT, 31, 22, PTUN, QBfHHH, TimeUS,Param,TunVal,CtrlIn,TunLo,TunHi
FMT, 12, 28, OF, QBffff, TimeUS,Qual,flowX,flowY,bodyX,bodyY
FMT, 5, 51, NTUN, Qffffffffff, TimeUS,DPosX,DPosY,PosX,PosY,DVelX,DVelY,VelX,VelY,DAccX,DAccY
FMT, 4, 51, CTUN, Qffffffeccfhh, TimeUS,ThI,ABst,ThO,ThH,DAlt,Alt,BAlt,DSAlt,SAlt,TAlt,DCRt,CRt
FMT, 6, 32, PM, QHHIhBHII, TimeUS,NLon,NLoop,MaxT,PMT,I2CErr,INSErr,LogDrop,Mem
FMT, 30, 27, MOTB, Qffff, TimeUS,LiftMax,BatVolt,BatRes,ThLimit
FMT, 13, 12, EV, QB, TimeUS,Id
FMT, 20, 14, D16, QBh, TimeUS,Id,Value
FMT, 21, 14, DU16, QBH, TimeUS,Id,Value
FMT, 22, 16, D32, QBi, TimeUS,Id,Value
FMT, 23, 16, DU32, QBI, TimeUS,Id,Value
FMT, 24, 16, DFLT, QBf, TimeUS,Id,Value
FMT, 19, 13, ERR, QBB, TimeUS,Subsys,ECode
FMT, 32, 19, HELI, Qff, TimeUS,DRRPM,ERRPM
FMT, 33, 29, PL, QBBffff, TimeUS,Heal,TAcq,pX,pY,vX,vY
FMT, 34, 36, GUID, QBffffff, TimeUS,Type,pX,pY,pZ,vX,vY,vZ
FMT, 35, 32, THRO, QBffffbbbb, TimeUS,Stage,Vel,VelZ,Acc,AccEfZ,Throw,AttOk,HgtOk,PosOk
FMT, 36, 56, PRX, QBfffffffffff, TimeUS,Health,D0,D45,D90,D135,D180,D225,D270,D315,DUp,CAn,CDis
MODE, 38674061, 100, 100, 2
EV, 38680032, 15
FMT, 254, 47, NKT1, QIffffffff, TimeUS,Cnt,IMUMin,IMUMax,EKFMin,EKFMax,AngMin,AngMax,VelMin,VelM
FMT, 253, 31, CTRL, Qfffff, TimeUS,RMSRollP,RMSRollD,RMSPitchP,RMSPitchD,RMSYaw
MSG, 38853317, APM:Copter V3.5.7 (38483450)
MSG, 38853322, New mission
MSG, 38853332, Frame: QUAD
MODE, 38853336, Autonomous, 100, 2
MAG, 38860827, 384, 488, 301, 0, 0, 0, 0, 0, 0, 1, 38860818
RFND, 38860857, 0.2, 25, 0, 0
BARO, 38860897, -0.1183105, 992.794, 34.82, 0.1677269, 38860, 0, 34.04
CTUN, 38860910, 0, 0, 0, 0.2128421, 0.07174698, 0.07174698, -0.11, 0, 0.19, 0, 0, 0
DU32, 38860947, 7, 50356728
ATT, 38863243, 0, 0.87, 0, 0.6, 0.38, 0.39, 0, 1
RATE, 38863252, -3.920908, -0.03919219, -0.008885386, -2.731142, 0.05820333, -0.006688891, 0.01900074, -0.008853937, 6.728177E-05, -46.16903, -0.2968788, 0
NKF1, 38863261, 0.87, 0.6, 0.39, -0.002790473, -0.004626348, -0.001139976, 0, 0, 0, -0.07170364, 0, 0, 0
NKF2, 38863261, 0, 0, 0, 0, 0, 0, 0, 0, 0, 0, 0, 0, 0
NKF3, 38863261, 0, 0, 0, 0, 0, 0, 0, 0, 0, 0, 0
NKF4, 38863261, 0, 0, 0, 0, 0, 7.109774E-06, 0, 0, 0, 19, 229, 0, 0
NKF5, 38863261, 0, 0, 0, 0, 0.2, 0.13, 0, 0.19, 0.5, 1.813844E-05, 0.0004870254, 0.001012085
NKQ1, 38863261, 0.9999154, 0.003018105, 0.01218917, 0.00340815
AHR2, 38863304, 0.88, 0.58, 0.37, -0.11, 0, 0, 0.9999523, 0.007673484, 0.005113624, 0.00323689
MOTB, 38863311, 1, 1, 0, 1
RCIN, 38863315, 0, 0, 0, 0, 0, 0, 0, 0, 0, 0, 0, 0, 0, 0
RCOU, 38863320, 1101, 1101, 1101, 1101, 0, 0, 0, 0, 0, 0, 0, 0, 0, 0
VIBE, 38863328, 0.02005838, 0.01949722, 0.03449259, 0, 0, 0
CTRL, 38863335, 0.009244899, 0.0001595521, 0.006432363, 0.000148265, 6.803306E-05
PRX, 38863858, 2, 0.61, 0, 0.67, 0, 0.64, 0, 2.41, 0, 0, 0, 0.61
IMU, 38863873, -0.0007132241, 0.0009118802, -0.0001569069, 0.2459736, -0.05182537, -9.796029, 0, 0, 36.71973, 1, 1, 1000, 1000
IMU, 38903174, -0.001276737, -0.0009748779, 0.0001737716, 0.2427117, -0.05458699, -9.806429, 0, 0, 36.72065, 1, 1, 1000, 1000
RFND, 38910400, 0.2, 25, 0, 0
IMU, 38943179, -0.0005466167, -0.001101218, 0.001470081, 0.2185255, -0.06042592, -9.800268, 0, 0, 36.72112, 1, 1, 1000, 1000
MAG, 38960371, 379, 490, 305, 0, 0, 0, 0, 0, 0, 1, 38960363
RFND, 38960463, 0.2, 25, 0, 0
BARO, 38960502, -0.07887366, 992.7892, 34.83, 0.09647847, 38960, 0, 34.04
CTUN, 38960582, 0, 0, 0, 0.2128421, 0.07133869, 0.07133869, -0.07, 0, 0.19, 0, 0, 0
ATT, 38963868, 0, 0.86, 0, 0.6, 0.38, 0.39, 0, 1
RATE, 38963880, -3.90051, -0.04583865, -0.009014316, -2.716761, -0.02638518, -0.006429585, 0.01863468, 0.00639045, 2.112715E-05, -42.31166, 0.05283356, 0
NKF1, 38963890, 0.86, 0.6, 0.39, -0.003252931, -0.004701086, -0.001044732, 0, 0, 0, -0.07128407, 0, 0, 0
NKF2, 38963890, 0, 0, 0, 0, 0, 0, 0, 0, 0, 0, 0, 0, 0
NKF3, 38963890, 0, 0, 0, 0, 0, 0, 0, 0, 0, 0, 0
NKF4, 38963890, 0, 0, 0, 0, 0, 4.584107E-06, 0, 0, 0, 19, 229, 0, 0
NKF5, 38963890, 0, 0, 0, 0, 0.2, 0.13, 0, 0.19, 0.5, 2.52995E-05, 0.0004573701, 0.0009042137
NKQ1, 38963890, 0.9999158, 0.002977275, 0.01216097, 0.003416431
AHR2, 38963940, 0.87, 0.57, 0.37, -0.07, 0, 0, 0.9999527, 0.007633002, 0.005083628, 0.003245498
MOTB, 38963948, 1, 1, 0, 1
RCIN, 38963953, 0, 0, 0, 0, 0, 0, 0, 0, 0, 0, 0, 0, 0, 0
RCOU, 38963958, 1101, 1101, 1101, 1101, 0, 0, 0, 0, 0, 0, 0, 0, 0, 0
VIBE, 38963967, 0.02072706, 0.01829916, 0.03346105, 0, 0, 0
CTRL, 38963974, 0.009201108, 0.0001438395, 0.006405793, 0.0001427943, 6.653935E-05
PRX, 38964007, 2, 0.6, 0, 0.66, 0, 3.6, 0, 2.42, 0, 0, 0, 0.6
IMU, 38983092, 0.0007571337, 0.0004441637, 0.0004313988, 0.2362, -0.06009772, -9.80118, 0, 0, 36.72095, 1, 1, 1000, 1000
RFND, 39010868, 0.2, 25, 0, 0
IMU, 39023211, -0.001176299, -0.001201032, 0.001066657, 0.225842, -0.06326899, -9.799425, 0, 0, 36.72088, 1, 1, 1000, 1000
MAG, 39060681, 384, 491, 301, 0, 0, 0, 0, 0, 0, 1, 39060672
RFND, 39060713, 0.2, 25, 0, 0
BARO, 39060754, -0.07887366, 992.7896, 34.83, 0.02101585, 39060, 0, 34.04
CTUN, 39060767, 0, 0, 0, 0.2128421, 0.07093798, 0.07093798, -0.07, 0, 0.19, 0, 0, 0
ATT, 39063069, 0, 0.86, 0, 0.6, 0.38, 0.39, 0, 1
RATE, 39063079, -3.901037, 0.03540009, -0.00949194, -2.711622, 0.01777691, -0.006347742, 0.01805475, 0.07728398, 1.245456E-05, -25.97902, 0.1756668, 0
NKF1, 39063086, 0.86, 0.6, 0.39, -0.003588991, -0.004880187, -0.0006414574, 0, 0, 0, -0.07090224, 0, 0, 0
NKF2, 39063086, 0, 0, 0, 0, 0, 0, 0, 0, 0, 0, 0, 0, 0
NKF3, 39063086, 0, 0, 0, 0, 0, 0, 0, 0, 0, 0, 0
NKF4, 39063086, 0, 0, 0, 0, 0, 3.097001E-06, 0, 0, 0, 19, 229, 0, 0
NKF5, 39063086, 0, 0, 0, 0, 0.2, 0.13, 0, 0.19, 0.5, 3.043576E-05, 0.0005336087, 0.001182641
NKQ1, 39063086, 0.9999158, 0.002976858, 0.01215335, 0.003441558
AHR2, 39063165, 0.87, 0.57, 0.37, -0.07, 0, 0, 0.9999527, 0.007633655, 0.00507415, 0.003270587
MOTB, 39063172, 1, 1, 0, 1
RCIN, 39063176, 0, 0, 0, 0, 0, 0, 0, 0, 0, 0, 0, 0, 0, 0
RCOU, 39063182, 1101, 1101, 1101, 1101, 0, 0, 0, 0, 0, 0, 0, 0, 0, 0
VIBE, 39063190, 0.02079422, 0.01731362, 0.03339426, 0, 0, 0
CTRL, 39063197, 0.009193351, 0.0001527648, 0.006395939, 0.0001676592, 5.551439E-05
PRX, 39063229, 2, 0.61, 0, 0.66, 0, 3.6, 0, 2.42, 0, 0, 0, 0.61
IMU, 39063236, 0.0005885089, 0.0002057856, 0.001346472, 0.2319307, -0.05998883, -9.801035, 0, 0, 36.72111, 1, 1, 1000, 1000
IMU, 39103323, -2.227161E-05, 0.0005278828, 0.0001631659, 0.2394781, -0.06660241, -9.791471, 0, 0, 36.72195, 1, 1, 1000, 1000
RFND, 39110354, 0.2, 25, 0, 0
IMU, 39143188, -0.0001032143, 0.0007799423, -0.0001474523, 0.2330282, -0.07042856, -9.792583, 0, 0, 36.72281, 1, 1, 1000, 1000
MAG, 39160439, 377, 489, 299, 0, 0, 0, 0, 0, 0, 1, 39160430
RFND, 39160469, 0.2, 25, 0, 0
BARO, 39160622, -0.09577516, 992.7913, 34.83, 0.08423988, 39160, 0, 34.04
CTUN, 39160636, 0, 0, 0, 0.2128421, 0.07045419, 0.07045419, -0.09, 0, 0.19, 0, 0, 0
ATT, 39163194, 0, 0.86, 0, 0.6, 0.38, 0.39, 0, 1
RATE, 39163206, -3.898058, 0.006896737, -0.009006628, -2.717362, -0.01686952, -0.00620514, 0.0193295, 0.01954732, 3.642158E-05, -13.82576, 0.7234573, 0
NKF1, 39163214, 0.86, 0.6, 0.39, -0.003504928, -0.005759663, -0.0003413768, 0, 0, 0, -0.07040986, 0, 0, 0
NKF2, 39163214, 0, 0, 0, 0, 0, 0, 0, 0, 0, 0, 0, 0, 0
NKF3, 39163214, 0, 0, 0, 0, 0, 0, 0, 0, 0, 0, 0
NKF4, 39163214, 0, 0, 0, 0, 0, 2.070705E-06, 0, 0, 0, 19, 229, 0, 0
NKF5, 39163214, 0, 0, 0, 0, 0.2, 0.13, 0, 0.19, 0.5, 3.430153E-05, 0.0005086141, 0.001096709
NKQ1, 39163214, 0.9999157, 0.002972221, 0.01216285, 0.003448167
AHR2, 39163258, 0.87, 0.57, 0.37, -0.09, 0, 0, 0.9999526, 0.007629815, 0.005080525, 0.003277111
MOTB, 39163264, 1, 1, 0, 1
RCIN, 39163269, 0, 0, 0, 0, 0, 0, 0, 0, 0, 0, 0, 0, 0, 0
RCOU, 39163274, 1101, 1101, 1101, 1101, 0, 0, 0, 0, 0, 0, 0, 0, 0, 0
VIBE, 39163283, 0.02004018, 0.01739403, 0.03193385, 0, 0, 0
CTRL, 39163290, 0.009195359, 0.0001471166, 0.006409809, 0.0001665935, 4.947013E-05
PRX, 39163321, 2, 0.61, 0, 0.66, 0, 3.6, 0, 2.4, 0, 0, 0, 0.61
IMU, 39183149, 0.0003886368, 0.0005150387, 0.0003431536, 0.2531209, -0.06646585, -9.794783, 0, 0, 36.72372, 1, 1, 1000, 1000
RFND, 39210767, 0.2, 25, 0, 0
IMU, 39223158, 0.001014089, -0.0009405731, -0.0004749757, 0.2334943, -0.06952336, -9.797538, 0, 0, 36.72469, 1, 1, 1000, 1000
MAG, 39260871, 381, 489, 303, 0, 0, 0, 0, 0, 0, 1, 39260862
RFND, 39260901, 0.2, 25, 0, 0
BARO, 39260940, 0.005633833, 992.7798, 34.83, 0.1333054, 39260, 0, 34.04
CTUN, 39260952, 0, 0, 0, 0.2128421, 0.0700828, 0.0700828, 0, 0, 0.19, 0, 0, 0
ATT, 39263308, 0, 0.86, 0, 0.6, 0.38, 0.4, 0, 1
RATE, 39263318, -3.887878, -0.1022451, -0.008802568, -2.702726, -0.01286013, -0.006375517, 0.01932501, 0.05535957, -1.654046E-06, -3.225789, 1.04599, 0
NKF1, 39263326, 0.86, 0.6, 0.4, -0.003110267, -0.0063555, -7.964912E-05, 0, 0, 0, -0.07002939, 0, 0, 0
NKF2, 39263326, 0, 0, 0, 0, 0, 0, 0, 0, 0, 0, 0, 0, 0
NKF3, 39263326, 0, 0, 0, 0, 0, 0, 0, 0, 0, 0, 0
NKF4, 39263326, 0, 0, 0, 0, 0, 1.409684E-06, 0, 0, 0, 19, 229, 0, 0
NKF5, 39263326, 0, 0, 0, 0, 0.2, 0.13, 0, 0.19, 0.5, 3.660681E-05, 0.0004821133, 0.001008017
NKQ1, 39263326, 0.999916, 0.002952143, 0.01213585, 0.003465388
AHR2, 39263683, 0.87, 0.57, 0.38, 0, 0, 0, 0.9999529, 0.007611477, 0.005051081, 0.003294507
MOTB, 39263696, 1, 1, 0, 1
RCIN, 39263700, 0, 0, 0, 0, 0, 0, 0, 0, 0, 0, 0, 0, 0, 0
RCOU, 39263706, 1101, 1101, 1101, 1101, 0, 0, 0, 0, 0, 0, 0, 0, 0, 0
VIBE, 39263715, 0.02090563, 0.01853121, 0.03482133, 0, 0, 0
CTRL, 39263722, 0.009175833, 0.0001963555, 0.006375469, 0.0001619269, 4.469528E-05
PRX, 39263754, 2, 0.61, 0, 0.66, 0, 3.6, 0, 2.4, 0, 0, 0, 0.61
IMU, 39263761, -0.00181408, -0.000329716, 0.0009638004, 0.2415268, -0.05847015, -9.809502, 0, 0, 36.72558, 1, 1, 1000, 1000
IMU, 39303181, -0.0002319508, -0.00038781, 0.001426452, 0.241889, -0.05561904, -9.80216, 0, 0, 36.72629, 1, 1, 1000, 1000
RFND, 39310414, 0.2, 25, 0, 0
IMU, 39343149, 0.0005187593, 0.0001691598, -0.0002291225, 0.2407303, -0.06596494, -9.803217, 0, 0, 36.72715, 1, 1, 1000, 1000
MAG, 39360448, 383, 492, 301, 0, 0, 0, 0, 0, 0, 1, 39360439
RFND, 39360478, 0.2, 25, 0, 0
BARO, 39360591, -0.09014133, 992.7903, 34.84, 0.142583, 39360, 0, 34.04
CTUN, 39360605, 0, 0, 0, 0.2128421, 0.06963006, 0.06963006, -0.09, 0, 0.19, 0, 0, 0
ATT, 39363217, 0, 0.86, 0, 0.6, 0.39, 0.4, 0, 1
RATE, 39363229, -3.891254, -0.01406453, -0.009105029, -2.702267, -0.022942, -0.00636157, 0.02313934, -0.01526261, 4.225558E-05, -8.895963, 1.500702, 0
NKF1, 39363237, 0.86, 0.6, 0.4, -0.003017462, -0.006256244, -0.0002196534, 0, 0, 0, -0.06959517, 0, 0, 0
NKF2, 39363237, 0, 0, 0, 0, 0, 0, 0, 0, 0, 0, 0, 0, 0
NKF3, 39363237, 0, 0, 0, 0, 0, 0, 0, 0, 0, 0, 0
NKF4, 39363237, 0, 0, 0, 0, 0, 9.796693E-07, 0, 0, 0, 19, 229, 0, 0
NKF5, 39363237, 0, 0, 0, 0, 0.2, 0.13, 0, 0.19, 0.5, 3.801705E-05, 0.0005403541, 0.001233052
NKQ1, 39363237, 0.999916, 0.002960065, 0.01213298, 0.003474307
AHR2, 39363279, 0.87, 0.57, 0.38, -0.09, 0, 0, 0.9999527, 0.007627614, 0.005052437, 0.00330328
MOTB, 39363286, 1, 1, 0, 1
RCIN, 39363291, 0, 0, 0, 0, 0, 0, 0, 0, 0, 0, 0, 0, 0, 0
RCOU, 39363297, 1101, 1101, 1101, 1101, 0, 0, 0, 0, 0, 0, 0, 0, 0, 0
VIBE, 39363305, 0.02123719, 0.01732177, 0.03101651, 0, 0, 0
CTRL, 39363313, 0.009180007, 0.0001912119, 0.006371247, 0.0001664102, 4.365095E-05
PRX, 39363344, 2, 0.61, 0, 0.66, 0, 3.6, 0, 2.42, 0, 0, 0, 0.61
IMU, 39383285, -0.0009736229, -0.000318036, -0.0005028547, 0.2380268, -0.05801527, -9.78204, 0, 0, 36.72782, 1, 1, 1000, 1000
RFND, 39410876, 0.2, 25, 0, 0
IMU, 39423185, -0.0009233953, 0.0007157983, 6.354559E-05, 0.236932, -0.05711307, -9.791238, 0, 0, 36.72852, 1, 1, 1000, 1000
MAG, 39460572, 381, 492, 300, 0, 0, 0, 0, 0, 0, 1, 39460500
RFND, 39460606, 0.2, 25, 0, 0
BARO, 39460646, -0.1521135, 992.7974, 34.84, 0.1073949, 39460, 0, 34.04
CTUN, 39460659, 0, 0, 0, 0.2128421, 0.06925363, 0.06925363, -0.15, 0, 0.19, 0, 0, 0
ATT, 39463200, 0, 0.86, 0, 0.6, 0.39, 0.4, 0, 1
RATE, 39463211, -3.878943, -0.01430224, -0.009038039, -2.715535, 0.015798, -0.006283587, 0.02339789, -0.02969009, 5.070187E-05, 25.53477, 0.2693176, 0
NKF1, 39463219, 0.86, 0.6, 0.4, -0.003011499, -0.006457757, 0.0006304882, 0, 0, 0, -0.06920935, 0, 0, 0
NKF2, 39463219, 0, 0, 0, 0, 0, 0, 0, 0, 0, 0, 0, 0, 0
NKF3, 39463219, 0, 0, 0, 0, 0, 0, 0, 0, 0, 0, 0
NKF4, 39463219, 0, 0, 0, 0, 0, 6.887713E-07, 0, 0, 0, 19, 229, 0, 0
NKF5, 39463219, 0, 0, 0, 0, 0.2, 0.13, 0, 0.19, 0.5, 3.827319E-05, 0.0004963487, 0.001109734
NKQ1, 39463219, 0.9999158, 0.002935455, 0.01215745, 0.00346551
AHR2, 39463264, 0.87, 0.57, 0.38, -0.15, 0, 0, 0.9999527, 0.007610524, 0.005080961, 0.00329443
MOTB, 39463270, 1, 1, 0, 1
RCIN, 39463275, 0, 0, 0, 0, 0, 0, 0, 0, 0, 0, 0, 0, 0, 0
RCOU, 39463281, 1101, 1101, 1101, 1101, 0, 0, 0, 0, 0, 0, 0, 0, 0, 0
VIBE, 39463289, 0.01826574, 0.02001349, 0.0315725, 0, 0, 0
CTRL, 39463296, 0.009157772, 0.0001811039, 0.00639453, 0.0001590397, 5.34031E-05
PRX, 39463327, 2, 0.6, 0, 0.66, 0, 0.62, 0, 2.41, 0, 0, 0, 0.6
IMU, 39463334, -0.0002791456, 0.0001706266, -0.0005205926, 0.2365081, -0.06477065, -9.80183, 0, 0, 36.72918, 1, 1, 1000, 1000
IMU, 39503182, -0.0001204359, -0.0005279178, 0.002128897, 0.2350642, -0.06208635, -9.797379, 0, 0, 36.72946, 1, 1, 1000, 1000
RFND, 39510407, 0.2, 25, 0, 0
IMU, 39543267, -0.0005685451, -0.000451596, -0.0006326247, 0.2389482, -0.06392299, -9.785129, 0, 0, 36.72985, 1, 1, 1000, 1000
MAG, 39560821, 380, 489, 296, 0, 0, 0, 0, 0, 0, 1, 39560812
RFND, 39560850, 0.2, 25, 0, 0
BARO, 39560889, -0.1577473, 992.7981, 34.85, -0.1073949, 39560, 0, 34.04
CTUN, 39560901, 0, 0, 0, 0.2128421, 0.06878877, 0.06878877, -0.15, 0, 0.19, 0, 0, 0
ATT, 39563080, 0, 0.85, 0, 0.6, 0.39, 0.4, 0, 1
RATE, 39563092, -3.867861, 0.01226338, -0.009189903, -2.715283, 0.02697451, -0.006612357, 0.01985875, -0.09161276, 0.0001033535, 58.14091, -0.3728867, 0
NKF1, 39563100, 0.85, 0.6, 0.4, -0.002867339, -0.007252774, 0.001435578, 0, 0, 0, -0.06876037, 0, 0, 0
NKF2, 39563100, 0, 0, 0, 0, 0, 0, 0, 0, 0, 0, 0, 0, 0
NKF3, 39563100, 0, 0, 0, 0, 0, 0, 0, 0, 0, 0, 0
NKF4, 39563100, 0, 0, 0, 0, 0, 5.054529E-07, 0, 0, 0, 19, 229, 0, 0
NKF5, 39563100, 0, 0, 0, 0, 0.2, 0.13, 0, 0.19, 0.5, 3.830815E-05, 0.000550589, 0.001312299
NKQ1, 39563100, 0.9999158, 0.002915726, 0.01215555, 0.003475358
AHR2, 39563142, 0.87, 0.57, 0.38, -0.15, 0, 0, 0.9999529, 0.007590232, 0.005081351, 0.003304281
MOTB, 39563149, 1, 1, 0, 1
RCIN, 39563154, 0, 0, 0, 0, 0, 0, 0, 0, 0, 0, 0, 0, 0, 0
RCOU, 39563159, 1101, 1101, 1101, 1101, 0, 0, 0, 0, 0, 0, 0, 0, 0, 0
VIBE, 39563168, 0.0179774, 0.01967579, 0.03324133, 0, 0, 0
CTRL, 39563174, 0.009128308, 0.0001947023, 0.006392897, 0.0001448907, 5.339527E-05
PRX, 39563205, 2, 0.61, 0, 0.66, 0, 0.62, 0, 2.39, 0, 0, 0, 0.61
IMU, 39583246, -0.002023376, -0.0001880337, -0.0003561751, 0.2417515, -0.06967075, -9.787499, 0, 0, 36.73028, 1, 1, 1000, 1000
RFND, 39610396, 0.2, 25, 0, 0
IMU, 39623341, 0.0009863485, -0.0005571417, -0.0004237484, 0.2457571, -0.06148352, -9.809306, 0, 0, 36.73048, 1, 1, 1000, 1000
MAG, 39660479, 381, 491, 302, 0, 0, 0, 0, 0, 0, 1, 39660470
RFND, 39660581, 0.2, 25, 0, 0
BARO, 39660623, -0.1126767, 992.793, 34.85, -0.3345089, 39660, 0, 34.04
CTUN, 39660636, 0, 0, 0, 0.2128421, 0.06832794, 0.06832794, -0.11, 0, 0.19, 0, 0, 0
ATT, 39663138, 0, 0.85, 0, 0.6, 0.39, 0.4, 0, 1
RATE, 39663149, -3.869783, 0.008771139, -0.008959529, -2.705222, 0.006431055, -0.006455327, 0.01983876, 0.06108922, 2.871637E-05, 58.81917, 1.040173, 0
NKF1, 39663157, 0.85, 0.6, 0.4, -0.002658984, -0.008054358, 0.001452325, 0, 0, 0, -0.06829262, 0, 0, 0
NKF2, 39663157, 0, 0, 0, 0, 0, 0, 0, 0, 0, 0, 0, 0, 0
NKF3, 39663157, 0, 0, 0, 0, 0, 0, 0, 0, 0, 0, 0
NKF4, 39663157, 0, 0, 0, 0, 0, 3.894566E-07, 0, 0, 0, 19, 229, 0, 0
NKF5, 39663157, 0, 0, 0, 0, 0.2, 0.13, 0, 0.19, 0.5, 3.783657E-05, 0.000500528, 0.001179528
NKQ1, 39663157, 0.999916, 0.002916753, 0.01214087, 0.003486273
AHR2, 39663200, 0.87, 0.57, 0.38, -0.11, 0, 0, 0.9999529, 0.007590947, 0.005068873, 0.003315116
MOTB, 39663207, 1, 1, 0, 1
RCIN, 39663212, 0, 0, 0, 0, 0, 0, 0, 0, 0, 0, 0, 0, 0, 0
RCOU, 39663217, 1101, 1101, 1101, 1101, 0, 0, 0, 0, 0, 0, 0, 0, 0, 0
VIBE, 39663226, 0.02004167, 0.01861335, 0.02938383, 0, 0, 0
CTRL, 39663233, 0.009131231, 0.0002142864, 0.006377746, 0.0001505423, 6.815702E-05
PRX, 39663264, 2, 0.61, 0, 0.66, 0, 3.6, 0, 2.41, 0, 0, 0, 0.61
IMU, 39663271, 0.0001234462, 6.758075E-06, 0.001063797, 0.2439752, -0.07309596, -9.809301, 0, 0, 36.73002, 1, 1, 1000, 1000
IMU, 39703152, 0.0001519741, 0.0003846688, 0.0004533796, 0.2277757, -0.06428982, -9.793265, 0, 0, 36.72946, 1, 1, 1000, 1000
RFND, 39710712, 0.2, 25, 0, 0
IMU, 39743252, -0.0007251389, -0.001137007, -0.0007781803, 0.2448448, -0.07568085, -9.783265, 0, 0, 36.729, 1, 1, 1000, 1000
MAG, 39760446, 382, 489, 302, 0, 0, 0, 0, 0, 0, 1, 39760438
RFND, 39760476, 0.2, 25, 0, 0
BARO, 39760581, -0.1802827, 992.8002, 34.85, -0.2799311, 39760, 0, 34.04
CTUN, 39760595, 0, 0, 0, 0.2128421, 0.06787771, 0.06787771, -0.18, 0, 0.19, 0, 0, 0
ATT, 39763101, 0, 0.85, 0, 0.6, 0.39, 0.4, 0, 1
RATE, 39763112, -3.859364, 0.02914248, -0.009411665, -2.715691, 0.09314818, -0.007005118, 0.01920437, -0.01969495, 6.255149E-05, 74.09669, 2.03886, 0
NKF1, 39763120, 0.85, 0.6, 0.4, -0.002735258, -0.009380815, 0.001829548, 0, 0, 0, -0.06785167, 0, 0, 0
NKF2, 39763120, 0, 0, 0, 0, 0, 0, 0, 0, 0, 0, 0, 0, 0
NKF3, 39763120, 0, 0, 0, 0, 0, 0, 0, 0, 0, 0, 0
NKF4, 39763120, 0, 0, 0, 0, 0, 3.200275E-07, 0, 0, 0, 19, 229, 0, 0
NKF5, 39763120, 0, 0, 0, 0, 0.2, 0.13, 0, 0.19, 0.5, 3.738277E-05, 0.0005473877, 0.00135038
NKQ1, 39763120, 0.9999158, 0.002897122, 0.01215806, 0.003487689
AHR2, 39763162, 0.87, 0.58, 0.38, -0.18, 0, 0, 0.9999529, 0.007576893, 0.005089684, 0.003316468
MOTB, 39763169, 1, 1, 0, 1
RCIN, 39763173, 0, 0, 0, 0, 0, 0, 0, 0, 0, 0, 0, 0, 0, 0
RCOU, 39763178, 1101, 1101, 1101, 1101, 0, 0, 0, 0, 0, 0, 0, 0, 0, 0
VIBE, 39763187, 0.02029696, 0.01769838, 0.03480902, 0, 0, 0
CTRL, 39763194, 0.009100212, 0.0001983562, 0.006385569, 0.0001661641, 5.938375E-05
PRX, 39763225, 2, 0.61, 0, 0.66, 0, 3.6, 0, 2.39, 0, 0, 0, 0.61
IMU, 39783056, 0.000377274, 0.0002945846, 0.0003069297, 0.240562, -0.06476379, -9.816495, 0, 0, 36.72938, 1, 1, 1000, 1000
RFND, 39810366, 0.2, 25, 0, 0
IMU, 39823215, -0.0002626807, 0.002249306, -0.001085866, 0.2397802, -0.06215748, -9.788349, 0, 0, 36.72952, 1, 1, 1000, 1000
MAG, 39860437, 385, 488, 297, 0, 0, 0, 0, 0, 0, 1, 39860429
RFND, 39860469, 0.2, 25, 0, 0
BARO, 39860585, -0.1464797, 992.7967, 34.85, -0.09859209, 39860, 0, 34.04
CTUN, 39860603, 0, 0, 0, 0.2128421, 0.06745128, 0.06745128, -0.14, 0, 0.19, 0, 0, 0
DU32, 39860643, 7, 50356728
ATT, 39863153, 0, 0.86, 0, 0.6, 0.39, 0.4, 0, 1
RATE, 39863163, -3.871945, 0.04079333, -0.009071657, -2.725503, -0.00847794, -0.006409314, 0.02050524, -0.007990205, 7.167094E-05, 84.37286, -0.7147789, 0
NKF1, 39863171, 0.86, 0.6, 0.4, -0.003060005, -0.010278, 0.002083281, 0, 0, 0, -0.06741871, 0, 0, 0
NKF2, 39863171, 0, 0, 0, 0, 0, 0, 0, 0, 0, 0, 0, 0, 0
NKF3, 39863171, 0, 0, 0, 0, -0.01, 0, 0, 0, 0, 0, 0
NKF4, 39863171, 0, 0, 0, 0, 0, 2.853678E-07, 0, 0, 0, 19, 229, 0, 0
NKF5, 39863171, 0, 0, 0, 0, 0.2, 0.13, 0, 0.19, 0.5, 3.686683E-05, 0.0005003138, 0.00123108
NKQ1, 39863171, 0.9999155, 0.002921899, 0.01217794, 0.003483335
AHR2, 39863215, 0.87, 0.58, 0.38, -0.14, 0, 0, 0.9999525, 0.007607256, 0.005113103, 0.003311744
MOTB, 39863223, 1, 1, 0, 1
RCIN, 39863227, 0, 0, 0, 0, 0, 0, 0, 0, 0, 0, 0, 0, 0, 0
RCOU, 39863232, 1101, 1101, 1101, 1101, 0, 0, 0, 0, 0, 0, 0, 0, 0, 0
VIBE, 39863241, 0.02134296, 0.02101567, 0.03293399, 0, 0, 0
CTRL, 39863248, 0.009131688, 0.0002026026, 0.00642355, 0.0002081398, 6.36371E-05
PRX, 39863279, 2, 0.6, 0, 0.66, 0, 3.6, 0, 2.4, 0, 0, 0, 0.6
IMU, 39863286, 0.0006823579, -0.0002533556, -0.0001418646, 0.2302598, -0.0604507, -9.792164, 0, 0, 36.72982, 1, 1, 1000, 1000
IMU, 39903134, -4.51724E-05, 0.0007134828, -0.0005668935, 0.2300021, -0.05368213, -9.77858, 0, 0, 36.7305, 1, 1, 1000, 1000
RFND, 39910353, 0.2, 25, 0, 0
IMU, 39943132, 0.0004694399, 0.0001005207, 0.001838124, 0.2407231, -0.06143651, -9.810854, 0, 0, 36.73091, 1, 1, 1000, 1000
MAG, 39960416, 379, 492, 301, 0, 0, 0, 0, 0, 0, 1, 39960408
RFND, 39960446, 0.2, 25, 0, 0
BARO, 39960484, -0.06760599, 992.788, 34.85, -0.02112686, 39960, 0, 34.04
CTUN, 39960497, 0, 0, 0, 0.2128421, 0.06700049, 0.06700049, -0.06, 0, 0.19, 0, 0, 0
ATT, 39963094, 0, 0.85, 0, 0.6, 0.39, 0.4, 0, 1
RATE, 39963105, -3.866721, -0.04822611, -0.008831141, -2.725646, 0.04564417, -0.006729416, 0.02149988, 0.04220236, -9.524598E-06, 102.4464, 0.4818916, 0
NKF1, 39963113, 0.85, 0.6, 0.4, -0.003469615, -0.01011706, 0.002529542, 0, 0, 0, -0.06697852, 0, 0, 0
NKF2, 39963113, 0, 0, 0, 0, 0, 0, 0, 0, 0, 0, 0, 0, 0
NKF3, 39963113, 0, 0, 0, 0, -0.01, 0, 0, 0, 0, 0, 0
NKF4, 39963113, 0, 0, 0, 0, 0, 2.686022E-07, 0, 0, 0, 19, 229, 0, 0
NKF5, 39963113, 0, 0, 0, 0, 0.2, 0.13, 0, 0.19, 0.5, 3.658278E-05, 0.0005392056, 0.001366561
NKQ1, 39963113, 0.9999155, 0.002909728, 0.01217904, 0.003493472
AHR2, 39963156, 0.87, 0.58, 0.38, -0.06, 0, 0, 0.9999525, 0.007604131, 0.005113616, 0.003321893
MOTB, 39963163, 1, 1, 0, 1
RCIN, 39963168, 0, 0, 0, 0, 0, 0, 0, 0, 0, 0, 0, 0, 0, 0
RCOU, 39963173, 1101, 1101, 1101, 1101, 0, 0, 0, 0, 0, 0, 0, 0, 0, 0
VIBE, 39963182, 0.02007839, 0.01866667, 0.03553493, 0, 0, 0
CTRL, 39963189, 0.009125745, 0.0002031859, 0.006416914, 0.0002296322, 7.172336E-05
PRX, 39963220, 2, 0.6, 0, 0.67, 0, 3.6, 0, 2.42, 0, 0, 0, 0.6
IMU, 39983313, 0.0002160548, -0.0001586565, -0.0001616643, 0.2324698, -0.05387888, -9.797754, 0, 0, 36.73048, 1, 1, 1000, 1000
RFND, 40010416, 0.2, 25, 0, 0
IMU, 40023097, -0.0001494801, 0.0006658182, 0.00115272, 0.2460341, -0.052025, -9.805349, 0, 0, 36.72994, 1, 1, 1000, 1000
MAG, 40060491, 382, 493, 301, 0, 0, 0, 0, 0, 0, 1, 40060482
RFND, 40060672, 0.2, 25, 0, 0
BARO, 40060714, -0.005633833, 992.7809, 34.84, 0.1056344, 40060, 0, 34.04
CTUN, 40060728, 0, 0, 0, 0.2128421, 0.06654869, 0.06654869, 0, 0, 0.19, 0, 0, 0
ATT, 40063166, 0, 0.85, 0, 0.6, 0.39, 0.4, 0, 1
RATE, 40063174, -3.868341, 0.02247797, -0.009283763, -2.727711, -0.02822962, -0.00630849, 0.02112348, 0.008138271, -3.514476E-05, 109.408, 0.2239227, 0
NKF1, 40063182, 0.85, 0.6, 0.4, -0.003583974, -0.01034202, 0.002701432, 0, 0, 0, -0.06652448, 0, 0, 0
NKF2, 40063182, 0, 0, 0, 0, 0, 0, 0, 0, 0, 0, 0, 0, 0
NKF3, 40063182, 0, 0, 0, 0, -0.01, 0, 0, 0, 0, 0, 0
NKF4, 40063182, 0, 0, 0, 0, 0, 2.768868E-07, 0, 0, 0, 19, 229, 0, 0
NKF5, 40063182, 0, 0, 0, 0, 0.2, 0.13, 0, 0.19, 0.5, 3.608929E-05, 0.0005003685, 0.001270784
NKQ1, 40063182, 0.9999154, 0.002913289, 0.01218225, 0.003525763
AHR2, 40063223, 0.87, 0.58, 0.38, 0, 0, 0, 0.9999523, 0.007616839, 0.005116334, 0.00335408
MOTB, 40063230, 1, 1, 0, 1
RCIN, 40063235, 0, 0, 0, 0, 0, 0, 0, 0, 0, 0, 0, 0, 0, 0
RCOU, 40063241, 1101, 1101, 1101, 1101, 0, 0, 0, 0, 0, 0, 0, 0, 0, 0
VIBE, 40063249, 0.01922894, 0.01978545, 0.03682192, 0, 0, 0
CTRL, 40063256, 0.009120859, 0.0001767434, 0.00642611, 0.0002003524, 6.616622E-05
PRX, 40063287, 2, 0.61, 0, 0.66, 0, 3.6, 0, 2.38, 0, 0, 0, 0.61
IMU, 40063294, 0.0003626629, -0.0005981608, 0.0001396288, 0.2378765, -0.06269018, -9.801356, 0, 0, 36.72954, 1, 1, 1000, 1000
IMU, 40103342, -0.0004655886, -0.000311376, -0.0004697419, 0.2295258, -0.06066649, -9.804254, 0, 0, 36.72942, 1, 1, 1000, 1000
RFND, 40110393, 0.2, 25, 0, 0
IMU, 40143139, -0.0004385022, -0.0001011953, 0.0009524891, 0.2373686, -0.06525663, -9.781424, 0, 0, 36.72935, 1, 1, 1000, 1000
MAG, 40160591, 383, 489, 298, 0, 0, 0, 0, 0, 0, 1, 40160580
RFND, 40160623, 0.2, 25, 0, 0
BARO, 40160661, -0.0845075, 992.7897, 34.85, 0.3327483, 40160, 0, 34.04
CTUN, 40160674, 0, 0, 0, 0.2128421, 0.06616145, 0.06616145, -0.08, 0, 0.19, 0, 0, 0
ATT, 40163196, 0, 0.85, 0, 0.6, 0.4, 0.41, 0, 1
RATE, 40163207, -3.854462, -0.08604001, -0.008759751, -2.724098, -0.001318308, -0.006336975, 0.01948939, 0.07296469, -8.383712E-05, 106.9334, -0.4562378, 0
NKF1, 40163214, 0.85, 0.6, 0.41, -0.00369505, -0.01103462, 0.00264033, 0, 0, 0, -0.06613898, 0, 0, 0
NKF2, 40163214, 0, 0, 0, 0, 0, 0, 0, 0, 0, 0, 0, 0, 0
NKF3, 40163214, 0, 0, 0, 0, -0.01, 0, 0, 0, 0, 0, 0
NKF4, 40163214, 0, 0, 0, 0, 0, 2.864017E-07, 0, 0, 0, 19, 229, 0, 0
NKF5, 40163214, 0, 0, 0, 0, 0.2, 0.13, 0, 0.19, 0.5, 3.562502E-05, 0.000465714, 0.001187272
NKQ1, 40163214, 0.9999154, 0.002884838, 0.01217735, 0.003567465
AHR2, 40163256, 0.87, 0.58, 0.39, -0.08, 0, 0, 0.9999524, 0.007587965, 0.005109323, 0.003395892
MOTB, 40163262, 1, 1, 0, 1
RCIN, 40163267, 0, 0, 0, 0, 0, 0, 0, 0, 0, 0, 0, 0, 0, 0
RCOU, 40163273, 1101, 1101, 1101, 1101, 0, 0, 0, 0, 0, 0, 0, 0, 0, 0
VIBE, 40163281, 0.02021648, 0.01874071, 0.0326184, 0, 0, 0
CTRL, 40163288, 0.009100074, 0.0001735003, 0.006429506, 0.0001910099, 5.985645E-05
PRX, 40163320, 2, 0.61, 0, 0.66, 0, 3.6, 0, 2.41, 0, 0, 0, 0.61
IMU, 40183092, -0.0008180249, -0.0001073466, 0.0004771096, 0.2340246, -0.06323516, -9.811691, 0, 0, 36.72995, 1, 1, 1000, 1000
RFND, 40210372, 0.2, 25, 0, 0
IMU, 40223087, -0.0005282259, 0.0004980755, -0.0005066344, 0.2362141, -0.05550492, -9.787721, 0, 0, 36.73056, 1, 1, 1000, 1000
MAG, 40261049, 375, 493, 293, 0, 0, 0, 0, 0, 0, 1, 40261041
RFND, 40261079, 0.2, 25, 0, 0
BARO, 40261119, -0.1802827, 992.8002, 34.85, 0.3186988, 40261, 0, 34.04
CTUN, 40261132, 0, 0, 0, 0.2128421, 0.06575532, 0.06575532, -0.18, 0, 0.19, 0, 0, 0
ATT, 40263279, 0, 0.85, 0, 0.6, 0.4, 0.41, 0, 1
RATE, 40263289, -3.845824, 0.03594549, -0.009283864, -2.718839, -0.07302615, -0.005972198, 0.02008286, 0.05461431, 3.051553E-05, 115.8253, -0.1441956, 0
NKF1, 40263296, 0.85, 0.6, 0.41, -0.003802996, -0.01136583, 0.002859884, 0, 0, 0, -0.06574018, 0, 0, 0
NKF2, 40263296, 0, 0, 0, 0, 0, 0, 0, 0, 0, 0, 0, 0, 0
NKF3, 40263296, 0, 0, 0, 0, -0.01, 0, 0, 0, 0, 0, 0
NKF4, 40263296, 0, 0, 0, 0, 0, 3.231665E-07, 0, 0, 0, 19, 229, 0, 0
NKF5, 40263296, 0, 0, 0, 0, 0.2, 0.13, 0, 0.19, 0.5, 3.561447E-05, 0.0004991249, 0.001298784
NKQ1, 40263296, 0.9999155, 0.002868264, 0.01216647, 0.003574696
AHR2, 40263339, 0.86, 0.58, 0.39, -0.18, 0, 0, 0.9999526, 0.007570693, 0.005096193, 0.003403181
MOTB, 40263346, 1, 1, 0, 1
RCIN, 40263350, 0, 0, 0, 0, 0, 0, 0, 0, 0, 0, 0, 0, 0, 0
RCOU, 40263356, 1101, 1101, 1101, 1101, 0, 0, 0, 0, 0, 0, 0, 0, 0, 0
VIBE, 40264014, 0.01950354, 0.02045157, 0.02766208, 0, 0, 0
CTRL, 40264025, 0.009065061, 0.0001591707, 0.006417465, 0.0001880833, 6.152967E-05
PRX, 40264059, 2, 0.61, 0, 0.66, 0, 3.6, 0, 2.4, 0, 0, 0, 0.61
IMU, 40264067, 0.0005976823, -0.001380075, 0.0009507872, 0.2299977, -0.06880707, -9.797829, 0, 0, 36.73152, 1, 1, 1000, 1000
IMU, 40303138, 0.0001271358, 5.977718E-05, 0.0003495427, 0.2476534, -0.05722958, -9.789631, 0, 0, 36.73238, 1, 1, 1000, 1000
RFND, 40310431, 0.2, 25, 0, 0
IMU, 40343278, -0.001042441, -0.0009670518, -0.0001540774, 0.2485141, -0.06129545, -9.803085, 0, 0, 36.73344, 1, 1, 1000, 1000
MAG, 40360354, 380, 494, 301, 0, 0, 0, 0, 0, 0, 1, 40360346
RFND, 40360383, 0.2, 25, 0, 0
BARO, 40360421, -0.1971841, 992.8022, 34.85, -0.0738387, 40360, 0, 34.04
CTUN, 40360493, 0, 0, 0, 0.2128421, 0.06534935, 0.06534935, -0.19, 0, 0.19, 0, 0, 0
ATT, 40363182, 0, 0.85, 0, 0.6, 0.4, 0.41, 0, 1
RATE, 40363192, -3.836989, -0.03390088, -0.009188284, -2.712357, -0.01625724, -0.006647865, 0.02196998, 0.009622481, 3.90126E-05, 147.8365, -0.4860878, 0
NKF1, 40363200, 0.85, 0.6, 0.41, -0.003222365, -0.01193963, 0.003650283, 0, 0, 0, -0.0653265, 0, 0, 0
NKF2, 40363200, 0, 0, 0, 0, 0, 0, 0, 0, 0, 0, 0, 0, 0
NKF3, 40363200, 0, 0, 0, 0, -0.01, 0, 0, 0, 0, 0, 0
NKF4, 40363200, 0, 0, 0, 0, 0, 3.561122E-07, 0, 0, 0, 19, 229, 0, 0
NKF5, 40363200, 0, 0, 0, 0, 0.2, 0.13, 0, 0.19, 0.5, 3.519962E-05, 0.0004765651, 0.001251497
NKQ1, 40363200, 0.9999158, 0.002852295, 0.0121526, 0.003566406
AHR2, 40363242, 0.86, 0.57, 0.39, -0.19, 0, 0, 0.9999528, 0.007556968, 0.005082796, 0.003394953
MOTB, 40363249, 1, 1, 0, 1
RCIN, 40363254, 0, 0, 0, 0, 0, 0, 0, 0, 0, 0, 0, 0, 0, 0
RCOU, 40363259, 1101, 1101, 1101, 1101, 0, 0, 0, 0, 0, 0, 0, 0, 0, 0
VIBE, 40363268, 0.01802946, 0.01947901, 0.02926095, 0, 0, 0
CTRL, 40363274, 0.009055059, 0.0001582461, 0.006390348, 0.0001875062, 6.001202E-05
PRX, 40363306, 2, 0.61, 0, 0.66, 0, 3.6, 0, 2.4, 0, 0, 0, 0.61
IMU, 40383178, -0.001124217, 0.0002838725, 2.677557E-05, 0.2307792, -0.06826297, -9.785629, 0, 0, 36.73402, 1, 1, 1000, 1000
RFND, 40410363, 0.2, 25, 0, 0
IMU, 40423077, -0.0007040629, -0.0004927065, -0.001050917, 0.2405687, -0.0678127, -9.797489, 0, 0, 36.73521, 1, 1, 1000, 1000
MAG, 40460433, 378, 491, 301, 0, 0, 0, 0, 0, 0, 1, 40460424
RFND, 40460463, 0.2, 25, 0, 0
BARO, 40460502, -0.1633812, 992.7988, 34.85, -0.4387856, 40460, 0, 34.04
CTUN, 40460624, 0, 0, 0, 0.2128421, 0.06491563, 0.06491563, -0.16, 0, 0.19, 0, 0, 0
ATT, 40463212, 0, 0.84, 0, 0.6, 0.4, 0.41, 0, 1
RATE, 40463222, -3.817293, -0.04070586, -0.008919941, -2.705057, 0.02587976, -0.006533033, 0.02099008, -0.02369726, 8.634198E-05, 156.4627, -0.5850792, 0
NKF1, 40463230, 0.84, 0.6, 0.41, -0.003181187, -0.01291366, 0.003863276, 0, 0, 0, -0.06489731, 0, 0, 0
NKF2, 40463230, 0, 0, 0, 0, 0, 0, 0, 0, 0, 0, 0, 0, 0
NKF3, 40463230, 0, 0, 0, 0, -0.01, 0, 0, 0, 0, 0, 0
NKF4, 40463230, 0, 0, 0, 0, 0, 4.068508E-07, 0, 0, 0, 19, 229, 0, 0
NKF5, 40463230, 0, 0, 0, 0, 0.2, 0.13, 0, 0.19, 0.5, 3.532472E-05, 0.0004961737, 0.001317892
NKQ1, 40463230, 0.9999161, 0.002815398, 0.01213769, 0.003560045
AHR2, 40463273, 0.86, 0.57, 0.39, -0.16, 0, 0, 0.9999532, 0.007522311, 0.005068451, 0.003388796
MOTB, 40463281, 1, 1, 0, 1
RCIN, 40463285, 0, 0, 0, 0, 0, 0, 0, 0, 0, 0, 0, 0, 0, 0
RCOU, 40463290, 1101, 1101, 1101, 1101, 0, 0, 0, 0, 0, 0, 0, 0, 0, 0
VIBE, 40463299, 0.02036471, 0.01785989, 0.03713681, 0, 0, 0
CTRL, 40463306, 0.009015322, 0.0001444779, 0.006372695, 0.0001795452, 6.355267E-05
PRX, 40463337, 2, 0.61, 0, 0.66, 0, 3.6, 0, 2.41, 0, 0, 0, 0.61
IMU, 40463344, -0.0007401145, 0.0003463002, -0.0004160044, 0.2486092, -0.06301697, -9.793009, 0, 0, 36.73648, 1, 1, 1000, 1000
IMU, 40503073, -0.001272755, 0.0002915951, -0.0001779636, 0.2395015, -0.06905642, -9.809756, 0, 0, 36.73734, 1, 1, 1000, 1000
RFND, 40510357, 0.2, 25, 0, 0
IMU, 40544228, 0.0008338074, -0.0004738467, 7.846224E-05, 0.2468089, -0.05863857, -9.805535, 0, 0, 36.73722, 1, 1, 1000, 1000
MAG, 40560485, 382, 489, 299, 0, 0, 0, 0, 0, 0, 1, 40560477
RFND, 40560588, 0.2, 25, 0, 0
BARO, 40560629, -0.1521135, 992.7976, 34.86, -0.39965, 40560, 0, 34.04
CTUN, 40560641, 0, 0, 0, 0.2128421, 0.06454225, 0.06454225, -0.15, 0, 0.19, 0, 0, 0
ATT, 40563734, 0, 0.84, 0, 0.59, 0.4, 0.41, 0, 1
RATE, 40563745, -3.806531, -0.02377515, -0.008665218, -2.69676, -0.01153171, -0.006232435, 0.01957708, 0.02500308, 4.711787E-05, 123.4306, 0.5367279, 0
NKF1, 40563752, 0.84, 0.59, 0.41, -0.002817168, -0.01351508, 0.003047669, 0, 0, 0, -0.06453502, 0, 0, 0
NKF2, 40563752, 0, 0, 0, 0, 0, 0, 0, 0, 0, 0, 0, 0, 0
NKF3, 40563752, 0, 0, 0, 0, -0.01, 0, 0, 0, 0, 0, 0
NKF4, 40563752, 0, 0, 0, 0, 0, 4.600168E-07, 0, 0, 0, 19, 229, 0, 0
NKF5, 40563752, 0, 0, 0, 0, 0.2, 0.13, 0, 0.19, 0.5, 3.487567E-05, 0.0004832196, 0.001294456
NKQ1, 40563752, 0.9999163, 0.002793367, 0.0121229, 0.003571136
AHR2, 40563798, 0.86, 0.57, 0.39, -0.15, 0, 0, 0.9999533, 0.00750608, 0.005057879, 0.003399985
MOTB, 40563805, 1, 1, 0, 1
RCIN, 40563810, 0, 0, 0, 0, 0, 0, 0, 0, 0, 0, 0, 0, 0, 0
RCOU, 40563816, 1101, 1101, 1101, 1101, 0, 0, 0, 0, 0, 0, 0, 0, 0, 0
VIBE, 40563824, 0.0224313, 0.01740986, 0.03566149, 0, 0, 0
CTRL, 40563831, 0.008988049, 0.0001520893, 0.00636018, 0.0001692379, 6.590463E-05
PRX, 40563864, 2, 0.61, 0, 0.66, 0, 3.6, 0, 2.41, 0, 0, 0, 0.61
IMU, 40583216, 0.0001501246, 0.0006043616, -0.0005619513, 0.2437198, -0.06166089, -9.807447, 0, 0, 36.73697, 1, 1, 1000, 1000
RFND, 40610389, 0.2, 25, 0, 0
IMU, 40623069, -0.002183397, 0.0008948355, 0.00075825, 0.2488012, -0.06556278, -9.813923, 0, 0, 36.73685, 1, 1, 1000, 1000
MAG, 40660352, 380, 491, 305, 0, 0, 0, 0, 0, 0, 1, 40660344
RFND, 40660382, 0.2, 25, 0, 0
BARO, 40660480, -0.202818, 992.803, 34.86, -0.1195862, 40660, 0, 34.04
CTUN, 40660494, 0, 0, 0, 0.2128421, 0.06425662, 0.06425662, -0.2, 0, 0.19, 0, 0, 0
ATT, 40663904, 0, 0.84, 0, 0.6, 0.4, 0.41, 0, 1
RATE, 40663916, -3.802466, 0.09025716, -0.009448514, -2.70542, -0.03406402, -0.00617038, 0.01951547, 0.03430079, -2.015466E-05, 112.0244, -0.4454613, 0
NKF1, 40663925, 0.84, 0.6, 0.41, -0.002252768, -0.01436179, 0.002766035, 0, 0, 0, -0.06425043, 0, 0, 0
NKF2, 40663925, 0, 0, 0, 0, 0, 0, 0, 0, 0, 0, 0, 0, 0
NKF3, 40663925, 0, 0, 0, 0, -0.01, 0, 0, 0, 0, 0, 0
NKF4, 40663925, 0, 0, 0, 0, 0, 5.197056E-07, 0, 0, 0, 19, 229, 0, 0
NKF5, 40663925, 0, 0, 0, 0, 0.19, 0.13, 0, 0.19, 0.5, 3.509206E-05, 0.0004889222, 0.001316164
NKQ1, 40663925, 0.9999161, 0.002784415, 0.01213962, 0.003595636
AHR2, 40663976, 0.86, 0.57, 0.39, -0.2, 0, 0, 0.9999531, 0.007503086, 0.005078972, 0.003424359
MOTB, 40663984, 1, 1, 0, 1
RCIN, 40663988, 0, 0, 0, 0, 0, 0, 0, 0, 0, 0, 0, 0, 0, 0
RCOU, 40663994, 1101, 1101, 1101, 1101, 0, 0, 0, 0, 0, 0, 0, 0, 0, 0
VIBE, 40664003, 0.01963765, 0.01729892, 0.03468802, 0, 0, 0
CTRL, 40664009, 0.008965488, 0.0002010355, 0.006379441, 0.0001595818, 5.815528E-05
PRX, 40664042, 2, 0.61, 0, 0.66, 0, 3.6, 0, 2.4, 0, 0, 0, 0.61
IMU, 40664049, 0.00154553, -0.0007001609, 0.0005962469, 0.2403418, -0.06176683, -9.794603, 0, 0, 36.73688, 1, 1, 1000, 1000
EV, 40675163, 57
IMU, 40703606, 0.0007809026, -0.0003477575, -0.0009972681, 0.2308484, -0.05889949, -9.785198, 0, 0, 36.737, 1, 1, 1000, 1000
RFND, 40710382, 0.2, 25, 0, 0
IMU, 40743096, -0.0004473301, 0.0005817271, 0.0003975286, 0.2362845, -0.07997617, -9.794116, 0, 0, 36.737, 1, 1, 1000, 1000
MAG, 40760388, 385, 497, 300, 0, 0, 0, 0, 0, 0, 1, 40760379
RFND, 40760417, 0.2, 25, 0, 0
BARO, 40760455, -0.236621, 992.8067, 34.86, -0.005352303, 40760, 0, 34.04
CTUN, 40760468, 0, 0, 0, 0.2128421, 0.06397887, 0.06397887, -0.23, 0, 0.19, 0, 0, 0
ATT, 40763141, 0, 0.84, 0, 0.6, 0.4, 0.41, 0, 1
RATE, 40763152, -3.804813, 0.01272065, -0.008992538, -2.703586, -0.00328941, -0.006181341, 0.01993876, -0.04216221, 9.001173E-05, 132.4435, 0.5050659, 0
NKF1, 40763159, 0.84, 0.6, 0.41, -0.002912097, -0.01569722, 0.00327021, 0, 0, 0, -0.06397754, 0, 0, 0
NKF2, 40763159, 0, 0, 0, 0, 0, 0, 0, 0, 0, 0, 0, 0, 0
NKF3, 40763159, 0, 0, 0, 0, -0.01, 0, 0, 0, 0, 0, 0
NKF4, 40763159, 0, 0, 0, 0, 0, 5.940443E-07, 0, 0, 0, 19, 229, 0, 0
NKF5, 40763159, 0, 0, 0, 0, 0.19, 0.13, 0, 0.19, 0.5, 3.454708E-05, 0.0004879291, 0.001322274
NKQ1, 40763159, 0.9999161, 0.002791247, 0.01213418, 0.003575736
AHR2, 40763203, 0.86, 0.57, 0.39, -0.23, 0, 0, 0.9999531, 0.007516218, 0.005077252, 0.003404332
MOTB, 40763211, 1, 1, 0, 1
RCIN, 40763215, 0, 0, 0, 0, 0, 0, 0, 0, 0, 0, 0, 0, 0, 0
RCOU, 40763221, 1121, 1121, 1121, 1121, 0, 0, 0, 0, 0, 0, 0, 0, 0, 0
VIBE, 40763229, 0.01873562, 0.02031564, 0.03192772, 0, 0, 0
CTRL, 40763236, 0.008980242, 0.0001813348, 0.006376922, 0.0001575943, 6.054452E-05
PRX, 40763267, 2, 0.61, 0, 0.66, 0, 3.6, 0, 2.41, 0, 0, 0, 0.61
IMU, 40783190, -0.0001328414, -0.0007641903, -0.0006609237, 0.2201672, -0.06367524, -9.80971, 0, 0, 36.73696, 1, 1, 1000, 1000
RFND, 40810348, 0.2, 25, 0, 0
IMU, 40823188, -0.0009176473, 0.0004123614, 0.0007769347, 0.238221, -0.06389454, -9.782088, 0, 0, 36.73692, 1, 1, 1000, 1000
MAG, 40860650, 377, 493, 300, 0, 0, 0, 0, 0, 0, 1, 40860641
RFND, 40860679, 0.2, 25, 0, 0
BARO, 40860719, -0.2591563, 992.8094, 34.87, -0.1356052, 40860, 0, 34.04
CTUN, 40860731, 0, 0, 0, 0.2128421, 0.06370244, 0.06370244, -0.25, 0, 0.19, 0, 0, 0
DU32, 40860769, 7, 33579512
IMU, 40864963, -0.001006432, 0.0002095403, 0.0003067909, 0.2432043, -0.06224263, -9.810092, 0, 0, 36.73698, 1, 1, 1000, 1000
ATT, 40866776, 0, 0.84, 0, 0.59, 0.4, 0.41, 0, 1
RATE, 40866784, -3.798416, -0.05224654, -0.008864, -2.700845, 0.01625854, -0.006536451, 0.01988501, 0.02483158, 6.783397E-05, 131.1686, 1.124096, 0
NKF1, 40866792, 0.84, 0.59, 0.41, -0.003088919, -0.01639128, 0.003238731, 0, 0, 0, -0.06369928, 0, 0, 0
NKF2, 40866792, 0, 0, 0, 0, 0, 0, 0, 0, 0, 0, 0, 0, 0
NKF3, 40866792, 0, 0, 0, 0, -0.01, 0, 0, 0, 0, 0, 0
NKF4, 40866792, 0, 0, 0, 0, 0, 6.628422E-07, 0, 0, 0, 19, 229, 0, 0
NKF5, 40866792, 0, 0, 0, 0, 0.19, 0.13, 0, 0.19, 0.5, 3.484319E-05, 0.0004788678, 0.001303908
NKQ1, 40866792, 0.9999161, 0.002776773, 0.01213031, 0.003583675
AHR2, 40866838, 0.86, 0.57, 0.39, -0.25, 0, 0, 0.9999531, 0.00750849, 0.005077501, 0.003412279
MOTB, 40866846, 1, 1, 0, 1
RCIN, 40866850, 0, 0, 0, 0, 0, 0, 0, 0, 0, 0, 0, 0, 0, 0
RCOU, 40866855, 1146, 1146, 1146, 1146, 0, 0, 0, 0, 0, 0, 0, 0, 0, 0
VIBE, 40866863, 0.01901448, 0.01824102, 0.03272781, 0, 0, 0
CTRL, 40866870, 0.008963536, 0.0001931201, 0.006366149, 0.0001649117, 6.609511E-05
PRX, 40866902, 2, 0.61, 0, 0.66, 0, 3.6, 0, 2.41, 0, 0, 0, 0.61
IMU, 40903173, -0.0003527991, -0.0002306828, -3.051265E-05, 0.238036, -0.05658236, -9.792783, 0, 0, 36.73695, 1, 1, 1000, 1000
RFND, 40910351, 0.2, 25, 0, 0
IMU, 40943055, 0.0003476511, -0.00068228, 0.001852202, 0.231773, -0.05294009, -9.804701, 0, 0, 36.73694, 1, 1, 1000, 1000
MAG, 40960366, 385, 487, 298, 0, 0, 0, 0, 0, 0, 1, 40960357
RFND, 40960396, 0.2, 25, 0, 0
BARO, 40960435, -0.3098608, 992.8145, 34.87, -0.2869734, 40960, 0, 34.04
CTUN, 40960447, 0, 0, 0, 0.2128421, 0.06348495, 0.06348495, -0.3, 0, 0.19, 0, 0, 0
ATT, 40965427, 0, 0.84, 0, 0.59, 0.4, 0.41, 0, 1
RATE, 40965439, -3.784264, -0.05634914, -0.008690251, -2.691337, -0.02495753, -0.006441168, 0.01974334, 0.03941725, -2.860782E-05, 109.7873, 1.321697, 0
NKF1, 40965446, 0.84, 0.59, 0.41, -0.00322271, -0.01678205, 0.002710797, 0, 0, 0, -0.06348183, 0, 0, 0
NKF2, 40965446, 0, 0, 0, 0, 0, 0, 0, 0, 0, 0, 0, 0, 0
NKF3, 40965446, 0, 0, 0, 0, -0.02, 0, 0, 0, 0, 0, 0
NKF4, 40965446, 0, 0, 0, 0, 0, 7.612999E-07, 0, 0, 0, 19, 229, 0, 0
NKF5, 40965446, 0, 0, 0, 0, 0.19, 0.13, 0, 0.19, 0.5, 3.417041E-05, 0.0004830445, 0.001323383
NKQ1, 40965446, 0.9999164, 0.002749051, 0.01211239, 0.003604159
AHR2, 40965490, 0.86, 0.57, 0.39, -0.3, 0, 0, 0.9999533, 0.007488472, 0.005056537, 0.003432979
MOTB, 40965497, 1, 1, 0, 1
RCIN, 40965502, 0, 0, 0, 0, 0, 0, 0, 0, 0, 0, 0, 0, 0, 0
RCOU, 40965507, 1170, 1170, 1170, 1170, 0, 0, 0, 0, 0, 0, 0, 0, 0, 0
VIBE, 40965585, 0.02018286, 0.01780952, 0.03055883, 0, 0, 0
CTRL, 40965591, 0.008929245, 0.0001840726, 0.006340684, 0.0001452605, 6.365992E-05
PRX, 40965623, 2, 0.61, 0, 0.66, 0, 3.6, 0, 2.4, 0, 0, 0, 0.61
IMU, 40983151, -0.0003089824, -0.001031555, 0.001922656, 0.250579, -0.06365979, -9.800819, 0, 0, 36.7368, 1, 1, 1000, 1000
RFND, 41010414, 0.2, 25, 0, 0
IMU, 41023061, -0.0004571193, -0.0002507965, -0.0009245547, 0.2293463, -0.05996454, -9.798216, 0, 0, 36.73782, 1, 1, 1000, 1000
MAG, 41060442, 382, 493, 300, 0, 0, 0, 0, 0, 0, 1, 41060434
RFND, 41060472, 0.2, 25, 0, 0
BARO, 41060582, -0.1859165, 992.801, 34.88, -0.2922551, 41060, 0, 34.04
CTUN, 41060595, 0, 0, 0, 0.2128421, 0.06331876, 0.06331876, -0.18, 0, 0.19, 0, 0, 0
IMU, 41063289, 6.395083E-05, 0.0004464213, -0.003143084, 0.2415935, -0.06201823, -9.796703, 0, 0, 36.74, 1, 1, 1000, 1000
ATT, 41065678, 0, 0.83, 0, 0.59, 0.4, 0.41, 0, 1
RATE, 41065688, -3.777387, -0.02356797, -0.008626538, -2.681828, 0.01353369, -0.006207303, 0.01962729, -0.1263933, 0.0001297777, 134.2823, -0.01897812, 0
NKF1, 41065697, 0.83, 0.59, 0.41, -0.002923941, -0.01787901, 0.003315612, 0, 0, 0, -0.06331751, 0, 0, 0
NKF2, 41065697, 0, 0, 0, 0, 0, 0, 0, 0, 0, 0, 0, 0, 0
NKF3, 41065697, 0, 0, 0, 0, -0.02, 0, 0, 0, 0, 0, 0
NKF4, 41065697, 0, 0, 0, 0, 0, 8.392498E-07, 0, 0, 0, 19, 229, 0, 0
NKF5, 41065697, 0, 0, 0, 0, 0.19, 0.13, 0, 0.19, 0.5, 3.345207E-05, 0.0005049948, 0.001390113
NKQ1, 41065697, 0.9999167, 0.002738909, 0.012089, 0.003600373
AHR2, 41065744, 0.85, 0.57, 0.39, -0.18, 0, 0, 0.9999534, 0.007486011, 0.005029913, 0.003429319
MOTB, 41065751, 1, 1, 0, 1
RCIN, 41065755, 0, 0, 0, 0, 0, 0, 0, 0, 0, 0, 0, 0, 0, 0
RCOU, 41065761, 1194, 1194, 1194, 1194, 0, 0, 0, 0, 0, 0, 0, 0, 0, 0
VIBE, 41065769, 0.07042061, 0.0564825, 0.07848348, 0, 0, 0
CTRL, 41065776, 0.00892455, 0.0002003574, 0.006324501, 0.0001860102, 6.503789E-05
PRX, 41065808, 2, 0.61, 0, 0.66, 0, 3.6, 0, 2.4, 0, 0, 0, 0.61
IMU, 41103110, 0.001908522, 0.00158677, -0.02358316, 0.2266968, -0.02491793, -9.789053, 0, 0, 36.74147, 1, 1, 1000, 1000
RFND, 41110398, 0.2, 25, 0, 0
IMU, 41143087, -0.003003052, -0.0006438425, 0.01105447, 0.2942936, -0.08711778, -9.811334, 0, 0, 36.74261, 1, 1, 1000, 1000
MAG, 41160447, 378, 488, 306, 0, 0, 0, 0, 0, 0, 1, 41160439
RFND, 41160478, 0.2, 25, 0, 0
BARO, 41160581, -0.2084518, 992.8035, 34.88, -0.1109161, 41160, 0, 34.04
CTUN, 41160595, 0, 0, 0, 0.2128421, 0.06311587, 0.06311587, -0.2, 0, 0.19, 0, 0, 0
ATT, 41165573, 0, 0.83, 0, 0.59, 0.4, 0.41, 0, 1
RATE, 41165585, -3.729212, 0.006116271, -0.009111118, -2.706312, 0.019348, -0.006444697, 0.01952283, -0.8642955, 0.0002733915, 134.9518, -1.620674, 0
NKF1, 41165592, 0.83, 0.59, 0.41, -0.003469874, -0.01695794, 0.003332144, 0, 0, 0, -0.06311119, 0, 0, 0
NKF2, 41165592, 0, 0, 0, 0, 0, 0, 0, 0, 0, 0, 0, 0, 0
NKF3, 41165592, 0, 0, 0, 0, -0.02, 0, 0, 0, 0, 0, 0
NKF4, 41165592, 0, 0, 0, 0, 0, 9.62964E-07, 0, 0, 0, 19, 229, 0, 0
NKF5, 41165592, 0, 0, 0, 0, 0.19, 0.13, 0, 0.19, 0.5, 3.375213E-05, 0.0004683925, 0.00129648
NKQ1, 41165592, 0.9999167, 0.002661745, 0.01211607, 0.003560388
AHR2, 41165639, 0.85, 0.57, 0.39, -0.2, 0, 0, 0.999954, 0.007406837, 0.005053476, 0.003389648
MOTB, 41165646, 1, 1, 0, 1
RCIN, 41165650, 0, 0, 0, 0, 0, 0, 0, 0, 0, 0, 0, 0, 0, 0
RCOU, 41165656, 1217, 1217, 1217, 1217, 0, 0, 0, 0, 0, 0, 0, 0, 0, 0
VIBE, 41165664, 0.3252446, 0.4591317, 0.5288779, 0, 0, 0
CTRL, 41165671, 0.008829268, 0.0004785052, 0.006340389, 0.0002912453, 0.0002123869
PRX, 41165703, 2, 0.61, 0, 0.66, 0, 3.6, 0, 2.42, 0, 0, 0, 0.61
IMU, 41183244, -0.0006514311, 0.003275872, 0.008114165, 0.2591597, -0.060927, -9.802873, 0, 0, 36.74397, 1, 1, 1000, 1000
RFND, 41210369, 0.2, 25, 0, 0
IMU, 41223065, 0.002108292, 0.005458526, -0.01097251, 0.2599845, -0.03031246, -9.796757, 0, 0, 36.74557, 1, 1, 1000, 1000
MAG, 41260488, 378, 494, 302, 0, 0, 0, 0, 0, 0, 1, 41260479
RFND, 41260583, 0.2, 25, 0, 0
BARO, 41260623, -0.1802827, 992.8006, 34.89, 0.156691, 41260, 0, 34.04
CTUN, 41260635, 0, 0, 0, 0.2128421, 0.06289518, 0.06289518, -0.18, 0, 0.19, 0, 0, 0
IMU, 41263086, -0.0008123874, -0.002615159, -0.0056482, 0.1771759, -0.07450922, -9.821905, 0, 0, 36.74752, 1, 1, 1000, 1000
ATT, 41266002, 0, 0.82, 0, 0.61, 0.39, 0.4, 0, 1
RATE, 41266012, -3.688661, -0.1138057, -0.007870756, -2.76846, -0.1039086, -0.005658258, 0.01978192, -0.3767041, 0.0002134119, 166.0497, 2.138329, 0
NKF1, 41266020, 0.82, 0.61, 0.4, -0.003764105, -0.01866626, 0.004099992, 0, 0, 0, -0.06289597, 0, 0, 0
NKF2, 41266020, 0, 0, 0, 0, 0, 0, 0, 0, 0, 0, 0, 0, 0
NKF3, 41266020, 0, 0, 0, 0, -0.02, 0, 0, 0, 0, 0, 0
NKF4, 41266020, 0, 0, 0, 0, 0, 1.06765E-06, 0, 0, 0, 19, 229, 0, 0
NKF5, 41266020, 0, 0, 0, 0, 0.19, 0.13, 0, 0.19, 0.5, 3.285446E-05, 0.000493777, 0.001368695
NKQ1, 41266020, 0.9999155, 0.002573609, 0.01224994, 0.003504786
AHR2, 41266064, 0.84, 0.59, 0.38, -0.18, 0, 0, 0.9999542, 0.007316083, 0.005183704, 0.003333963
MOTB, 41266072, 1, 1, 0, 1
RCIN, 41266077, 0, 0, 0, 0, 0, 0, 0, 0, 0, 0, 0, 0, 0, 0
RCOU, 41266082, 1235, 1231, 1221, 1244, 0, 0, 0, 0, 0, 0, 0, 0, 0, 0
VIBE, 41266090, 0.5673316, 0.4726702, 0.6153566, 0, 0, 0
CTRL, 41266098, 0.008785723, 0.0005198286, 0.006480053, 0.000627229, 0.0002322068
PRX, 41266130, 2, 0.61, 0, 0.66, 0, 3.6, 0, 2.39, 0, 0, 0, 0.61
IMU, 41303078, 0.003497378, 0.00592197, 0.01912868, 0.2152365, -0.08541782, -9.81039, 0, 0, 36.74952, 1, 1, 1000, 1000
RFND, 41310469, 0.2, 25, 0, 0
IMU, 41343152, 0.009657895, 0.009359868, -0.002819754, 0.2735216, -0.1224774, -9.854536, 0, 0, 36.75187, 1, 1, 1000, 1000
MAG, 41360587, 377, 492, 306, 0, 0, 0, 0, 0, 0, 1, 41360578
RFND, 41360623, 0.2, 25, 0, 0
BARO, 41360660, -0.1408458, 992.796, 34.89, 0.2869733, 41360, 0, 34.04
CTUN, 41360673, 0, 0, 0, 0.2128421, 0.06273559, 0.06273559, -0.14, 0, 0.19, 0, 0, 0
ATT, 41365467, 0, 0.81, 0, 0.61, 0.4, 0.41, 0, 1
RATE, 41365478, -3.6853, -0.4463124, -0.004332232, -2.777214, -0.3889119, -0.001741927, 0.01985331, 0.1723082, 0.0005320876, 148.3049, -2.271652, 0
NKF1, 41365485, 0.81, 0.61, 0.41, -0.004655661, -0.02030673, 0.00366185, 0, 0, 0, -0.0627335, 0, 0, 0
NKF2, 41365485, 0, 0, 0, 0, 0, 0, 0, 0, 0, 0, 0, 0, 0
NKF3, 41365485, 0, 0, 0, 0, -0.02, 0, 0, 0, 0, 0, 0
NKF4, 41365485, 0, 0, 0, 0, 0, 1.205452E-06, 0, 0, 0, 19, 229, 0, 0
NKF5, 41365485, 0, 0, 0, 0, 0.19, 0.13, 0, 0.19, 0.5, 3.326627E-05, 0.0004472058, 0.001272504
NKQ1, 41365485, 0.9999149, 0.002555023, 0.01228256, 0.003578834
AHR2, 41365602, 0.83, 0.59, 0.39, -0.14, 0, 0, 0.9999539, 0.007306854, 0.005215528, 0.003407939
MOTB, 41365609, 1, 1, 0, 1
RCIN, 41365613, 0, 0, 0, 0, 0, 0, 0, 0, 0, 0, 0, 0, 0, 0
RCOU, 41365619, 1229, 1225, 1221, 1231, 0, 0, 0, 0, 0, 0, 0, 0, 0, 0
VIBE, 41365627, 0.4557506, 0.4931459, 0.6615037, 0, 0, 0
CTRL, 41365634, 0.008796453, 0.001022272, 0.006664902, 0.001199707, 0.0002817091
PRX, 41365666, 2, 0.61, 0, 0.66, 0, 3.6, 0, 2.42, 0, 0, 0, 0.61
IMU, 41383168, 0.001438838, -0.001594553, 0.0005962596, 0.346231, -0.05421768, -9.799941, 0, 0, 36.75443, 1, 1, 1000, 1000
RFND, 41410425, 0.2, 25, 0, 0
IMU, 41423254, 0.004948994, -0.01400579, -0.002272396, 0.3146324, -0.09364384, -9.80942, 0, 0, 36.75748, 1, 1, 1000, 1000
MAG, 41460400, 381, 492, 301, 0, 0, 0, 0, 0, 0, 1, 41460392
RFND, 41460435, 0.2, 25, 0, 0
BARO, 41460471, -0.1295782, 992.7946, 34.89, 0.2605648, 41460, 0, 34.04
CTUN, 41460483, 0, 0, 0, 0.2128421, 0.06261461, 0.06261461, -0.12, 0, 0.19, 0, 0, 0
IMU, 41463129, 0.01519926, 0.004069224, -0.01266117, 0.2558305, -0.02192221, -9.762417, 0, 0, 36.76164, 1, 1, 1000, 1000
ATT, 41465481, 0, 0.82, 0, 0.61, 0.37, 0.38, 0, 1
RATE, 41465492, -3.702834, 0.5904673, -0.01093546, -2.796676, -0.03411894, -0.00377994, 0.02004831, -0.6896781, 0.0006850741, 143.2668, -2.872849, 0
NKF1, 41465499, 0.82, 0.61, 0.38, -0.004297803, -0.02001129, 0.003537453, 0, 0, 0, -0.06262273, 0, 0, 0
NKF2, 41465499, 0, 0, 0, 0, 0, 0, 0, 0, 0, 0, 0, 0, 0
NKF3, 41465499, 0, 0, 0, 0, -0.03, 0, 0, 0, 0, 0, 0
NKF4, 41465499, 0, 0, 0, 0, 0, 1.343892E-06, 0, 0, 0, 19, 229, 0, 0
NKF5, 41465499, 0, 0, 0, 0, 0.19, 0.13, 0, 0.19, 0.5, 3.199834E-05, 0.0004750061, 0.001345528
NKQ1, 41465499, 0.9999155, 0.002610103, 0.0122957, 0.003319508
AHR2, 41466004, 0.84, 0.59, 0.36, -0.12, 0, 0, 0.9999542, 0.007369973, 0.005226676, 0.003148151
MOTB, 41466014, 1, 1, 0, 1
RCIN, 41466019, 0, 0, 0, 0, 0, 0, 0, 0, 0, 0, 0, 0, 0, 0
RCOU, 41466025, 1241, 1228, 1221, 1246, 0, 0, 0, 0, 0, 0, 0, 0, 0, 0
VIBE, 41466033, 0.5280104, 0.4492544, 0.6034759, 0, 0, 0
CTRL, 41466041, 0.008830759, 0.001903857, 0.006683303, 0.001709733, 0.0003539936
PRX, 41466074, 2, 0.6, 0, 0.66, 0, 3.6, 0, 2.41, 0, 0, 0, 0.6
IMU, 41503311, -0.001949993, -0.000132228, 0.01693282, 0.2833346, 0.03168918, -9.741778, 0, 0, 36.76532, 1, 1, 1000, 1000
RFND, 41510404, 0.2, 25, 0, 0
IMU, 41544227, -0.01102219, -0.01803796, 0.0090793, 0.08827682, -0.08489087, -9.710718, 0, 0, 36.76803, 1, 1, 1000, 1000
MAG, 41560407, 378, 496, 303, 0, 0, 0, 0, 0, 0, 1, 41560398
RFND, 41560436, 0.2, 25, 0, 0
BARO, 41560474, -0.0845075, 992.7899, 34.9, 0.2464802, 41560, 0, 34.04
CTUN, 41560486, 0, 0, 0, 0.2128421, 0.06259005, 0.06259005, -0.08, 0, 0.19, 0, 0, 0
ATT, 41565753, 0, 0.81, 0, 0.62, 0.38, 0.39, 0, 1
RATE, 41565763, -3.654024, 0.2826715, -0.01062208, -2.812602, 0.5048477, -0.008733763, 0.01991616, -0.1358434, 0.0003484404, 159.1407, 0.2552032, 0
NKF1, 41565771, 0.81, 0.62, 0.39, -0.00105647, -0.01994206, 0.003929399, 0, 0, 0, -0.06259686, 0, 0, 0
NKF2, 41565771, 0, 0, 0, 0, 0, 0, 0, 0, 0, 0, 0, 0, 0
NKF3, 41565771, 0, 0, 0, 0, -0.03, 0, 0, 0, 0, 0, 0
NKF4, 41565771, 0, 0, 0, 0, 0, 1.48958E-06, 0, 0, 0, 19, 229, 0, 0
NKF5, 41565771, 0, 0, 0, 0, 0.19, 0.13, 0, 0.19, 0.5, 3.278064E-05, 0.0004204603, 0.001208832
NKQ1, 41565771, 0.9999148, 0.002501006, 0.01234123, 0.003449776
AHR2, 41565815, 0.83, 0.59, 0.38, -0.08, 0, 0, 0.9999543, 0.007278437, 0.005257705, 0.003279044
MOTB, 41565822, 1, 1, 0, 1
RCIN, 41565827, 0, 0, 0, 0, 0, 0, 0, 0, 0, 0, 0, 0, 0, 0
RCOU, 41565832, 1240, 1236, 1221, 1253, 0, 0, 0, 0, 0, 0, 0, 0, 0, 0
VIBE, 41565840, 0.4995824, 0.4257953, 0.632449, 0, 0, 0
CTRL, 41565847, 0.008703674, 0.002060241, 0.006681835, 0.002349766, 0.0003842739
PRX, 41565878, 2, 0.61, 0, 0.66, 0, 0.65, 0, 2.4, 0, 0, 0, 0.61
IMU, 41583185, -0.003457247, -0.0003906184, -0.003495051, 0.03618515, -0.1569972, -9.786529, 0, 0, 36.76913, 1, 1, 1000, 1000
RFND, 41610409, 0.2, 25, 0, 0
IMU, 41623179, 0.009725144, 0.01083875, -0.01466942, 0.4352718, 0.0017534, -9.842241, 0, 0, 36.76783, 1, 1, 1000, 1000
MAG, 41661003, 378, 499, 300, 0, 0, 0, 0, 0, 0, 1, 41660995
RFND, 41661035, 0.2, 25, 0, 0
BARO, 41661075, -0.236621, 992.8065, 34.89, 0.2183374, 41661, 0, 34.04
CTUN, 41661089, 0, 0, 0, 0.2128421, 0.06243188, 0.06243188, -0.23, 0, 0.19, 0, 0, 0
IMU, 41663235, -0.002313099, -0.009003312, 0.006311174, 0.2336118, 0.1001234, -9.710402, 0, 0, 36.76495, 1, 1, 1000, 1000
ATT, 41665484, 0, 0.8, 0, 0.61, 0.38, 0.39, 0, 1
RATE, 41665495, -3.635913, -0.1852647, -0.006522986, -2.753713, -0.3364795, -0.006183027, 0.01943338, 0.5373983, 0.0001781416, 293.3323, -8.491707, 0
NKF1, 41665503, 0.8, 0.61, 0.39, -0.005929694, -0.02423276, 0.007242773, 0, 0, 0, -0.06242754, 0, 0, 0
NKF2, 41665503, 0, 0, 0, 0, 0, 0, 0, 0, 0, 0, 0, 0, 0
NKF3, 41665503, 0, 0, 0, 0, -0.03, 0, 0, 0, 0, 0, 0
NKF4, 41665503, 0, 0, 0, 0, 0, 1.668427E-06, 0, 0, 0, 19, 229, 0, 0
NKF5, 41665503, 0, 0, 0, 0, 0.19, 0.13, 0, 0.19, 0.5, 3.133942E-05, 0.0004512442, 0.00130818
NKQ1, 41665503, 0.999916, 0.002452662, 0.01224577, 0.003458768
AHR2, 41665631, 0.83, 0.58, 0.38, -0.23, 0, 0, 0.9999551, 0.0072473, 0.005146112, 0.003288885
MOTB, 41665640, 1, 1, 0, 1
RCIN, 41665644, 0, 0, 0, 0, 0, 0, 0, 0, 0, 0, 0, 0, 0, 0
RCOU, 41665649, 1232, 1232, 1221, 1242, 0, 0, 0, 0, 0, 0, 0, 0, 0, 0
VIBE, 41665657, 0.5501027, 0.614799, 0.6362824, 0, 0, 0
CTRL, 41665664, 0.008639798, 0.002076399, 0.006558173, 0.002287117, 0.000331612
PRX, 41665695, 2, 0.61, 0, 0.66, 0, 0.65, 0, 2.39, 0, 0, 0, 0.61
IMU, 41703019, -0.01267201, -0.001385629, 0.007429185, -0.02558644, -0.1917438, -9.773706, 0, 0, 36.76156, 1, 1, 1000, 1000
RFND, 41710357, 0.2, 25, 0, 0
IMU, 41743032, 0.00800056, 0.002077293, -0.003950245, 0.4697001, 0.005317633, -9.8981, 0, 0, 36.75642, 1, 1, 1000, 1000
MAG, 41760430, 378, 494, 308, 0, 0, 0, 0, 0, 0, 1, 41760421
RFND, 41760460, 0.2, 25, 0, 0
BARO, 41760499, -0.304227, 992.8139, 34.88, -0.01214839, 41760, 0, 34.04
CTUN, 41760576, 0, 0, 0, 0.2128421, 0.06202596, 0.06202596, -0.3, 0, 0.19, 0, 0, 0
ATT, 41766428, 0, 0.8, 0, 0.61, 0.38, 0.39, 0, 1
RATE, 41766439, -3.640758, -0.5076082, -0.007292872, -2.770284, -0.06364351, -0.005971928, 0.01956262, 0.2718604, 5.801749E-05, 217.9133, 1.151943, 0
NKF1, 41766446, 0.8, 0.61, 0.39, -0.001114713, -0.02271699, 0.005380576, 0, 0, 0, -0.06201445, 0, 0, 0
NKF2, 41766446, 0, 0, 0, 0, 0, 0, 0, 0, 0, 0, 0, 0, 0
NKF3, 41766446, 0, 0, 0, 0, -0.03, 0, 0, 0, 0, 0, 0
NKF4, 41766446, 0, 0, 0, 0, 0, 1.825258E-06, 0, 0, 0, 19, 229, 0, 0
NKF5, 41766446, 0, 0, 0, 0, 0.19, 0.13, 0, 0.19, 0.5, 3.2089E-05, 0.0003915209, 0.001123846
NKQ1, 41766446, 0.9999158, 0.002467348, 0.01227032, 0.003432442
AHR2, 41766491, 0.83, 0.59, 0.37, -0.3, 0, 0, 0.9999546, 0.007294017, 0.005193831, 0.003262256
MOTB, 41766498, 1, 1, 0, 1
RCIN, 41766502, 0, 0, 0, 0, 0, 0, 0, 0, 0, 0, 0, 0, 0, 0
RCOU, 41766579, 1233, 1231, 1221, 1243, 0, 0, 0, 0, 0, 0, 0, 0, 0, 0
VIBE, 41766591, 0.6326453, 0.6026993, 0.7894457, 0, 0, 0
CTRL, 41766598, 0.008617111, 0.002280138, 0.006612107, 0.002117525, 0.0002831654
PRX, 41766628, 2, 0.6, 0, 0.66, 0, 3.6, 0, 2.4, 0, 0, 0, 0.6
IMU, 41783212, 0.004600503, 0.00155432, 0.0003342392, 0.1244566, -0.05555561, -9.70004, 0, 0, 36.74866, 1, 1, 1000, 1000
RFND, 41810407, 0.2, 25, 0, 0
IMU, 41823133, -0.008928194, -0.00416809, -0.0007388748, 0.2797354, -0.08237905, -9.791458, 0, 0, 36.73661, 1, 1, 1000, 1000
MAG, 41860910, 380, 502, 303, 0, 0, 0, 0, 0, 0, 1, 41860901
RFND, 41860940, 0.2, 25, 0, 0
BARO, 41860979, -0.2816916, 992.8117, 34.86, -0.402339, 41860, 0, 34.04
CTUN, 41860992, 0, 0, 0, 0.2128421, 0.06141878, 0.06141878, -0.28, 0, 0.19, 0, 0, -1
DU32, 41861028, 7, 33579512
