FMT, 128, 89, FMT, BBnNZ, Type,Length,Name,Format,Columns
FMT, 129, 31, PARM, QNf, TimeUS,Name,Value
FMT, 130, 46, GPS, QBIHBcLLefffB, TimeUS,Status,GMS,GWk,NSats,HDop,Lat,Lng,Alt,Spd,GCrs,VZ,U
FMT, 131, 46, GPS2, QBIHBcLLefffB, TimeUS,Status,GMS,GWk,NSats,HDop,Lat,Lng,Alt,Spd,GCrs,VZ,U
FMT, 132, 46, GPSB, QBIHBcLLefffB, TimeUS,Status,GMS,GWk,NSats,HDop,Lat,Lng,Alt,Spd,GCrs,VZ,U
FMT, 193, 24, GPA, QCCCCBI, TimeUS,VDop,HAcc,VAcc,SAcc,VV,SMS
FMT, 194, 24, GPA2, QCCCCBI, TimeUS,VDop,HAcc,VAcc,SAcc,VV,SMS
FMT, 195, 24, GPAB, QCCCCBI, TimeUS,VDop,HAcc,VAcc,SAcc,VV,SMS
FMT, 133, 53, IMU, QffffffIIfBBHH, TimeUS,GyrX,GyrY,GyrZ,AccX,AccY,AccZ,EG,EA,T,GH,AH,GHz,AHz
FMT, 134, 75, MSG, QZ, TimeUS,Message
FMT, 135, 39, RCIN, QHHHHHHHHHHHHHH, TimeUS,C1,C2,C3,C4,C5,C6,C7,C8,C9,C10,C11,C12,C13,C14
FMT, 136, 39, RCOU, QHHHHHHHHHHHHHH, TimeUS,C1,C2,C3,C4,C5,C6,C7,C8,C9,C10,C11,C12,C13,C14
FMT, 137, 15, RSSI, Qf, TimeUS,RXRSSI
FMT, 139, 37, BARO, QffcfIff, TimeUS,Alt,Press,Temp,CRt,SMS,Offset,GndTemp
FMT, 140, 22, POWR, QffHB, TimeUS,Vcc,VServo,Flags,Safety
FMT, 143, 45, CMD, QHHHfffffff, TimeUS,CTot,CNum,CId,Prm1,Prm2,Prm3,Prm4,Lat,Lng,Alt
FMT, 144, 20, RAD, QBBBBBHH, TimeUS,RSSI,RemRSSI,TxBuf,Noise,RemNoise,RxErrors,Fixed
FMT, 146, 43, CAM, QIHLLeeeccC, TimeUS,GPSTime,GPSWeek,Lat,Lng,Alt,RelAlt,GPSAlt,Roll,Pitch,Yaw
FMT, 232, 43, TRIG, QIHLLeeeccC, TimeUS,GPSTime,GPSWeek,Lat,Lng,Alt,RelAlt,GPSAlt,Roll,Pitch,Yaw
FMT, 162, 30, ARSP, QffcffB, TimeUS,Airspeed,DiffPress,Temp,RawPress,Offset,U
FMT, 164, 45, CURR, QfffcHHHHHHHHHH, TimeUS,Volt,Curr,CurrTot,Temp,V1,V2,V3,V4,V5,V6,V7,V8,V9,V10
FMT, 165, 45, CUR2, QfffcHHHHHHHHHH, TimeUS,Volt,Curr,CurrTot,Temp,V1,V2,V3,V4,V5,V6,V7,V8,V9,V10
FMT, 163, 27, ATT, QccccCCCC, TimeUS,DesRoll,Roll,DesPitch,Pitch,DesYaw,Yaw,ErrRP,ErrYaw
FMT, 166, 34, MAG, QhhhhhhhhhBI, TimeUS,MagX,MagY,MagZ,OfsX,OfsY,OfsZ,MOfsX,MOfsY,MOfsZ,Health,S
FMT, 169, 14, MODE, QMBB, TimeUS,Mode,ModeNum,Rsn
FMT, 196, 17, RFND, QCBCB, TimeUS,Dist1,Orient1,Dist2,Orient2
FMT, 223, 33, DMS, IIIIIBBBBBBBBBB, TimeMS,N,Dp,RT,RS,Er,Fa,Fmn,Fmx,Pa,Pmn,Pmx,Sa,Smn,Smx
FMT, 240, 41, BCN, QBBfffffff, TimeUS,Health,Cnt,D0,D1,D2,D3,PosX,PosY,PosZ
FMT, 138, 53, IMU2, QffffffIIfBBHH, TimeUS,GyrX,GyrY,GyrZ,AccX,AccY,AccZ,EG,EA,T,GH,AH,GHz,AHz
FMT, 147, 53, IMU3, QffffffIIfBBHH, TimeUS,GyrX,GyrY,GyrZ,AccX,AccY,AccZ,EG,EA,T,GH,AH,GHz,AHz
FMT, 141, 45, AHR2, QccCfLLffff, TimeUS,Roll,Pitch,Yaw,Alt,Lat,Lng,Q1,Q2,Q3,Q4
FMT, 180, 31, POS, QLLfff, TimeUS,Lat,Lng,Alt,RelHomeAlt,RelOriginAlt
FMT, 142, 45, SIM, QccCfLLffff, TimeUS,Roll,Pitch,Yaw,Alt,Lat,Lng,Q1,Q2,Q3,Q4
FMT, 198, 51, NKF1, QccCfffffffccc, TimeUS,Roll,Pitch,Yaw,VN,VE,VD,dPD,PN,PE,PD,GX,GY,GZ
FMT, 199, 35, NKF2, QbccccchhhhhhB, TimeUS,AZbias,GSX,GSY,GSZ,VWN,VWE,MN,ME,MD,MX,MY,MZ,MI
FMT, 200, 33, NKF3, Qcccccchhhcc, TimeUS,IVN,IVE,IVD,IPN,IPE,IPD,IMX,IMY,IMZ,IYAW,IVT
FMT, 201, 35, NKF4, QcccccfbbHBHHb, TimeUS,SV,SP,SH,SM,SVT,errRP,OFN,OFE,FS,TS,SS,GPS,PI
FMT, 202, 40, NKF5, QBhhhcccCCfff, TimeUS,NI,FIX,FIY,AFI,HAGL,offset,RI,rng,Herr,eAng,eVel,ePos
FMT, 203, 51, NKF6, QccCfffffffccc, TimeUS,Roll,Pitch,Yaw,VN,VE,VD,dPD,PN,PE,PD,GX,GY,GZ
FMT, 204, 35, NKF7, QbccccchhhhhhB, TimeUS,AZbias,GSX,GSY,GSZ,VWN,VWE,MN,ME,MD,MX,MY,MZ,MI
FMT, 205, 33, NKF8, Qcccccchhhcc, TimeUS,IVN,IVE,IVD,IPN,IPE,IPD,IMX,IMY,IMZ,IYAW,IVT
FMT, 206, 35, NKF9, QcccccfbbHBHHb, TimeUS,SV,SP,SH,SM,SVT,errRP,OFN,OFE,FS,TS,SS,GPS,PI
FMT, 207, 36, NKF0, QBccCCcccccccc, TimeUS,ID,rng,innov,SIV,TR,BPN,BPE,BPD,OFH,OFL,OFN,OFE,OFD
FMT, 208, 27, NKQ1, Qffff, TimeUS,Q1,Q2,Q3,Q4
FMT, 209, 27, NKQ2, Qffff, TimeUS,Q1,Q2,Q3,Q4
FMT, 210, 51, XKF1, QccCfffffffccc, TimeUS,Roll,Pitch,Yaw,VN,VE,VD,dPD,PN,PE,PD,GX,GY,GZ
FMT, 211, 34, XKF2, QccccchhhhhhB, TimeUS,AX,AY,AZ,VWN,VWE,MN,ME,MD,MX,MY,MZ,MI
FMT, 212, 33, XKF3, Qcccccchhhcc, TimeUS,IVN,IVE,IVD,IPN,IPE,IPD,IMX,IMY,IMZ,IYAW,IVT
FMT, 213, 35, XKF4, QcccccfbbHBHHb, TimeUS,SV,SP,SH,SM,SVT,errRP,OFN,OFE,FS,TS,SS,GPS,PI
FMT, 214, 40, XKF5, QBhhhcccCCfff, TimeUS,NI,FIX,FIY,AFI,HAGL,offset,RI,rng,Herr,eAng,eVel,ePos
FMT, 215, 51, XKF6, QccCfffffffccc, TimeUS,Roll,Pitch,Yaw,VN,VE,VD,dPD,PN,PE,PD,GX,GY,GZ
FMT, 216, 34, XKF7, QccccchhhhhhB, TimeUS,AX,AY,AZ,VWN,VWE,MN,ME,MD,MX,MY,MZ,MI
FMT, 217, 33, XKF8, Qcccccchhhcc, TimeUS,IVN,IVE,IVD,IPN,IPE,IPD,IMX,IMY,IMZ,IYAW,IVT
FMT, 218, 35, XKF9, QcccccfbbHBHHb, TimeUS,SV,SP,SH,SM,SVT,errRP,OFN,OFE,FS,TS,SS,GPS,PI
FMT, 219, 36, XKF0, QBccCCcccccccc, TimeUS,ID,rng,innov,SIV,TR,BPN,BPE,BPD,OFH,OFL,OFN,OFE,OFD
FMT, 220, 27, XKQ1, Qffff, TimeUS,Q1,Q2,Q3,Q4
FMT, 221, 27, XKQ2, Qffff, TimeUS,Q1,Q2,Q3,Q4
FMT, 222, 35, XKFD, Qffffff, TimeUS,IX,IY,IZ,IVX,IVY,IVZ
FMT, 148, 34, TERR, QBLLHffHH, TimeUS,Status,Lat,Lng,Spacing,TerrH,CHeight,Pending,Loaded
FMT, 149, 18, UBX1, QBHBBH, TimeUS,Instance,noisePerMS,jamInd,aPower,agcCnt
FMT, 150, 16, UBX2, QBbBbB, TimeUS,Instance,ofsI,magI,ofsQ,magQ
FMT, 151, 18, UBY1, QBHBBH, TimeUS,Instance,noisePerMS,jamInd,aPower,agcCnt
FMT, 152, 16, UBY2, QBbBbB, TimeUS,Instance,ofsI,magI,ofsQ,magQ
FMT, 170, 42, GRAW, QIHBBddfBbB, TimeUS,WkMS,Week,numSV,sv,cpMes,prMes,doMes,mesQI,cno,lli
FMT, 171, 24, GRXH, QdHbBB, TimeUS,rcvTime,week,leapS,numMeas,recStat
FMT, 172, 41, GRXS, QddfBBBHBBBBB, TimeUS,prMes,cpMes,doMes,gnss,sv,freq,lock,cno,prD,cpD,doD,trk
FMT, 173, 63, SBFE, QIHBBdddfffff, TimeUS,TOW,WN,Mode,Err,Lat,Lng,Height,Undul,Vn,Ve,Vu,COG
FMT, 153, 19, ESC1, Qcccc, TimeUS,RPM,Volt,Curr,Temp
FMT, 154, 19, ESC2, Qcccc, TimeUS,RPM,Volt,Curr,Temp
FMT, 155, 19, ESC3, Qcccc, TimeUS,RPM,Volt,Curr,Temp
FMT, 156, 19, ESC4, Qcccc, TimeUS,RPM,Volt,Curr,Temp
FMT, 157, 19, ESC5, Qcccc, TimeUS,RPM,Volt,Curr,Temp
FMT, 158, 19, ESC6, Qcccc, TimeUS,RPM,Volt,Curr,Temp
FMT, 159, 19, ESC7, Qcccc, TimeUS,RPM,Volt,Curr,Temp
FMT, 160, 19, ESC8, Qcccc, TimeUS,RPM,Volt,Curr,Temp
FMT, 167, 34, MAG2, QhhhhhhhhhBI, TimeUS,MagX,MagY,MagZ,OfsX,OfsY,OfsZ,MOfsX,MOfsY,MOfsZ,Health,S
FMT, 168, 34, MAG3, QhhhhhhhhhBI, TimeUS,MagX,MagY,MagZ,OfsX,OfsY,OfsZ,MOfsX,MOfsY,MOfsZ,Health,S
FMT, 174, 31, ACC1, QQfff, TimeUS,SampleUS,AccX,AccY,AccZ
FMT, 175, 31, ACC2, QQfff, TimeUS,SampleUS,AccX,AccY,AccZ
FMT, 176, 31, ACC3, QQfff, TimeUS,SampleUS,AccX,AccY,AccZ
FMT, 177, 31, GYR1, QQfff, TimeUS,SampleUS,GyrX,GyrY,GyrZ
FMT, 178, 31, GYR2, QQfff, TimeUS,SampleUS,GyrX,GyrY,GyrZ
FMT, 179, 31, GYR3, QQfff, TimeUS,SampleUS,GyrX,GyrY,GyrZ
FMT, 181, 35, PIDR, Qffffff, TimeUS,Des,P,I,D,FF,AFF
FMT, 182, 35, PIDP, Qffffff, TimeUS,Des,P,I,D,FF,AFF
FMT, 183, 35, PIDY, Qffffff, TimeUS,Des,P,I,D,FF,AFF
FMT, 184, 35, PIDA, Qffffff, TimeUS,Des,P,I,D,FF,AFF
FMT, 185, 35, PIDS, Qffffff, TimeUS,Des,P,I,D,FF,AFF
FMT, 186, 35, PIDL, Qffffff, TimeUS,Des,P,I,D,FF,AFF
FMT, 161, 37, BAR2, QffcfIff, TimeUS,Alt,Press,Temp,CRt,SMS,Offset,GndTemp
FMT, 197, 37, BAR3, QffcfIff, TimeUS,Alt,Press,Temp,CRt,SMS,Offset,GndTemp
FMT, 187, 35, VIBE, QfffIII, TimeUS,VibeX,VibeY,VibeZ,Clip0,Clip1,Clip2
FMT, 188, 47, IMT, Qfffffffff, TimeUS,DelT,DelvT,DelaT,DelAX,DelAY,DelAZ,DelVX,DelVY,DelVZ
FMT, 189, 47, IMT2, Qfffffffff, TimeUS,DelT,DelvT,DelaT,DelAX,DelAY,DelAZ,DelVX,DelVY,DelVZ
FMT, 190, 47, IMT3, Qfffffffff, TimeUS,DelT,DelvT,DelaT,DelAX,DelAY,DelAZ,DelVX,DelVY,DelVZ
FMT, 191, 24, ORGN, QBLLe, TimeUS,Type,Lat,Lng,Alt
FMT, 192, 19, RPM, Qff, TimeUS,rpm1,rpm2
FMT, 233, 47, GMB1, Iffffffffff, TimeMS,dt,dax,day,daz,dvx,dvy,dvz,jx,jy,jz
FMT, 234, 44, GMB2, IBfffffffff, TimeMS,es,ex,ey,ez,rx,ry,rz,tx,ty,tz
FMT, 235, 13, GMB3, Ihhh, TimeMS,rl_torque_cmd,el_torque_cmd,az_torque_cmd
FMT, 236, 59, RATE, Qffffffffffff, TimeUS,RDes,R,ROut,PDes,P,POut,YDes,Y,YOut,ADes,A,AOut
FMT, 237, 23, RALY, QBBLLh, TimeUS,Tot,Seq,Lat,Lng,Alt
FMT, 238, 43, VISO, Qffffffff, TimeUS,dt,AngDX,AngDY,AngDZ,PosDX,PosDY,PosDZ,conf
FMT, 224, 23, SBPH, QIII, TimeUS,CrcError,LastInject,IARhyp
FMT, 229, 80, SBR1, QHHBZ, TimeUS,msg_type,sender_id,msg_len,d1
FMT, 230, 205, SBR2, QHZZZ, TimeUS,msg_type,d2,d3,d4
FMT, 25, 41, ATUN, QBBfffffff, TimeUS,Axis,TuneStep,Targ,Min,Max,RP,RD,SP,ddt
FMT, 26, 19, ATDE, Qff, TimeUS,Angle,Rate
FMT, 31, 22, PTUN, QBfHHH, TimeUS,Param,TunVal,CtrlIn,TunLo,TunHi
FMT, 12, 28, OF, QBffff, TimeUS,Qual,flowX,flowY,bodyX,bodyY
FMT, 5, 51, NTUN, Qffffffffff, TimeUS,DPosX,DPosY,PosX,PosY,DVelX,DVelY,VelX,VelY,DAccX,DAccY
FMT, 4, 51, CTUN, Qffffffeccfhh, TimeUS,ThI,ABst,ThO,ThH,DAlt,Alt,BAlt,DSAlt,SAlt,TAlt,DCRt,CRt
FMT, 6, 32, PM, QHHIhBHII, TimeUS,NLon,NLoop,MaxT,PMT,I2CErr,INSErr,LogDrop,Mem
FMT, 30, 27, MOTB, Qffff, TimeUS,LiftMax,BatVolt,BatRes,ThLimit
FMT, 13, 12, EV, QB, TimeUS,Id
FMT, 20, 14, D16, QBh, TimeUS,Id,Value
FMT, 21, 14, DU16, QBH, TimeUS,Id,Value
FMT, 22, 16, D32, QBi, TimeUS,Id,Value
FMT, 23, 16, DU32, QBI, TimeUS,Id,Value
FMT, 24, 16, DFLT, QBf, TimeUS,Id,Value
FMT, 19, 13, ERR, QBB, TimeUS,Subsys,ECode
FMT, 32, 19, HELI, Qff, TimeUS,DRRPM,ERRPM
FMT, 33, 29, PL, QBBffff, TimeUS,Heal,TAcq,pX,pY,vX,vY
FMT, 34, 36, GUID, QBffffff, TimeUS,Type,pX,pY,pZ,vX,vY,vZ
FMT, 35, 32, THRO, QBffffbbbb, TimeUS,Stage,Vel,VelZ,Acc,AccEfZ,Throw,AttOk,HgtOk,PosOk
FMT, 36, 56, PRX, QBfffffffffff, TimeUS,Health,D0,D45,D90,D135,D180,D225,D270,D315,DUp,CAn,CDis
EV, 27558585, 10
MODE, 27558590, 100, 100, 2
FMT, 254, 47, NKT1, QIffffffff, TimeUS,Cnt,IMUMin,IMUMax,EKFMin,EKFMax,AngMin,AngMax,VelMin,VelM
FMT, 253, 31, CTRL, Qfffff, TimeUS,RMSRollP,RMSRollD,RMSPitchP,RMSPitchD,RMSYaw
IMU, 27705503, 0.0006230524, 0.0003373933, -0.000101272, 0.2126252, -0.01614008, -9.794076, 0, 0, 35.4864, 1, 1, 1000, 1000
MSG, 27705884, APM:Copter V3.5.7 (38483450)
MSG, 27705888, New mission
MSG, 27705899, Frame: QUAD
MODE, 27705903, Autonomous, 100, 2
IMU, 27745484, -0.001210508, -0.0001282129, 0.001263676, 0.2175152, -0.03173355, -9.792811, 0, 0, 35.48614, 1, 1, 1000, 1000
MAG, 27785951, 339, 524, 230, 0, 0, 0, 0, 0, 0, 1, 27785943
BARO, 27786010, -0.1349963, 992.6487, 33.55, 4.06, 27785, 0, 33.55
CTUN, 27786023, 0, 0, 0, 0.2032809, -0.5802351, -0.5802351, -0.13, 0, 0, 0, 0, -1
DU32, 27786063, 7, 50389208
ATT, 27786203, 0, 0.66, 0, 0.47, 0.11, 0.12, 0, 1
RATE, 27786209, -2.983793, 0.05198262, -0.007316801, -2.125286, 0.03311622, -0.005117055, 0.01257842, 0.0597824, -6.208321E-05, 520.4365, -1.752663, 0
NKF1, 27786217, 0.66, 0.47, 0.12, -0.000980484, 0.00150586, 0.01285028, 0, 0, 0, 0.5802351, -0.02, 0, 0
NKF2, 27786217, 0, 0, 0, 0, 0, 0, 0, 0, 0, 0, 0, 0, 0
NKF3, 27786217, 0, 0, 0, 0, 0, 0.2, 0, 0, 0, 0, 0
NKF4, 27786217, 0, 0, 0.01, 0, 0, 1.126538E-06, 0, 0, 0, 19, 229, 0, 0
NKF5, 27786217, 0, 0, 0, 0, 0.06, 0.25, 0, 0.05, 0.25, 4.7929E-05, 0.03702131, 0.4091267
NKQ1, 27786217, 0.9999381, 0.001228047, 0.01100709, 0.001106207
AHR2, 27786260, 0.65, 0.46, 0.12, -0.13, 0, 0, 0.999975, 0.005669955, 0.004101628, 0.001068714
MOTB, 27786267, 1, 1, 0, 1
RCIN, 27786271, 0, 0, 0, 0, 0, 0, 0, 0, 0, 0, 0, 0, 0, 0
RCOU, 27786277, 1101, 1101, 1101, 1101, 0, 0, 0, 0, 0, 0, 0, 0, 0, 0
VIBE, 27786285, 0.02055406, 0.01894043, 0.03270793, 0, 0, 0
CTRL, 27786292, 0.007031704, 0.00015527, 0.004998661, 0.0001419228, 4.338694E-05
PRX, 27786323, 2, 0.72, 0, 0.56, 0, 0.61, 0, 2.49, 0, 0, 90, 0.56
IMU, 27786329, 0.0004353268, 0.0005982952, 0.001032913, 0.2179165, -0.01708836, -9.778589, 0, 0, 35.48558, 1, 1, 1000, 1000
IMU, 27825567, -0.000382676, 0.001141639, 0.0007788911, 0.2213181, -0.02505256, -9.789701, 0, 0, 35.48495, 1, 1, 1000, 1000
IMU, 27866061, 5.89782E-05, 0.0007043737, -8.77204E-07, 0.2129418, -0.02312397, -9.785121, 0, 0, 35.48432, 1, 1, 1000, 1000
MAG, 27885240, 335, 517, 227, 0, 0, 0, 0, 0, 0, 1, 27885232
BARO, 27885296, -0.1181218, 992.6464, 33.54, 3.745358, 27885, 0, 33.55
CTUN, 27885309, 0, 0, 0, 0.2032809, -0.4271874, -0.4271874, -0.11, 0, 0, 0, 0, -2
ATT, 27885427, 0, 0.66, 0, 0.47, 0.11, 0.12, 0, 1
RATE, 27885434, -2.982518, -0.02526519, -0.006794438, -2.141938, -0.001614725, -0.004983217, 0.01072113, -0.01662348, 4.165677E-05, 1083.514, 0.2527237, 0
NKF1, 27885442, 0.66, 0.47, 0.12, -0.001418865, 0.001803472, 0.02675343, 0, 0, 0, 0.4271874, -0.02, 0, 0
NKF2, 27885442, 0, 0, 0, 0, 0, 0, 0, 0, 0, 0, 0, 0, 0
NKF3, 27885442, 0, 0, 0, 0, 0, 0.11, 0, 0, 0, 0, 0
NKF4, 27885442, 0, 0, 0, 0, 0, 7.531455E-07, 0, 0, 0, 19, 229, 0, 0
NKF5, 27885442, 0, 0, 0, 0, 0.06, 0.25, 0.01, 0.05, 0.25, 4.536152E-05, 0.02012026, 0.2498748
NKQ1, 27885442, 0.9999378, 0.001228236, 0.01103867, 0.001100436
AHR2, 27885487, 0.64, 0.47, 0.12, -0.11, 0, 0, 0.9999749, 0.005651356, 0.004130248, 0.001062732
MOTB, 27885494, 1, 1, 0, 1
RCIN, 27885498, 0, 0, 0, 0, 0, 0, 0, 0, 0, 0, 0, 0, 0, 0
RCOU, 27885504, 1101, 1101, 1101, 1101, 0, 0, 0, 0, 0, 0, 0, 0, 0, 0
VIBE, 27885512, 0.022962, 0.02162142, 0.03244181, 0, 0, 0
CTRL, 27885519, 0.007044735, 0.0001423147, 0.005036796, 0.0001416821, 3.980115E-05
PRX, 27885551, 2, 0.72, 0, 0.56, 0, 3.6, 0, 2.49, 0, 0, 90, 0.56
IMU, 27905455, -0.0007155653, 0.0008388189, 0.0002087164, 0.2219397, -0.02091506, -9.780516, 0, 0, 35.48343, 1, 1, 1000, 1000
IMU, 27945283, -0.0009264285, -0.000643837, -0.0007944698, 0.2037218, -0.02963381, -9.791407, 0, 0, 35.48272, 1, 1, 1000, 1000
MAG, 27985855, 334, 521, 228, 0, 0, 0, 0, 0, 0, 1, 27985766
BARO, 27985919, -0.1293715, 992.6481, 33.54, 1.623762, 27985, 0, 33.55
CTUN, 27985932, 0, 0, 0, 0.2032809, -0.3237134, -0.3237134, -0.12, 0, 0, 0, 0, -3
ATT, 27986079, 0, 0.66, 0, 0.47, 0.11, 0.12, 0, 1
RATE, 27986086, -2.972075, -0.03126881, -0.006922879, -2.137938, -0.01903092, -0.004975645, 0.01147671, -0.01744231, 4.26991E-05, 1418.245, 1.320839, 0
NKF1, 27986094, 0.66, 0.47, 0.12, -0.00216391, 0.001824986, 0.03501838, 0, 0, 0, 0.3237134, -0.02, 0, 0
NKF2, 27986094, 0, 0, 0, 0, 0, 0, 0, 0, 0, 0, 0, 0, 0
NKF3, 27986094, 0, 0, 0, 0, 0, 0.05, 0, 0, 0, 0, 0
NKF4, 27986094, 0, 0, 0, 0, 0, 5.088409E-07, 0, 0, 0, 19, 229, 0, 0
NKF5, 27986094, 0, 0, 0, 0, 0.06, 0.25, 0.01, 0.05, 0.25, 4.236131E-05, 0.009812057, 0.1380138
NKQ1, 27986094, 0.999938, 0.001207282, 0.01103033, 0.001096976
AHR2, 27986142, 0.64, 0.47, 0.12, -0.12, 0, 0, 0.9999752, 0.005612089, 0.004118316, 0.001059398
MOTB, 27986150, 1, 1, 0, 1
RCIN, 27986154, 0, 0, 0, 0, 0, 0, 0, 0, 0, 0, 0, 0, 0, 0
RCOU, 27986160, 1101, 1101, 1101, 1101, 0, 0, 0, 0, 0, 0, 0, 0, 0, 0
VIBE, 27986168, 0.01976875, 0.0206587, 0.03533947, 0, 0, 0
CTRL, 27986175, 0.007020295, 0.0001315092, 0.005032648, 0.0001389742, 4.420927E-05
PRX, 27986206, 2, 0.72, 0, 0.56, 0, 3.6, 0, 2.49, 0, 0, 90, 0.56
IMU, 27986213, -0.001017655, -0.0003118419, -0.000314912, 0.2113924, -0.02942346, -9.80865, 0, 0, 35.48223, 1, 1, 1000, 1000
IMU, 28025485, -0.001286882, -0.0005581145, 0.0003020608, 0.2252317, -0.02181961, -9.799059, 0, 0, 35.48177, 1, 1, 1000, 1000
IMU, 28065524, 0.0003374957, -0.0003474748, -8.297617E-05, 0.2162868, -0.01470962, -9.78874, 0, 0, 35.48082, 1, 1, 1000, 1000
MAG, 28085303, 331, 516, 228, 0, 0, 0, 0, 0, 0, 1, 28085294
BARO, 28085360, -0.2024945, 992.6561, 33.54, 0.1206013, 28085, 0, 33.55
CTUN, 28085372, 0, 0, 0, 0.2032809, -0.2548104, -0.2548104, -0.2, 0, 0, 0, 0, -4
ATT, 28085542, 0, 0.66, 0, 0.47, 0.11, 0.12, 0, 1
RATE, 28085549, -2.970676, 0.02710815, -0.006940707, -2.128734, -0.04623998, -0.004748002, 0.008958302, 0.09399729, 7.460824E-07, 1626.693, 0.6915092, 0
NKF1, 28085556, 0.66, 0.47, 0.12, -0.001828375, 0.002096125, 0.04016525, 0, 0, 0, 0.2548104, -0.02, 0, 0
NKF2, 28085556, 0, 0, 0, 0, 0, 0, 0, 0, 0, 0, 0, 0, 0
NKF3, 28085556, 0, 0, 0, 0, 0, 0.07, 0, 0, 0, 0, 0
NKF4, 28085556, 0, 0, 0, 0, 0, 3.49396E-07, 0, 0, 0, 19, 229, 0, 0
NKF5, 28085556, 0, 0, 0, 0, 0.06, 0.25, 0.01, 0.05, 0.25, 3.966701E-05, 0.002303395, 0.06520686
NKQ1, 28085556, 0.9999381, 0.00120342, 0.01101558, 0.001115393
AHR2, 28085599, 0.64, 0.46, 0.12, -0.2, 0, 0, 0.9999754, 0.005589345, 0.004100305, 0.001077849
MOTB, 28085606, 1, 1, 0, 1
RCIN, 28085610, 0, 0, 0, 0, 0, 0, 0, 0, 0, 0, 0, 0, 0, 0
RCOU, 28085615, 1101, 1101, 1101, 1101, 0, 0, 0, 0, 0, 0, 0, 0, 0, 0
VIBE, 28085623, 0.01962677, 0.01917386, 0.0327436, 0, 0, 0
CTRL, 28085631, 0.007012652, 0.0001541866, 0.005019597, 0.0001421116, 4.387409E-05
PRX, 28085662, 2, 0.72, 0, 0.56, 0, 0.49, 0, 2.49, 0, 0, 180, 0.49
IMU, 28105297, -0.002083476, 0.0006181015, -0.0006703486, 0.2171904, -0.02883064, -9.809167, 0, 0, 35.48025, 1, 1, 1000, 1000
IMU, 28145296, 0.0006597352, 0.0007427114, -0.0004196009, 0.2068567, -0.02089088, -9.792147, 0, 0, 35.47952, 1, 1, 1000, 1000
MAG, 28185565, 333, 516, 225, 0, 0, 0, 0, 0, 0, 1, 28185557
BARO, 28185623, -0.1968696, 992.6555, 33.53, -0.2056584, 28185, 0, 33.55
CTUN, 28185636, 0, 0, 0, 0.2032809, -0.2088241, -0.2088241, -0.19, 0, 0, 0, 0, -4
ATT, 28185735, 0, 0.66, 0, 0.47, 0.11, 0.12, 0, 1
RATE, 28185742, -2.977335, 0.03292494, -0.007062836, -2.136181, 0.002231868, -0.005090438, 0.0135625, -0.03423062, 5.145263E-05, 1724.66, -0.6804466, 0
NKF1, 28185750, 0.66, 0.47, 0.12, -0.002135942, 0.002224399, 0.04258419, 0, 0, 0, 0.2088241, -0.02, 0, 0
NKF2, 28185750, 0, 0, 0, 0, 0, 0, 0, 0, 0, 0, 0, 0, 0
NKF3, 28185750, 0, 0, 0, 0, 0, 0.06, 0, 0, 0, 0, 0
NKF4, 28185750, 0, 0, 0, 0, 0, 2.445978E-07, 0, 0, 0, 19, 229, 0, 0
NKF5, 28185750, 0, 0, 0, 0, 0.06, 0.25, 0.01, 0.05, 0.25, 3.788293E-05, 0.00241906, 0.01641996
NKQ1, 28185750, 0.9999378, 0.001217544, 0.01102639, 0.001095622
AHR2, 28185890, 0.64, 0.47, 0.12, -0.19, 0, 0, 0.9999754, 0.005583078, 0.004107628, 0.001057864
MOTB, 28185898, 1, 1, 0, 1
RCIN, 28185902, 0, 0, 0, 0, 0, 0, 0, 0, 0, 0, 0, 0, 0, 0
RCOU, 28185908, 1101, 1101, 1101, 1101, 0, 0, 0, 0, 0, 0, 0, 0, 0, 0
VIBE, 28185916, 0.02071066, 0.01793878, 0.0358458, 0, 0, 0
CTRL, 28185923, 0.007023746, 0.0001710933, 0.005028815, 0.0001475358, 3.921233E-05
PRX, 28185955, 2, 0.72, 0, 0.56, 0, 0.52, 0, 2.49, 0, 0, 180, 0.52
IMU, 28185961, 0.000101994, 5.930298E-05, -0.0006079397, 0.2113155, -0.02471961, -9.788046, 0, 0, 35.47987, 1, 1, 1000, 1000
IMU, 28225294, 5.969751E-06, 0.000202175, 0.0006960059, 0.2198357, -0.01519098, -9.794308, 0, 0, 35.47964, 1, 1, 1000, 1000
IMU, 28265272, 3.483011E-05, 0.0003991848, 0.0006806192, 0.2174486, -0.02450051, -9.78645, 0, 0, 35.47964, 1, 1, 1000, 1000
MAG, 28285227, 334, 519, 227, 0, 0, 0, 0, 0, 0, 1, 28285219
BARO, 28285282, -0.2081193, 992.6567, 33.53, -0.2496025, 28285, 0, 33.55
CTUN, 28285295, 0, 0, 0, 0.2032809, -0.1789453, -0.1789453, -0.2, 0, 0, 0, 0, -4
ATT, 28285414, 0, 0.66, 0, 0.47, 0.12, 0.13, 0, 1
RATE, 28285422, -2.983495, 0.03563458, -0.007205011, -2.133155, 0.01655011, -0.005067415, 0.01263892, 0.0009830799, -3.040663E-05, 1788.843, 0.1348495, 0
NKF1, 28285430, 0.66, 0.47, 0.13, -0.002082173, 0.002247981, 0.04416897, 0, 0, 0, 0.1789453, -0.02, 0, 0
NKF2, 28285430, 0, 0, 0, 0, 0, 0, 0, 0, 0, 0, 0, 0, 0
NKF3, 28285430, 0, 0, 0, 0, 0, -0.01, 0, 0, 0, 0, 0
NKF4, 28285430, 0, 0, 0, 0, 0, 1.789879E-07, 0, 0, 0, 19, 229, 0, 0
NKF5, 28285430, 0, 0, 0, 0, 0.06, 0.25, 0.01, 0.05, 0.24, 3.693925E-05, 0.003453431, 0.02076294
NKQ1, 28285430, 0.999938, 0.001228852, 0.01102153, 0.001125058
AHR2, 28285474, 0.63, 0.46, 0.12, -0.2, 0, 0, 0.9999754, 0.005575319, 0.004101406, 0.00108717
MOTB, 28285481, 1, 1, 0, 1
RCIN, 28285485, 0, 0, 0, 0, 0, 0, 0, 0, 0, 0, 0, 0, 0, 0
RCOU, 28285490, 1101, 1101, 1101, 1101, 0, 0, 0, 0, 0, 0, 0, 0, 0, 0
VIBE, 28285498, 0.02079821, 0.017203, 0.03481001, 0, 0, 0
CTRL, 28285505, 0.007032615, 0.0001521521, 0.005021383, 0.0001359618, 3.893002E-05
PRX, 28285536, 2, 0.72, 0, 0.56, 0, 0.53, 0, 2.49, 0, 0, 180, 0.53
IMU, 28305891, -0.0002813704, 0.0002138256, 0.0001570967, 0.2028956, -0.01802996, -9.814373, 0, 0, 35.47961, 1, 1, 1000, 1000
IMU, 28345479, 0.0002271604, -0.0004596544, 0.001509949, 0.2196512, -0.02021236, -9.792645, 0, 0, 35.47961, 1, 1, 1000, 1000
MAG, 28385730, 341, 522, 231, 0, 0, 0, 0, 0, 0, 1, 28385721
BARO, 28385869, -0.1912448, 992.655, 33.53, -0.2355404, 28385, 0, 33.55
CTUN, 28385884, 0, 0, 0, 0.2032809, -0.1612501, -0.1612501, -0.19, 0, 0, 0, 0, -4
ATT, 28385987, 0, 0.66, 0, 0.47, 0.12, 0.13, 0, 1
RATE, 28385993, -2.975189, 0.009009303, -0.007284981, -2.141024, 0.01822561, -0.00485188, 0.01237519, -0.06498028, 2.974905E-06, 1776.469, 1.102257, 0
NKF1, 28386002, 0.66, 0.47, 0.13, -0.002562341, 0.002484907, 0.04386343, 0, 0, 0, 0.1612501, -0.02, 0, 0
NKF2, 28386002, 0, 0, 0, 0, 0, 0, 0, 0, 0, 0, 0, 0, 0
NKF3, 28386002, 0, 0, 0, 0, 0, 0, 0, 0, 0, 0, 0
NKF4, 28386002, 0, 0, 0, 0, 0, 1.399669E-07, 0, 0, 0, 19, 229, 0, 0
NKF5, 28386002, 0, 0, 0, 0, 0.05, 0.25, 0.01, 0.05, 0.24, 3.644832E-05, 0.004348127, 0.04398109
NKQ1, 28386002, 0.9999377, 0.001213624, 0.01103525, 0.001131943
AHR2, 28386047, 0.63, 0.47, 0.12, -0.19, 0, 0, 0.9999756, 0.005542795, 0.00411663, 0.001094011
MOTB, 28386054, 1, 1, 0, 1
RCIN, 28386059, 0, 0, 0, 0, 0, 0, 0, 0, 0, 0, 0, 0, 0, 0
RCOU, 28386064, 1101, 1101, 1101, 1101, 0, 0, 0, 0, 0, 0, 0, 0, 0, 0
VIBE, 28386072, 0.01985823, 0.01884089, 0.03183296, 0, 0, 0
CTRL, 28386080, 0.007015917, 0.0001797029, 0.00504389, 0.0001533593, 3.716788E-05
PRX, 28386110, 2, 0.73, 0, 0.56, 0, 0.57, 0, 2.48, 0, 0, 90, 0.56
IMU, 28386116, -0.0003159035, 0.0003384824, -0.001144634, 0.2119916, -0.03544358, -9.805879, 0, 0, 35.47969, 1, 1, 1000, 1000
IMU, 28425494, 0.000128759, 0.0001909928, 0.0005166716, 0.2176544, -0.01385359, -9.799262, 0, 0, 35.47958, 1, 1, 1000, 1000
IMU, 28465548, 0.0005273462, -0.0005635899, 0.001088189, 0.2198378, -0.006499225, -9.795006, 0, 0, 35.4796, 1, 1, 1000, 1000
MAG, 28485876, 335, 521, 230, 0, 0, 0, 0, 0, 0, 1, 28485868
BARO, 28485937, -0.1124969, 992.6459, 33.52, -0.08437268, 28485, 0, 33.55
CTUN, 28485951, 0, 0, 0, 0.2032809, -0.1515935, -0.1515935, -0.11, 0, 0, 0, 0, -4
ATT, 28486168, 0, 0.66, 0, 0.47, 0.12, 0.13, 0, 1
RATE, 28486177, -2.981555, -0.01270036, -0.00693478, -2.135866, 0.03650744, -0.005415373, 0.01194537, 0.03868832, -3.140778E-05, 1797.484, -1.341724, 0
NKF1, 28486186, 0.66, 0.47, 0.13, -0.00227026, 0.003321836, 0.04438233, 0, 0, 0, 0.1515935, -0.02, 0, 0
NKF2, 28486186, 0, 0, 0, 0, 0, 0, 0, 0, 0, 0, 0, 0, 0
NKF3, 28486186, 0, 0, 0, 0, 0, 0, 0, 0, 0, 0, 0
NKF4, 28486186, 0, 0, 0, 0, 0, 1.197898E-07, 0, 0, 0, 19, 229, 0, 0
NKF5, 28486186, 0, 0, 0, 0, 0.05, 0.25, 0.01, 0.05, 0.24, 3.619348E-05, 0.004675845, 0.05908897
NKQ1, 28486186, 0.9999378, 0.00122458, 0.01102791, 0.001147818
AHR2, 28486234, 0.63, 0.47, 0.12, -0.11, 0, 0, 0.9999756, 0.005536071, 0.004110109, 0.001109765
MOTB, 28486241, 1, 1, 0, 1
RCIN, 28486245, 0, 0, 0, 0, 0, 0, 0, 0, 0, 0, 0, 0, 0, 0
RCOU, 28486251, 1101, 1101, 1101, 1101, 0, 0, 0, 0, 0, 0, 0, 0, 0, 0
VIBE, 28486258, 0.0214005, 0.02128294, 0.03144064, 0, 0, 0
CTRL, 28486266, 0.007033336, 0.000172703, 0.005026591, 0.0001616351, 3.426176E-05
PRX, 28486297, 2, 0.72, 0, 0.56, 0, 0.58, 0, 2.48, 0, 0, 90, 0.56
IMU, 28505873, -7.088789E-05, 0.000340393, 0.001256861, 0.2127216, -0.02892688, -9.775572, 0, 0, 35.47902, 1, 1, 1000, 1000
IMU, 28545475, -0.001693029, -3.642584E-05, -0.0004210857, 0.2059054, -0.02381578, -9.788866, 0, 0, 35.47857, 1, 1, 1000, 1000
MAG, 28585719, 336, 523, 227, 0, 0, 0, 0, 0, 0, 1, 28585710
BARO, 28585861, -0.1237466, 992.6475, 33.52, 0.1230435, 28585, 0, 33.55
CTUN, 28585877, 0, 0, 0, 0.2032809, -0.1476357, -0.1476357, -0.12, 0, 0, 0, 0, -4
ATT, 28586472, 0, 0.66, 0, 0.47, 0.12, 0.13, 0, 1
RATE, 28586479, -2.972062, -0.02524676, -0.00671707, -2.134244, -0.03166163, -0.004644474, 0.008848416, 0.05148394, -2.313108E-05, 1844.079, -2.051067, 0
NKF1, 28586487, 0.66, 0.47, 0.13, -0.002740647, 0.003652531, 0.04553283, 0, 0, 0, 0.1476357, -0.02, 0, 0
NKF2, 28586487, 0, 0, 0, 0, 0, 0, 0, 0, 0, 0, 0, 0, 0
NKF3, 28586487, 0, 0, 0, 0, 0, 0.01, 0, 0, 0, 0, 0
NKF4, 28586487, 0, 0, 0, 0, 0, 1.13465E-07, 0, 0, 0, 19, 229, 0, 0
NKF5, 28586487, 0, 0, 0, 0, 0.05, 0.25, 0, 0.05, 0.24, 3.609436E-05, 0.005376053, 0.06667735
NKQ1, 28586487, 0.9999379, 0.001205503, 0.01102498, 0.001178397
AHR2, 28586532, 0.63, 0.46, 0.13, -0.12, 0, 0, 0.9999758, 0.005497597, 0.004106299, 0.001140409
MOTB, 28586540, 1, 1, 0, 1
RCIN, 28586544, 0, 0, 0, 0, 0, 0, 0, 0, 0, 0, 0, 0, 0, 0
RCOU, 28586549, 1101, 1101, 1101, 1101, 0, 0, 0, 0, 0, 0, 0, 0, 0, 0
VIBE, 28586558, 0.01851511, 0.02307956, 0.03356617, 0, 0, 0
CTRL, 28586564, 0.007020318, 0.0001656877, 0.005039389, 0.0001526736, 3.79291E-05
PRX, 28586595, 2, 0.72, 0, 0.56, 0, 0.59, 0, 2.49, 0, 0, 90, 0.56
IMU, 28586602, -0.000914118, -0.0005321761, 0.0008880431, 0.2114062, -0.01609573, -9.774372, 0, 0, 35.47819, 1, 1, 1000, 1000
IMU, 28625925, -0.0007878405, 0.0004693215, -0.0002587019, 0.2178542, -0.01516784, -9.7937, 0, 0, 35.478, 1, 1, 1000, 1000
IMU, 28665759, 0.000283507, 0.0008452897, -0.0007262192, 0.2167072, -0.0122446, -9.777149, 0, 0, 35.47788, 1, 1, 1000, 1000
MAG, 28686263, 332, 519, 230, 0, 0, 0, 0, 0, 0, 1, 28686254
BARO, 28686323, -0.07874785, 992.642, 33.52, 0.2794202, 28686, 0, 33.55
CTUN, 28686336, 0, 0, 0, 0.2032809, -0.1465376, -0.1465376, -0.07, 0, 0, 0, 0, -4
ATT, 28686436, 0, 0.66, 0, 0.47, 0.12, 0.13, 0, 1
RATE, 28686442, -2.969976, -0.009540009, -0.006789011, -2.142703, -0.0306894, -0.004688519, 0.01273832, 0.0323872, 4.474103E-05, 1866.018, 0.3131866, 0
NKF1, 28686450, 0.66, 0.47, 0.13, -0.002843165, 0.004313317, 0.04607452, 0, 0, 0, 0.1465376, -0.02, 0, 0
NKF2, 28686450, 0, 0, 0, 0, 0, 0, 0, 0, 0, 0, 0, 0, 0
NKF3, 28686450, 0, 0, 0, 0, 0, 0.09, 0, 0, 0, 0, 0
NKF4, 28686450, 0, 0, 0, 0, 0, 1.176503E-07, 0, 0, 0, 19, 229, 0, 0
NKF5, 28686450, 0, 0, 0, 0, 0.05, 0.25, 0, 0.05, 0.24, 3.620782E-05, 0.007834466, 0.0648523
NKQ1, 28686450, 0.9999377, 0.001201939, 0.01104106, 0.001174789
AHR2, 28686493, 0.62, 0.47, 0.13, -0.07, 0, 0, 0.9999759, 0.005473862, 0.004122057, 0.001136664
MOTB, 28686500, 1, 1, 0, 1
RCIN, 28686504, 0, 0, 0, 0, 0, 0, 0, 0, 0, 0, 0, 0, 0, 0
RCOU, 28686510, 1101, 1101, 1101, 1101, 0, 0, 0, 0, 0, 0, 0, 0, 0, 0
VIBE, 28686518, 0.02149213, 0.02016602, 0.02884702, 0, 0, 0
CTRL, 28686525, 0.007013978, 0.0001718381, 0.005056351, 0.0001753315, 3.720676E-05
PRX, 28686557, 2, 0.72, 0, 0.56, 0, 0.6, 0, 2.49, 0, 0, 90, 0.56
IMU, 28706222, -0.0005418867, -0.0008454329, 0.000589105, 0.2215391, -0.02075942, -9.807552, 0, 0, 35.47802, 1, 1, 1000, 1000
IMU, 28745721, -0.0004385393, 4.902119E-05, 0.0004635239, 0.212922, -0.01839863, -9.80683, 0, 0, 35.47813, 1, 1, 1000, 1000
MAG, 28786163, 336, 520, 227, 0, 0, 0, 0, 0, 0, 1, 28786154
BARO, 28786222, -0.2024945, 992.656, 33.52, 0.2650221, 28786, 0, 33.55
CTUN, 28786235, 0, 0, 0, 0.2032809, -0.1457129, -0.1457129, -0.2, 0, 0, 0, 0, -4
DU32, 28786273, 7, 50389208
ATT, 28786572, 0, 0.66, 0, 0.47, 0.12, 0.13, 0, 1
RATE, 28786580, -2.970648, -7.537554E-05, -0.006893955, -2.134356, -0.00951175, -0.004857291, 0.01093552, 0.007209362, -4.611939E-06, 1804.845, -0.6809235, 0
NKF1, 28786589, 0.66, 0.47, 0.13, -0.003466353, 0.004788874, 0.04456409, 0, 0, 0, 0.1457129, -0.02, 0, 0
NKF2, 28786589, 1, 0, 0, 0, 0, 0, 0, 0, 0, 0, 0, 0, 0
NKF3, 28786589, 0, 0, 0, 0, 0, 0.08, 0, 0, 0, 0, 0
NKF4, 28786589, 0, 0, 0, 0, 0, 1.30825E-07, 0, 0, 0, 19, 229, 0, 0
NKF5, 28786589, 0, 0, 0, 0, 0.05, 0.25, 0, 0.05, 0.24, 3.654696E-05, 0.009007963, 0.06356824
NKQ1, 28786589, 0.9999379, 0.001202639, 0.0110237, 0.001188647
AHR2, 28786637, 0.62, 0.46, 0.13, -0.2, 0, 0, 0.999976, 0.00545271, 0.004105988, 0.001150501
MOTB, 28786643, 1, 1, 0, 1
RCIN, 28786648, 0, 0, 0, 0, 0, 0, 0, 0, 0, 0, 0, 0, 0, 0
RCOU, 28786653, 1101, 1101, 1101, 1101, 0, 0, 0, 0, 0, 0, 0, 0, 0, 0
VIBE, 28786661, 0.01998063, 0.02105207, 0.03581413, 0, 0, 0
CTRL, 28786668, 0.007008787, 0.0001507683, 0.005035256, 0.0001717337, 3.135651E-05
PRX, 28786699, 2, 0.73, 0, 0.56, 0, 0.6, 0, 2.48, 0, 0, 90, 0.56
IMU, 28786706, -0.0004741097, -0.000145581, 0.0001153211, 0.205402, -0.01467822, -9.787573, 0, 0, 35.47773, 1, 1, 1000, 1000
IMU, 28826532, 0.0006181524, 0.0008751898, 0.001728385, 0.2135555, -0.01772157, -9.808829, 0, 0, 35.47726, 1, 1, 1000, 1000
IMU, 28865711, -0.001799348, 0.001380987, -5.714431E-05, 0.216691, -0.007946907, -9.803173, 0, 0, 35.47735, 1, 1, 1000, 1000
MAG, 28885769, 336, 523, 230, 0, 0, 0, 0, 0, 0, 1, 28885760
BARO, 28885937, -0.1912448, 992.6547, 33.53, 0.04371683, 28885, 0, 33.55
CTUN, 28885951, 0, 0, 0, 0.2032809, -0.1447593, -0.1447593, -0.19, 0, 0, 0, 0, -4
ATT, 28886057, 0, 0.65, 0, 0.47, 0.13, 0.13, 0, 1
RATE, 28886063, -2.964502, -0.03443656, -0.007140221, -2.153957, 0.002340203, -0.004914269, 0.01198242, 0.03257504, 1.022495E-05, 1689.693, 1.0993, 0
NKF1, 28886188, 0.65, 0.47, 0.13, -0.003725629, 0.005787468, 0.04172081, 0, 0, 0, 0.1447593, -0.02, 0, 0
NKF2, 28886188, 1, 0, 0, 0, 0, 0, 0, 0, 0, 0, 0, 0, 0
NKF3, 28886188, 0, 0, 0, 0, 0, 0.12, 0, 0, 0, 0, 0
NKF4, 28886188, 0, 0, 0, 0, 0, 1.528278E-07, 0, 0, 0, 19, 229, 0, 0
NKF5, 28886188, 0, 0, 0, 0, 0.06, 0.25, 0, 0.05, 0.24, 3.695955E-05, 0.01072446, 0.05864373
NKQ1, 28886188, 0.9999374, 0.001190918, 0.01106287, 0.001203498
AHR2, 28886236, 0.62, 0.47, 0.13, -0.19, 0, 0, 0.999976, 0.005420544, 0.004145198, 0.001165155
MOTB, 28886243, 1, 1, 0, 1
RCIN, 28886248, 0, 0, 0, 0, 0, 0, 0, 0, 0, 0, 0, 0, 0, 0
RCOU, 28886253, 1101, 1101, 1101, 1101, 0, 0, 0, 0, 0, 0, 0, 0, 0, 0
VIBE, 28886262, 0.01942994, 0.020177, 0.03319247, 0, 0, 0
CTRL, 28886269, 0.00699382, 0.0001688362, 0.005073337, 0.000161873, 3.080555E-05
PRX, 28886301, 2, 0.72, 0, 0.56, 0, 0.6, 0, 2.48, 0, 0, 90, 0.56
IMU, 28906098, -0.00160656, -0.0003608481, -0.0004498962, 0.2157205, -0.01058844, -9.792398, 0, 0, 35.47746, 1, 1, 1000, 1000
IMU, 28945720, -0.0002417731, 0.0006391106, 4.847627E-05, 0.2090053, -0.02944401, -9.790537, 0, 0, 35.47744, 1, 1, 1000, 1000
MAG, 28986359, 335, 522, 229, 0, 0, 0, 0, 0, 0, 1, 28986350
BARO, 28986422, -0.1631205, 992.6516, 33.53, -0.212092, 28986, 0, 33.55
CTUN, 28986437, 0, 0, 0, 0.2032809, -0.1435229, -0.1435229, -0.16, 0, 0, 0, 0, -4
ATT, 28986544, 0, 0.65, 0, 0.48, 0.12, 0.13, 0, 1
RATE, 28986551, -2.949206, -0.05851103, -0.006494089, -2.163885, 0.01445619, -0.005077577, 0.009908273, 0.006389434, 3.718477E-05, 1625.408, -1.298428, 0
NKF1, 28986560, 0.65, 0.48, 0.13, -0.004473974, 0.006191292, 0.04013354, 0, 0, 0, 0.1435229, -0.02, 0, 0
NKF2, 28986560, 1, 0, 0, 0, 0, 0, 0, 0, 0, 0, 0, 0, 0
NKF3, 28986560, 0, 0, 0, 0, 0, 0, 0, 0, 0, 0, 0
NKF4, 28986560, 0, 0, 0, 0, 0, 1.818401E-07, 0, 0, 0, 19, 229, 0, 0
NKF5, 28986560, 0, 0, 0, 0, 0.05, 0.25, 0.01, 0.05, 0.23, 3.728975E-05, 0.008567347, 0.0634781
NKQ1, 28986560, 0.9999373, 0.001160989, 0.011081, 0.001200982
AHR2, 28986611, 0.61, 0.47, 0.13, -0.16, 0, 0, 0.9999762, 0.005371694, 0.004160346, 0.001162694
MOTB, 28986618, 1, 1, 0, 1
RCIN, 28986623, 0, 0, 0, 0, 0, 0, 0, 0, 0, 0, 0, 0, 0, 0
RCOU, 28986628, 1101, 1101, 1101, 1101, 0, 0, 0, 0, 0, 0, 0, 0, 0, 0
VIBE, 28986636, 0.0201214, 0.02058576, 0.03046175, 0, 0, 0
CTRL, 28986644, 0.006970854, 0.0001652961, 0.005095728, 0.0001516636, 3.43552E-05
PRX, 28986675, 2, 0.72, 0, 0.56, 0, 0.6, 0, 2.47, 0, 0, 90, 0.56
IMU, 28986681, -0.001494282, 0.0002728038, 0.0001010044, 0.2128494, -0.02069929, -9.78079, 0, 0, 35.47736, 1, 1, 1000, 1000
IMU, 29025700, -0.001100079, 4.887972E-05, -0.001198671, 0.2272881, -0.02209124, -9.783202, 0, 0, 35.47753, 1, 1, 1000, 1000
IMU, 29065845, -0.0006528438, -0.0001320803, 0.0003987355, 0.2227145, -0.02147269, -9.797583, 0, 0, 35.4775, 1, 1, 1000, 1000
MAG, 29085586, 329, 523, 230, 0, 0, 0, 0, 0, 0, 1, 29085578
BARO, 29085643, -0.146246, 992.65, 33.53, -0.236301, 29085, 0, 33.55
CTUN, 29085657, 0, 0, 0, 0.2032809, -0.1444701, -0.1444701, -0.14, 0, 0, 0, 0, -3
ATT, 29085756, 0, 0.65, 0, 0.48, 0.12, 0.13, 0, 1
RATE, 29085762, -2.939293, -0.02823224, -0.006902131, -2.175508, 0.06699502, -0.005588365, 0.01294803, -0.016129, 5.80691E-05, 1603.31, -0.5615234, 0
NKF1, 29085770, 0.65, 0.48, 0.13, -0.004527321, 0.006442719, 0.03958791, 0, 0, 0, 0.1444701, -0.02, 0, 0
NKF2, 29085770, 1, 0, 0, 0, 0, 0, 0, 0, 0, 0, 0, 0, 0
NKF3, 29085770, 0, 0, 0, 0, 0, 0, 0, 0, 0, 0, 0
NKF4, 29085770, 0, 0, 0, 0, 0, 2.202539E-07, 0, 0, 0, 19, 229, 0, 0
NKF5, 29085770, 0, 0, 0, 0, 0.05, 0.25, 0.01, 0.05, 0.23, 3.754716E-05, 0.007352264, 0.06487165
NKQ1, 29085770, 0.9999371, 0.001143049, 0.01110355, 0.001183443
AHR2, 29085893, 0.61, 0.47, 0.13, -0.14, 0, 0, 0.9999764, 0.005334999, 0.004180238, 0.001145105
MOTB, 29085900, 1, 1, 0, 1
RCIN, 29085905, 0, 0, 0, 0, 0, 0, 0, 0, 0, 0, 0, 0, 0, 0
RCOU, 29085911, 1101, 1101, 1101, 1101, 0, 0, 0, 0, 0, 0, 0, 0, 0, 0
VIBE, 29085918, 0.02026425, 0.01938814, 0.03005353, 0, 0, 0
CTRL, 29085925, 0.006940121, 0.0001457737, 0.005111817, 0.0001377838, 4.68004E-05
PRX, 29085956, 2, 0.72, 0, 0.56, 0, 0.6, 0, 2.48, 0, 0, 90, 0.56
IMU, 29105978, 0.0008978817, -0.000185782, 0.0008783095, 0.2141652, -0.02145788, -9.79207, 0, 0, 35.47733, 1, 1, 1000, 1000
IMU, 29145583, 0.0006357463, -0.0008542248, 0.000911466, 0.2105442, -0.02262721, -9.789522, 0, 0, 35.47752, 1, 1, 1000, 1000
MAG, 29185509, 337, 519, 224, 0, 0, 0, 0, 0, 0, 1, 29185501
BARO, 29185564, -0.1406212, 992.649, 33.54, -0.0283357, 29185, 0, 33.55
CTUN, 29185576, 0, 0, 0, 0.2032809, -0.1464746, -0.1464746, -0.14, 0, 0, 0, 0, -3
ATT, 29185668, 0, 0.65, 0, 0.48, 0.13, 0.13, 0, 1
RATE, 29185675, -2.949125, 0.002190146, -0.006748507, -2.174962, -0.001155509, -0.005095515, 0.01311119, -0.02197261, -1.954835E-05, 1571.623, -1.648331, 0
NKF1, 29185682, 0.65, 0.48, 0.13, -0.004673115, 0.00642994, 0.03880551, 0, 0, 0, 0.1464746, -0.02, 0, 0
NKF2, 29185682, 1, 0, 0, 0, 0, 0, 0, 0, 0, 0, 0, 0, 0
NKF3, 29185682, 0, 0, 0, 0, 0, 0.03, 0, 0, 0, 0, 0
NKF4, 29185682, 0, 0, 0, 0, 0, 2.690971E-07, 0, 0, 0, 19, 229, 0, 0
NKF5, 29185682, 0, 0, 0, 0, 0.05, 0.25, 0, 0.05, 0.23, 3.793597E-05, 0.00713829, 0.06289791
NKQ1, 29185682, 0.9999369, 0.001160938, 0.01110167, 0.001208285
AHR2, 29185727, 0.61, 0.47, 0.13, -0.14, 0, 0, 0.9999763, 0.005334483, 0.004176976, 0.001169767
MOTB, 29185733, 1, 1, 0, 1
RCIN, 29185737, 0, 0, 0, 0, 0, 0, 0, 0, 0, 0, 0, 0, 0, 0
RCOU, 29185742, 1101, 1101, 1101, 1101, 0, 0, 0, 0, 0, 0, 0, 0, 0, 0
VIBE, 29185751, 0.0217605, 0.01814918, 0.03406658, 0, 0, 0
CTRL, 29185758, 0.006964311, 0.0001656791, 0.005120728, 0.00017029, 4.308804E-05
PRX, 29185860, 2, 0.72, 0, 0.56, 0, 0.61, 0, 2.47, 0, 0, 90, 0.56
IMU, 29185869, -0.000435081, 4.152262E-07, -0.0003940118, 0.2208622, -0.0296183, -9.776924, 0, 0, 35.47736, 1, 1, 1000, 1000
IMU, 29225593, -0.00117149, -0.0002816352, 0.000210662, 0.2215061, -0.01617757, -9.794325, 0, 0, 35.47744, 1, 1, 1000, 1000
IMU, 29265547, -0.0004183005, 0.001200768, 0.001426398, 0.2135101, -0.01667522, -9.821654, 0, 0, 35.47737, 1, 1, 1000, 1000
MAG, 29285510, 333, 526, 226, 0, 0, 0, 0, 0, 0, 1, 29285502
BARO, 29285563, -0.1406212, 992.6494, 33.54, 0.1284783, 29285, 0, 33.55
CTUN, 29285576, 0, 0, 0, 0.2032809, -0.1485044, -0.1485044, -0.14, 0, 0, 0, 0, -3
ATT, 29285667, 0, 0.65, 0, 0.48, 0.13, 0.13, 0, 1
RATE, 29285674, -2.950759, 0.07252871, -0.007382809, -2.180033, 0.01105345, -0.005069351, 0.01327324, -0.04990356, 7.247536E-06, 1492.832, 1.884174, 0
NKF1, 29285682, 0.65, 0.48, 0.13, -0.004914729, 0.006877037, 0.03686005, 0, 0, 0, 0.1485044, -0.02, 0, 0
NKF2, 29285682, 1, 0, 0, 0, 0, 0, 0, 0, 0, 0, 0, 0, 0
NKF3, 29285682, 0, 0, 0, 0, 0, 0.05, 0, 0, 0, 0, 0
NKF4, 29285682, 0, 0, 0, 0, 0, 3.295051E-07, 0, 0, 0, 19, 229, 0, 0
NKF5, 29285682, 0, 0, 0, 0, 0.05, 0.25, 0, 0.05, 0.23, 3.82681E-05, 0.007291699, 0.05964737
NKQ1, 29285682, 0.9999369, 0.001164683, 0.01111098, 0.001208036
AHR2, 29285725, 0.61, 0.47, 0.13, -0.14, 0, 0, 0.9999764, 0.005321113, 0.004184997, 0.001169385
MOTB, 29285732, 1, 1, 0, 1
RCIN, 29285736, 0, 0, 0, 0, 0, 0, 0, 0, 0, 0, 0, 0, 0, 0
RCOU, 29285741, 1101, 1101, 1101, 1101, 0, 0, 0, 0, 0, 0, 0, 0, 0, 0
VIBE, 29285749, 0.02013353, 0.01868845, 0.03696882, 0, 0, 0
CTRL, 29285756, 0.006959092, 0.0001623693, 0.005134812, 0.0001619131, 3.622868E-05
PRX, 29285854, 2, 0.73, 0, 0.56, 0, 0.61, 0, 2.48, 0, 0, 90, 0.56
IMU, 29306033, 8.04482E-05, -8.109345E-05, 4.604106E-05, 0.2142717, -0.02208452, -9.790306, 0, 0, 35.47741, 1, 1, 1000, 1000
IMU, 29345708, -0.001678309, -1.235685E-06, 0.0004933228, 0.2147803, -0.02485605, -9.805528, 0, 0, 35.47711, 1, 1, 1000, 1000
MAG, 29385638, 336, 524, 232, 0, 0, 0, 0, 0, 0, 1, 29385630
BARO, 29385697, -0.1743702, 992.6531, 33.54, 0.107415, 29385, 0, 33.55
CTUN, 29385709, 0, 0, 0, 0.2032809, -0.1500442, -0.1500442, -0.17, 0, 0, 0, 0, -3
ATT, 29385890, 0, 0.65, 0, 0.48, 0.13, 0.14, 0, 1
RATE, 29385898, -2.940771, -0.02514669, -0.00697905, -2.168032, -0.1093152, -0.004554966, 0.009474282, 0.06869759, -2.132793E-05, 1432.661, -0.5889893, 0
NKF1, 29385906, 0.65, 0.48, 0.14, -0.005390051, 0.006707748, 0.03537434, 0, 0, 0, 0.1500442, -0.02, 0, 0
NKF2, 29385906, 1, 0, 0, 0, 0, 0, 0, 0, 0, 0, 0, 0, 0
NKF3, 29385906, 0, 0, 0, 0, 0, 0.06, 0, 0, 0, 0, 0
NKF4, 29385906, 0, 0, 0, 0, 0, 4.034127E-07, 0, 0, 0, 19, 229, 0, 0
NKF5, 29385906, 0, 0, 0, 0, 0.05, 0.25, 0, 0.05, 0.23, 3.862826E-05, 0.007405927, 0.0563793
NKQ1, 29385906, 0.9999371, 0.001143985, 0.01109098, 0.001232751
AHR2, 29385950, 0.6, 0.47, 0.13, -0.17, 0, 0, 0.9999766, 0.005287821, 0.004164522, 0.001194295
MOTB, 29385958, 1, 1, 0, 1
RCIN, 29385962, 0, 0, 0, 0, 0, 0, 0, 0, 0, 0, 0, 0, 0, 0
RCOU, 29385968, 1101, 1101, 1101, 1101, 0, 0, 0, 0, 0, 0, 0, 0, 0, 0
VIBE, 29385976, 0.01939389, 0.02297101, 0.03416514, 0, 0, 0
CTRL, 29385983, 0.006941992, 0.0001476798, 0.005124006, 0.0001558562, 3.49891E-05
PRX, 29386013, 2, 0.72, 0, 0.56, 0, 0.61, 0, 2.48, 0, 0, 90, 0.56
IMU, 29386019, -0.0009123146, -0.001887213, 0.00118848, 0.2097717, -0.02416777, -9.787392, 0, 0, 35.47696, 1, 1, 1000, 1000
IMU, 29426117, 0.0003020436, 0.0008857842, -0.0001875465, 0.2060241, -0.02748905, -9.78208, 0, 0, 35.47763, 1, 1, 1000, 1000
IMU, 29465560, -2.928295E-05, 0.0003345283, 0.001025657, 0.2126653, -0.03115327, -9.792457, 0, 0, 35.47864, 1, 1, 1000, 1000
MAG, 29485521, 335, 519, 227, 0, 0, 0, 0, 0, 0, 1, 29485512
BARO, 29485577, -0.2418684, 992.6602, 33.55, -0.02112841, 29485, 0, 33.55
CTUN, 29485590, 0, 0, 0, 0.2032809, -0.1511303, -0.1511303, -0.24, 0, 0, 0, 0, -3
ATT, 29485684, 0, 0.65, 0, 0.48, 0.13, 0.14, 0, 1
RATE, 29485690, -2.950371, -0.01506707, -0.006760111, -2.171447, -0.007736125, -0.005037933, 0.01241995, -0.07140186, -5.489259E-05, 1365.764, 0.4680634, 0
NKF1, 29485698, 0.65, 0.48, 0.14, -0.005910525, 0.006117254, 0.03372257, 0, 0, 0, 0.1511303, -0.02, 0, 0
NKF2, 29485698, 1, 0, 0, 0, 0, 0, 0, 0, 0, 0, 0, 0, 0
NKF3, 29485698, 0, 0, 0, 0, 0, 0.05, 0, 0, 0, 0, 0
NKF4, 29485698, 0, 0, 0, 0, 0, 4.906284E-07, 0, 0, 0, 19, 229, 0, 0
NKF5, 29485698, 0, 0, 0, 0, 0.05, 0.25, 0, 0.05, 0.23, 3.903978E-05, 0.007346979, 0.05352466
NKQ1, 29485698, 0.999937, 0.001164419, 0.01109439, 0.001255704
AHR2, 29485742, 0.6, 0.47, 0.14, -0.24, 0, 0, 0.9999766, 0.005296006, 0.004166564, 0.001217053
MOTB, 29485749, 1, 1, 0, 1
RCIN, 29485753, 0, 0, 0, 0, 0, 0, 0, 0, 0, 0, 0, 0, 0, 0
RCOU, 29485759, 1101, 1101, 1101, 1101, 0, 0, 0, 0, 0, 0, 0, 0, 0, 0
VIBE, 29485767, 0.01922273, 0.0215268, 0.02896968, 0, 0, 0
CTRL, 29485840, 0.006964862, 0.0001662488, 0.005116205, 0.0001587587, 5.970939E-05
PRX, 29485966, 2, 0.72, 0, 0.56, 0, 0.6, 0, 2.47, 0, 0, 90, 0.56
IMU, 29505584, -0.001039423, 0.001241481, -6.167254E-05, 0.2154658, -0.00908279, -9.786276, 0, 0, 35.47961, 1, 1, 1000, 1000
IMU, 29545602, -0.0002601114, 0.0003984625, -0.001104587, 0.2235073, -0.02152695, -9.790681, 0, 0, 35.48059, 1, 1, 1000, 1000
EV, 29560129, 57
MAG, 29585484, 333, 523, 225, 0, 0, 0, 0, 0, 0, 1, 29585475
BARO, 29585540, -0.2418684, 992.6606, 33.55, -0.1969107, 29585, 0, 33.55
CTUN, 29585553, 0, 0, 0, 0.2032809, -0.1520607, -0.1520607, -0.24, 0, 0, 0, 0, -3
ATT, 29585642, 0, 0.65, 0, 0.48, 0.13, 0.14, 0, 1
RATE, 29585649, -2.946811, -0.001988067, -0.006735613, -2.185366, 0.04771158, -0.005261194, 0.01248295, -0.003350495, 6.781225E-05, 1320.796, 0.7826805, 0
NKF1, 29585657, 0.65, 0.48, 0.14, -0.006345897, 0.006813458, 0.03261225, 0, 0, 0, 0.1520607, -0.02, 0, 0
NKF2, 29585657, 1, 0, 0, 0, 0, 0, 0, 0, 0, 0, 0, 0, 0
NKF3, 29585657, 0, 0, 0, 0, 0, 0.02, 0, 0, 0, 0, 0
NKF4, 29585657, 0, 0, 0, 0, 0, 5.909997E-07, 0, 0, 0, 19, 229, 0, 0
NKF5, 29585657, 0, 0, 0, 0, 0.05, 0.25, 0, 0.05, 0.23, 3.947214E-05, 0.006411036, 0.05328647
NKQ1, 29585657, 0.9999368, 0.001155669, 0.01112224, 0.001242845
AHR2, 29585701, 0.6, 0.47, 0.14, -0.24, 0, 0, 0.9999766, 0.005275808, 0.004190114, 0.0012041
MOTB, 29585707, 1, 1, 0, 1
RCIN, 29585712, 0, 0, 0, 0, 0, 0, 0, 0, 0, 0, 0, 0, 0, 0
RCOU, 29585717, 1106, 1106, 1106, 1106, 0, 0, 0, 0, 0, 0, 0, 0, 0, 0
VIBE, 29585725, 0.02139501, 0.02000888, 0.03085187, 0, 0, 0
CTRL, 29585732, 0.006958015, 0.0001518921, 0.005145, 0.0001525789, 5.743618E-05
PRX, 29585763, 2, 0.72, 0, 0.56, 0, 0.6, 0, 2.47, 0, 0, 90, 0.56
IMU, 29585769, -0.0005081279, 0.0008535715, -6.899613E-05, 0.2090361, -0.01457329, -9.800884, 0, 0, 35.4816, 1, 1, 1000, 1000
IMU, 29626028, 0.001670299, 0.001115655, 0.0005183181, 0.2060076, -0.02626229, -9.787664, 0, 0, 35.4826, 1, 1, 1000, 1000
IMU, 29665682, -0.00110646, 0.0004773153, -0.0005749458, 0.219121, -0.0197396, -9.79042, 0, 0, 35.48338, 1, 1, 1000, 1000
MAG, 29685604, 331, 522, 228, 0, 0, 0, 0, 0, 0, 1, 29685595
BARO, 29685663, -0.3093665, 992.6677, 33.55, -0.335733, 29685, 0, 33.55
CTUN, 29685676, 0, 0, 0, 0.2032809, -0.1538808, -0.1538808, -0.3, 0, 0, 0, 0, -3
ATT, 29685856, 0, 0.65, 0, 0.48, 0.13, 0.14, 0, 1
RATE, 29685863, -2.95199, 0.01675313, -0.007115289, -2.187449, -0.04695173, -0.004925399, 0.01252274, 0.006799114, 6.13372E-05, 1270.576, 1.575089, 0
NKF1, 29685871, 0.65, 0.48, 0.14, -0.006687062, 0.006717729, 0.03137226, 0, 0, 0, 0.1538808, -0.02, 0, 0
NKF2, 29685871, 1, 0, 0, 0, 0, 0, 0, 0, 0, 0, 0, 0, 0
NKF3, 29685871, 0, 0, 0, 0, 0, -0.04, 0, 0, 0, 0, 0
NKF4, 29685871, 0, 0, 0, 0, 0, 7.051515E-07, 0, 0, 0, 19, 229, 0, 0
NKF5, 29685871, 0, 0, 0, 0, 0.05, 0.25, 0, 0.05, 0.23, 3.985658E-05, 0.004217003, 0.05695808
NKQ1, 29685871, 0.9999367, 0.001166781, 0.01112748, 0.001247551
AHR2, 29685917, 0.6, 0.47, 0.14, -0.3, 0, 0, 0.9999766, 0.005275269, 0.004191919, 0.001208684
MOTB, 29685924, 1, 1, 0, 1
RCIN, 29685928, 0, 0, 0, 0, 0, 0, 0, 0, 0, 0, 0, 0, 0, 0
RCOU, 29685934, 1130, 1130, 1130, 1130, 0, 0, 0, 0, 0, 0, 0, 0, 0, 0
VIBE, 29685942, 0.01719187, 0.02020277, 0.0299067, 0, 0, 0
CTRL, 29685949, 0.006967328, 0.000188478, 0.005160734, 0.0001482315, 5.349839E-05
PRX, 29685980, 2, 0.72, 0, 0.56, 0, 0.6, 0, 2.49, 0, 0, 90, 0.56
IMU, 29706750, -0.0009961555, 0.0002642324, 0.000104771, 0.2156663, -0.01337031, -9.7969, 0, 0, 35.48402, 1, 1, 1000, 1000
IMU, 29745677, 0.0001869838, 0.001141426, 0.0003517604, 0.20909, -0.02529851, -9.798491, 0, 0, 35.48425, 1, 1, 1000, 1000
MAG, 29785549, 336, 522, 233, 0, 0, 0, 0, 0, 0, 1, 29785541
BARO, 29785606, -0.3206162, 992.6694, 33.55, -0.372646, 29785, 0, 33.55
CTUN, 29785619, 0, 0, 0, 0.2032809, -0.1575244, -0.1575244, -0.32, 0, 0, 0, 0, -3
DU32, 29785656, 7, 33611992
ATT, 29785912, 0, 0.65, 0, 0.48, 0.13, 0.14, 0, 1
RATE, 29785920, -2.956419, 0.03169338, -0.007073815, -2.203162, 0.02038006, -0.005286611, 0.01262831, -0.009703727, 7.091612E-05, 1231.026, 0.4958153, 0
NKF1, 29785927, 0.65, 0.48, 0.14, -0.006979618, 0.006762399, 0.03039569, 0, 0, 0, 0.1575244, -0.02, 0, 0
NKF2, 29785927, 1, 0, 0, 0, 0, 0, 0, 0, 0, 0, 0, 0, 0
NKF3, 29785927, 0, 0, 0, 0, 0, -0.03, 0, 0, 0, 0, 0
NKF4, 29785927, 0, 0, 0, 0, 0, 8.332367E-07, 0, 0, 0, 19, 229, 0, 0
NKF5, 29785927, 0, 0, 0, 0, 0.04, 0.25, 0, 0.05, 0.23, 4.032007E-05, 0.002808174, 0.05845678
NKQ1, 29785927, 0.9999364, 0.001175051, 0.01115709, 0.00123796
AHR2, 29785969, 0.6, 0.48, 0.13, -0.32, 0, 0, 0.9999765, 0.005270496, 0.004220303, 0.001198854
MOTB, 29785977, 1, 1, 0, 1
RCIN, 29785981, 0, 0, 0, 0, 0, 0, 0, 0, 0, 0, 0, 0, 0, 0
RCOU, 29785986, 1154, 1154, 1154, 1154, 0, 0, 0, 0, 0, 0, 0, 0, 0, 0
VIBE, 29785994, 0.02106648, 0.01966158, 0.0298521, 0, 0, 0
CTRL, 29786001, 0.006975533, 0.0001831805, 0.005183641, 0.0001463581, 5.937432E-05
PRX, 29786032, 2, 0.73, 0, 0.56, 0, 0.6, 0, 2.47, 0, 0, 90, 0.56
IMU, 29786039, 8.078395E-05, 0.0003766987, -0.0001798561, 0.21653, -0.02273808, -9.798087, 0, 0, 35.48404, 1, 1, 1000, 1000
IMU, 29826105, 0.000181615, 0.0001721134, 0.0008684826, 0.2153094, -0.03291344, -9.796547, 0, 0, 35.48402, 1, 1, 1000, 1000
IMU, 29865548, -0.0002312961, -0.001014352, 0.0004132599, 0.2112722, -0.02437077, -9.78594, 0, 0, 35.48412, 1, 1, 1000, 1000
MAG, 29885925, 332, 521, 231, 0, 0, 0, 0, 0, 0, 1, 29885916
BARO, 29885983, -0.2306187, 992.6593, 33.55, -0.3163976, 29885, 0, 33.55
CTUN, 29885996, 0, 0, 0, 0.2032809, -0.1626449, -0.1626449, -0.23, 0, 0, 0, 0, -3
ATT, 29886095, 0, 0.65, 0, 0.48, 0.13, 0.14, 0, 1
RATE, 29886102, -2.95801, 0.04300957, -0.007268783, -2.193807, -0.001963482, -0.005215915, 0.01258069, 0.02996981, -6.902738E-05, 1232.409, -1.06144, 0
NKF1, 29886110, 0.65, 0.48, 0.14, -0.007625485, 0.006582334, 0.03042985, 0, 0, 0, 0.1626449, -0.02, 0, 0
NKF2, 29886110, 1, 0, 0, 0, 0, 0, 0, 0, 0, 0, 0, 0, 0
NKF3, 29886110, 0, 0, 0, 0, 0, -0.09, 0, 0, 0, 0, 0
NKF4, 29886110, 0, 0, 0, 0, 0, 9.773318E-07, 0, 0, 0, 19, 229, 0, 0
NKF5, 29886110, 0, 0, 0, 0, 0.04, 0.26, 0, 0.05, 0.23, 4.079449E-05, 0.0005233332, 0.0629999
NKQ1, 29886110, 0.9999365, 0.001176613, 0.01113956, 0.001279162
AHR2, 29886155, 0.6, 0.48, 0.14, -0.23, 0, 0, 0.9999766, 0.005260633, 0.004201974, 0.001240105
MOTB, 29886162, 1, 1, 0, 1
RCIN, 29886167, 0, 0, 0, 0, 0, 0, 0, 0, 0, 0, 0, 0, 0, 0
RCOU, 29886172, 1178, 1178, 1178, 1178, 0, 0, 0, 0, 0, 0, 0, 0, 0, 0
VIBE, 29886181, 0.02142999, 0.01912632, 0.02853717, 0, 0, 0
CTRL, 29886187, 0.006971728, 0.0001844832, 0.00517091, 0.0001422861, 5.775734E-05
PRX, 29886218, 2, 0.73, 0, 0.56, 0, 0.61, 0, 2.49, 0, 0, 90, 0.56
IMU, 29905637, 0.0002726012, -2.279056E-05, 0.0003099448, 0.2099339, -0.01858127, -9.796324, 0, 0, 35.48372, 1, 1, 1000, 1000
IMU, 29946359, -0.001791982, 0.0009921606, 0.0006705327, 0.2154945, -0.01445311, -9.769001, 0, 0, 35.48347, 1, 1, 1000, 1000
MAG, 29985658, 336, 519, 236, 0, 0, 0, 0, 0, 0, 1, 29985649
BARO, 29985719, -0.219369, 992.658, 33.56, -0.1230435, 29985, 0, 33.55
CTUN, 29985732, 0, 0, 0, 0.2032809, -0.1701748, -0.1701748, -0.21, 0, 0, 0, 0, -3
ATT, 29985913, 0, 0.65, 0, 0.48, 0.13, 0.14, 0, 1
RATE, 29985920, -2.943364, -0.0580305, -0.006762215, -2.202643, 0.04850349, -0.0054313, 0.01256806, 0.02837131, 1.772918E-06, 1272.45, 1.814365, 0
NKF1, 29985928, 0.65, 0.48, 0.14, -0.007901273, 0.006764449, 0.03141851, 0, 0, 0, 0.1701748, -0.02, 0, 0
NKF2, 29985928, 1, 0, 0, 0, 0, 0, 0, 0, 0, 0, 0, 0, 0
NKF3, 29985928, 0, 0, 0, 0, 0, -0.1, 0, 0, 0, 0, 0
NKF4, 29985928, 0, 0, 0, 0, 0, 1.136248E-06, 0, 0, 0, 19, 229, 0, 0
NKF5, 29985928, 0, 0, 0, 0, 0.05, 0.27, 0, 0.05, 0.23, 4.135104E-05, 0.001141855, 0.06554387
NKQ1, 29985928, 0.9999363, 0.001147962, 0.0111565, 0.001286441
AHR2, 29985975, 0.59, 0.48, 0.14, -0.21, 0, 0, 0.9999767, 0.005222481, 0.004218679, 0.001247473
MOTB, 29985982, 1, 1, 0, 1
RCIN, 29985986, 0, 0, 0, 0, 0, 0, 0, 0, 0, 0, 0, 0, 0, 0
RCOU, 29985992, 1202, 1202, 1202, 1202, 0, 0, 0, 0, 0, 0, 0, 0, 0, 0
VIBE, 29986000, 0.0196396, 0.01880042, 0.0324209, 0, 0, 0
CTRL, 29986007, 0.00695396, 0.0001746774, 0.00518465, 0.0001323388, 5.00428E-05
PRX, 29986038, 2, 0.72, 0, 0.56, 0, 0.6, 0, 2.48, 0, 0, 90, 0.56
IMU, 29986044, -0.001486023, 0.0008678429, 0.0004846622, 0.2209133, -0.02219969, -9.811729, 0, 0, 35.48362, 1, 1, 1000, 1000
IMU, 30026238, -0.001222911, -0.0005204722, 0.0004671215, 0.2180208, -0.03369821, -9.809282, 0, 0, 35.48326, 1, 1, 1000, 1000
IMU, 30065680, -0.0007790991, 0.0004905246, -9.616146E-05, 0.2194958, -0.02207983, -9.791058, 0, 0, 35.48306, 1, 1, 1000, 1000
MAG, 30086108, 333, 522, 229, 0, 0, 0, 0, 0, 0, 1, 30086099
BARO, 30086168, -0.2362435, 992.66, 33.56, 0.1529226, 30086, 0, 33.55
CTUN, 30086181, 0, 0, 0, 0.2032809, -0.1789812, -0.1789812, -0.23, 0, 0, 0, 0, -3
ATT, 30086291, 0, 0.65, 0, 0.49, 0.14, 0.15, 0, 1
RATE, 30086297, -2.938591, 0.04017161, -0.007297896, -2.205414, -0.02916944, -0.005062679, 0.01256991, 0.03066959, -1.618155E-05, 1313.937, 0.4461288, 0
NKF1, 30086306, 0.65, 0.49, 0.15, -0.007814468, 0.006560441, 0.03244289, 0, 0, 0, 0.1789812, -0.02, 0, 0
NKF2, 30086306, 1, 0, 0, 0, 0, 0, 0, 0, 0, 0, 0, 0, 0
NKF3, 30086306, 0, 0, 0, 0, 0, 0, 0, 0, 0, 0, 0
NKF4, 30086306, 0, 0, 0, 0, 0, 1.311171E-06, 0, 0, 0, 19, 229, 0, 0
NKF5, 30086306, 0, 0, 0, 0, 0.05, 0.28, 0, 0.05, 0.23, 4.215427E-05, 0.0002459949, 0.06002366
NKQ1, 30086306, 0.9999362, 0.001139873, 0.01116299, 0.001303318
AHR2, 30086496, 0.59, 0.48, 0.14, -0.23, 0, 0, 0.9999768, 0.005204739, 0.004225193, 0.001264353
MOTB, 30086505, 1, 1, 0, 1
RCIN, 30086510, 0, 0, 0, 0, 0, 0, 0, 0, 0, 0, 0, 0, 0, 0
RCOU, 30086515, 1233, 1229, 1221, 1242, 0, 0, 0, 0, 0, 0, 0, 0, 0, 0
VIBE, 30086524, 0.01964635, 0.01982769, 0.03630176, 0, 0, 0
CTRL, 30086531, 0.006931226, 0.0001659225, 0.00519741, 0.0001581409, 4.161237E-05
PRX, 30086562, 2, 0.73, 0, 0.56, 0, 0.59, 0, 2.49, 0, 0, 90, 0.56
IMU, 30105769, -0.0007308172, -0.0006917462, 0.0003820338, 0.211125, -0.01894182, -9.796924, 0, 0, 35.48307, 1, 1, 1000, 1000
IMU, 30145718, 0.0003322345, 0.0002876561, -0.0004501305, 0.2106514, -0.02400822, -9.787725, 0, 0, 35.48306, 1, 1, 1000, 1000
MAG, 30185678, 338, 520, 227, 0, 0, 0, 0, 0, 0, 1, 30185670
BARO, 30185738, -0.3374908, 992.6707, 33.56, 0.2194926, 30185, 0, 33.55
CTUN, 30185750, 0, 0, 0, 0.2032809, -0.1867066, -0.1867066, -0.33, 0, 0, 0, 0, -3
ATT, 30185932, 0, 0.65, 0, 0.48, 0.14, 0.15, 0, 1
RATE, 30185939, -2.943212, 0.03076121, -0.006962622, -2.204647, 0.009458442, -0.005149309, 0.01258176, 0.02917196, 5.149815E-05, 1324.952, -0.2950668, 0
NKF1, 30185947, 0.65, 0.48, 0.15, -0.007828058, 0.006097113, 0.03271487, 0, 0, 0, 0.1867066, -0.02, 0, 0
NKF2, 30185947, 1, 0, 0, 0, 0, 0, 0, 0, 0, 0, 0, 0, 0
NKF3, 30185947, 0, 0, 0, 0, 0, 0.01, 0, 0, 0, 0, 0
NKF4, 30185947, 0, 0, 0, 0, 0, 1.504653E-06, 0, 0, 0, 19, 229, 0, 0
NKF5, 30185947, 0, 0, 0, 0, 0.05, 0.28, 0, 0.05, 0.22, 4.30878E-05, 0.001011596, 0.05460295
NKQ1, 30185947, 0.9999362, 0.001148164, 0.01116092, 0.001299514
AHR2, 30185993, 0.59, 0.48, 0.14, -0.33, 0, 0, 0.9999768, 0.00520331, 0.004223885, 0.001260484
MOTB, 30185999, 1, 1, 0, 1
RCIN, 30186004, 0, 0, 0, 0, 0, 0, 0, 0, 0, 0, 0, 0, 0, 0
RCOU, 30186009, 1233, 1230, 1221, 1241, 0, 0, 0, 0, 0, 0, 0, 0, 0, 0
VIBE, 30186017, 0.02045071, 0.01724048, 0.03332431, 0, 0, 0
CTRL, 30186025, 0.006942827, 0.0001559167, 0.005193975, 0.0001678676, 4.049091E-05
PRX, 30186057, 2, 0.72, 0, 0.56, 0, 0.59, 0, 2.5, 0, 0, 90, 0.56
IMU, 30186063, 6.388195E-05, 0.0001867049, 0.0004986438, 0.2201012, -0.02464627, -9.7906, 0, 0, 35.48307, 1, 1, 1000, 1000
IMU, 30226110, 0.0004906144, -3.225943E-05, -0.0007037229, 0.2063248, -0.01584102, -9.799643, 0, 0, 35.4828, 1, 1, 1000, 1000
IMU, 30266775, -0.0006714179, 0.0007705202, 0.001411675, 0.2117244, -0.01595623, -9.792704, 0, 0, 35.48318, 1, 1, 1000, 1000
MAG, 30286725, 330, 518, 229, 0, 0, 0, 0, 0, 0, 1, 30286716
BARO, 30286784, -0.3206162, 992.6689, 33.56, -0.03334796, 30286, 0, 33.55
CTUN, 30286796, 0, 0, 0, 0.2032809, -0.1934804, -0.1934804, -0.32, 0, 0, 0, 0, -3
ATT, 30286962, 0, 0.65, 0, 0.48, 0.14, 0.15, 0, 1
RATE, 30286968, -2.953507, 0.008333309, -0.007111868, -2.196259, -0.03309991, -0.004935826, 0.01258056, 0.06549828, -0.0001041754, 1331.489, -1.100254, 0
NKF1, 30287070, 0.65, 0.48, 0.15, -0.008240256, 0.006198163, 0.03287626, 0, 0, 0, 0.1934804, -0.02, 0, 0
NKF2, 30287070, 1, 0, 0, 0, 0, 0, 0, 0, 0, 0, 0, 0, 0
NKF3, 30287070, 0, 0, 0, 0, 0, 0, 0, 0, 0, 0, 0
NKF4, 30287070, 0, 0, 0, 0, 0, 1.712384E-06, 0, 0, 0, 19, 229, 0, 0
NKF5, 30287070, 0, 0, 0, 0, 0.04, 0.28, 0, 0.05, 0.22, 4.408429E-05, 0.001402281, 0.05113818
NKQ1, 30287070, 0.9999363, 0.00116753, 0.01114583, 0.001338117
AHR2, 30287119, 0.59, 0.48, 0.15, -0.32, 0, 0, 0.9999767, 0.005213425, 0.004209552, 0.001299015
MOTB, 30287127, 1, 1, 0, 1
RCIN, 30287132, 0, 0, 0, 0, 0, 0, 0, 0, 0, 0, 0, 0, 0, 0
RCOU, 30287137, 1233, 1229, 1221, 1241, 0, 0, 0, 0, 0, 0, 0, 0, 0, 0
VIBE, 30287145, 0.02137481, 0.01647529, 0.03238202, 0, 0, 0
CTRL, 30287152, 0.006967234, 0.0001516537, 0.00518116, 0.0001625138, 4.116811E-05
PRX, 30287183, 2, 0.72, 0, 0.56, 0, 0.59, 0, 2.47, 0, 0, 90, 0.56
IMU, 30306764, 0.0007684919, 0.001134858, 0.0005407581, 0.2132562, -0.01903814, -9.784063, 0, 0, 35.48309, 1, 1, 1000, 1000
IMU, 30346861, 0.0002532295, 0.0007362703, -0.0002833273, 0.2149519, -0.02217249, -9.793524, 0, 0, 35.48299, 1, 1, 1000, 1000
MAG, 30386671, 334, 516, 233, 0, 0, 0, 0, 0, 0, 1, 30386662
BARO, 30386729, -0.3037417, 992.6672, 33.56, -0.2915171, 30386, 0, 33.55
CTUN, 30386741, 0, 0, 0, 0.2032809, -0.2003744, -0.2003744, -0.3, 0, 0, 0, 0, -3
ATT, 30386820, 0, 0.66, 0, 0.49, 0.14, 0.15, 0, 1
RATE, 30386826, -2.972397, 0.05209354, -0.007130389, -2.210447, -0.007859068, -0.005352669, 0.01273428, -0.04187813, 2.976327E-05, 1340.521, -1.033783, 0
NKF1, 30386834, 0.66, 0.49, 0.15, -0.008730001, 0.006506221, 0.03309929, 0, 0, 0, 0.2003744, -0.02, 0, 0
NKF2, 30386834, 1, 0, 0, 0, 0, 0, 0, 0, 0, 0, 0, 0, 0
NKF3, 30386834, 0, 0, 0, -0.01, 0.01, -0.09, 0, 0, 0, 0, 0
NKF4, 30386834, 0, 0, 0, 0, 0, 1.932093E-06, 0, 0, 0, 19, 229, 0, 0
NKF5, 30386834, 0, 0, 0, 0, 0.05, 0.29, 0, 0.05, 0.22, 4.496394E-05, 0.0004493732, 0.05438428
NKQ1, 30386834, 0.999936, 0.001204873, 0.0111701, 0.001324976
AHR2, 30386878, 0.6, 0.48, 0.14, -0.3, 0, 0, 0.9999765, 0.005241406, 0.004233319, 0.001285495
MOTB, 30386885, 1, 1, 0, 1
RCIN, 30386889, 0, 0, 0, 0, 0, 0, 0, 0, 0, 0, 0, 0, 0, 0
RCOU, 30386895, 1233, 1230, 1221, 1242, 0, 0, 0, 0, 0, 0, 0, 0, 0, 0
VIBE, 30386903, 0.0217994, 0.02051859, 0.0329562, 0, 0, 0
CTRL, 30386910, 0.007006564, 0.0001602722, 0.005200156, 0.0001631966, 4.652626E-05
PRX, 30386940, 2, 0.72, 0, 0.56, 0, 0.6, 0, 2.5, 0, 0, 90, 0.56
IMU, 30386947, 0.000438232, -0.0001152179, -0.000741365, 0.2172734, -0.02151477, -9.783577, 0, 0, 35.48299, 1, 1, 1000, 1000
IMU, 30426713, -0.001783904, 0.0003723009, 0.0007213122, 0.219143, -0.02442226, -9.809121, 0, 0, 35.48302, 1, 1, 1000, 1000
IMU, 30466803, 0.0002438624, -0.0005727899, 0.0004498732, 0.2278062, -0.02416386, -9.792534, 0, 0, 35.48304, 1, 1, 1000, 1000
MAG, 30486812, 331, 520, 229, 0, 0, 0, 0, 0, 0, 1, 30486803
BARO, 30486871, -0.3206162, 992.6689, 33.56, -0.2651126, 30486, 0, 33.55
CTUN, 30486884, 0, 0, 0, 0.2032809, -0.2087806, -0.2087806, -0.32, 0, 0, 0, 0, -3
ATT, 30487052, 0, 0.65, 0, 0.49, 0.14, 0.15, 0, 1
RATE, 30487059, -2.96339, -0.03336409, -0.006676423, -2.211779, -0.02177641, -0.005216597, 0.01270661, -0.04646654, 1.923925E-05, 1350.741, 1.193905, 0
NKF1, 30487067, 0.65, 0.49, 0.15, -0.008368014, 0.006245255, 0.03335162, 0, 0, 0, 0.2087806, -0.02, 0, 0
NKF2, 30487067, 1, 0, 0, 0, 0, 0, 0, 0, 0, 0, 0, 0, 0
NKF3, 30487067, 0, 0, 0, -0.01, 0.01, -0.07, 0, 0, 0, 0, 0
NKF4, 30487067, 0, 0, 0, 0, 0, 2.169337E-06, 0, 0, 0, 19, 229, 0, 0
NKF5, 30487067, 0, 0, 0, 0, 0.05, 0.3, 0, 0.05, 0.22, 4.603587E-05, 0.00101843, 0.05420046
NKQ1, 30487067, 0.999936, 0.001188196, 0.01117314, 0.001329411
AHR2, 30487110, 0.59, 0.48, 0.15, -0.32, 0, 0, 0.9999766, 0.005216161, 0.004236267, 0.001290033
MOTB, 30487118, 1, 1, 0, 1
RCIN, 30487122, 0, 0, 0, 0, 0, 0, 0, 0, 0, 0, 0, 0, 0, 0
RCOU, 30487127, 1232, 1230, 1221, 1241, 0, 0, 0, 0, 0, 0, 0, 0, 0, 0
VIBE, 30487135, 0.0203666, 0.02044196, 0.03353595, 0, 0, 0
CTRL, 30487143, 0.007003801, 0.0001595094, 0.005208908, 0.0001660412, 4.833474E-05
PRX, 30487173, 2, 0.72, 0, 0.56, 0, 0.62, 0, 2.49, 0, 0, 90, 0.56
IMU, 30506805, -0.001792373, 0.001046568, 0.0003252152, 0.2129339, -0.02202358, -9.810506, 0, 0, 35.48304, 1, 1, 1000, 1000
IMU, 30546922, 0.0003612109, -0.0005884025, 0.0004319449, 0.21892, -0.01122545, -9.799521, 0, 0, 35.48303, 1, 1, 1000, 1000
MAG, 30586724, 333, 520, 227, 0, 0, 0, 0, 0, 0, 1, 30586715
BARO, 30586781, -0.2418684, 992.6605, 33.56, -0.06001464, 30586, 0, 33.55
CTUN, 30586794, 0, 0, 0, 0.2032809, -0.2178309, -0.2178309, -0.24, 0, 0, 0, 0, -3
ATT, 30586870, 0, 0.65, 0, 0.49, 0.14, 0.15, 0, 1
RATE, 30586876, -2.957814, -0.01869438, -0.006898073, -2.210279, -0.01921499, -0.005359471, 0.01267526, 0.06923253, -2.491609E-05, 1348.392, 1.868629, 0
NKF1, 30586883, 0.65, 0.49, 0.15, -0.008643997, 0.006276618, 0.03329363, 0, 0, 0, 0.2178309, -0.02, 0, 0
NKF2, 30586883, 1, 0, 0, 0, 0, 0, 0, 0, 0, 0, 0, 0, 0
NKF3, 30586883, 0, 0, 0, -0.01, 0.01, -0.04, 0, 0, 0, 0, 0
NKF4, 30586883, 0, 0, 0, 0, 0, 2.415878E-06, 0, 0, 0, 19, 229, 0, 0
NKF5, 30586883, 0, 0, 0, 0, 0.05, 0.31, 0, 0.05, 0.22, 4.705717E-05, 0.0009358856, 0.05183289
NKQ1, 30586883, 0.999936, 0.001174539, 0.01117239, 0.001359079
AHR2, 30586927, 0.59, 0.48, 0.15, -0.24, 0, 0, 0.9999767, 0.005192107, 0.004236669, 0.001319792
MOTB, 30586934, 1, 1, 0, 1
RCIN, 30586938, 0, 0, 0, 0, 0, 0, 0, 0, 0, 0, 0, 0, 0, 0
RCOU, 30586944, 1233, 1230, 1221, 1242, 0, 0, 0, 0, 0, 0, 0, 0, 0, 0
VIBE, 30586952, 0.02000087, 0.02196437, 0.03422234, 0, 0, 0
CTRL, 30586959, 0.006983011, 0.0001735442, 0.005210268, 0.0001754907, 4.091408E-05
PRX, 30586990, 2, 0.73, 0, 0.56, 0, 0.63, 0, 2.48, 0, 0, 90, 0.56
IMU, 30586997, -0.0007969862, -0.0003129216, 0.001197893, 0.2173864, -0.0347938, -9.81287, 0, 0, 35.48304, 1, 1, 1000, 1000
IMU, 30626767, 0.001004595, 0.0007956995, 3.031387E-05, 0.2111056, -0.02273184, -9.807175, 0, 0, 35.48304, 1, 1, 1000, 1000
IMU, 30666821, 0.0002271733, -9.432995E-05, -0.0007611267, 0.2228876, -0.01769573, -9.802187, 0, 0, 35.48304, 1, 1, 1000, 1000
MAG, 30686807, 336, 519, 229, 0, 0, 0, 0, 0, 0, 1, 30686798
BARO, 30686866, -0.2137441, 992.657, 33.56, 0.126261, 30686, 0, 33.55
CTUN, 30686878, 0, 0, 0, 0.2032809, -0.2267656, -0.2267656, -0.21, 0, 0, 0, 0, -3
ATT, 30687018, 0, 0.65, 0, 0.49, 0.14, 0.15, 0, 1
RATE, 30687025, -2.960902, -0.01083208, -0.006784773, -2.207935, -0.01069569, -0.005098718, 0.01267196, -0.04210243, 3.917951E-05, 1359.027, -0.6467819, 0
NKF1, 30687032, 0.65, 0.49, 0.15, -0.008645945, 0.006234118, 0.03355623, 0, 0, 0, 0.2267656, -0.02, 0, 0
NKF2, 30687032, 0, 0, 0, 0, 0, 0, 0, 0, 0, 0, 0, 0, 0
NKF3, 30687032, 0, 0, 0, -0.01, 0.01, -0.05, 0, 0, 0, 0, 0
NKF4, 30687032, 0, 0, 0, 0, 0, 2.674039E-06, 0, 0, 0, 19, 229, 0, 0
NKF5, 30687032, 0, 0, 0, 0, 0.05, 0.31, 0, 0.05, 0.22, 4.828423E-05, 0.001052435, 0.05026759
NKQ1, 30687032, 0.9999361, 0.001182443, 0.01116544, 0.001361623
AHR2, 30687076, 0.59, 0.48, 0.15, -0.21, 0, 0, 0.9999767, 0.005190594, 0.004231365, 0.00132232
MOTB, 30687083, 1, 1, 0, 1
RCIN, 30687088, 0, 0, 0, 0, 0, 0, 0, 0, 0, 0, 0, 0, 0, 0
RCOU, 30687093, 1233, 1230, 1221, 1241, 0, 0, 0, 0, 0, 0, 0, 0, 0, 0
VIBE, 30687102, 0.02305877, 0.02031582, 0.03234375, 0, 0, 0
CTRL, 30687109, 0.006993283, 0.0001908009, 0.005202073, 0.0001705319, 4.155728E-05
PRX, 30687140, 2, 0.73, 0, 0.56, 0, 0.63, 0, 2.49, 0, 0, 90, 0.56
IMU, 30706953, -0.001448771, -3.623146E-05, 0.001291115, 0.2139097, -0.01692676, -9.791744, 0, 0, 35.48304, 1, 1, 1000, 1000
IMU, 30746973, -8.181006E-05, 6.226362E-05, -0.0002103464, 0.2155514, -0.02047972, -9.798561, 0, 0, 35.48303, 1, 1, 1000, 1000
MAG, 30786775, 335, 520, 230, 0, 0, 0, 0, 0, 0, 1, 30786766
BARO, 30786833, -0.1799951, 992.6534, 33.56, 0.2794026, 30786, 0, 33.55
CTUN, 30786846, 0, 0, 0, 0.2032809, -0.2354638, -0.2354638, -0.17, 0, 0, 0, 0, -3
DU32, 30786883, 7, 33611992
ATT, 30786981, 0, 0.65, 0, 0.48, 0.14, 0.15, 0, 1
RATE, 30786987, -2.961743, 0.04136138, -0.007024264, -2.203211, -0.008142065, -0.005155162, 0.01265061, -0.03619952, 3.981081E-05, 1412.326, -1.847744, 0
NKF1, 30786995, 0.65, 0.48, 0.15, -0.008823959, 0.006465829, 0.03487224, 0, 0, 0, 0.2354638, -0.02, 0, 0
NKF2, 30786995, 0, 0, 0, 0, 0, 0, 0, 0, 0, 0, 0, 0, 0
NKF3, 30786995, 0, 0, 0, -0.01, 0.01, 0.02, 0, 0, 0, 0, 0
NKF4, 30786995, 0, 0, 0, 0, 0, 2.945487E-06, 0, 0, 0, 19, 229, 0, 0
NKF5, 30786995, 0, 0, 0, 0, 0.05, 0.32, 0, 0.05, 0.22, 4.965634E-05, 0.0007081554, 0.04315218
NKQ1, 30786995, 0.9999362, 0.001184415, 0.01115677, 0.001365288
AHR2, 30787040, 0.59, 0.48, 0.15, -0.17, 0, 0, 0.9999768, 0.005185214, 0.004226302, 0.001326023
MOTB, 30787046, 1, 1, 0, 1
RCIN, 30787050, 0, 0, 0, 0, 0, 0, 0, 0, 0, 0, 0, 0, 0, 0
RCOU, 30787055, 1233, 1230, 1221, 1241, 0, 0, 0, 0, 0, 0, 0, 0, 0, 0
VIBE, 30787064, 0.02232042, 0.01903862, 0.0323424, 0, 0, 0
CTRL, 30787071, 0.006988215, 0.0001840821, 0.005195817, 0.0001454681, 3.650018E-05
PRX, 30787102, 2, 0.72, 0, 0.56, 0, 0.61, 0, 2.48, 0, 0, 90, 0.56
IMU, 30787109, 0.0002514277, -0.00011907, -0.0006422302, 0.2176607, -0.0192008, -9.77579, 0, 0, 35.48302, 1, 1, 1000, 1000
IMU, 30826883, -0.00080948, -0.0005607004, -0.001027919, 0.2115281, -0.02229942, -9.807594, 0, 0, 35.48306, 1, 1, 1000, 1000
